{"phase": {"seeds": {"pageInfo": {"totalPages": 1, "total": 13}, "nodes": [{"id": 36329063, "seedNum": 4, "entrant": {"id": 21074732, "name": "Juan J. Steven's", "participants": [{"id": 19356397, "gamerTag": "Juan J. Steven's", "prefix": null, "user": {"location": {"city": "atlanta", "state": "GA", "country": "United States"}}, "player": {"id": 3318064, "gamerTag": "Guts", "prefix": "\u72a0\u7272\u306e\u70d9\u5370", "user": {"location": {"city": "atlanta", "state": "GA", "country": "United States"}}}}]}}, {"id": 36329094, "seedNum": 2, "entrant": {"id": 21074761, "name": "Deign", "participants": [{"id": 19342055, "gamerTag": "Deign", "prefix": "", "user": {"location": {"city": null, "state": null, "country": "United States"}}, "player": {"id": 325595, "gamerTag": "Deign", "prefix": "", "user": {"location": {"city": null, "state": null, "country": "United States"}}}}]}}, {"id": 36329159, "seedNum": 1, "entrant": {"id": 21074822, "name": "blaise", "participants": [{"id": 19342659, "gamerTag": "blaise", "prefix": "", "user": {"location": {"city": "douglasville", "state": "GA", "country": "United States"}}, "player": {"id": 1326121, "gamerTag": "blaise", "prefix": "", "user": {"location": {"city": "douglasville", "state": "GA", "country": "United States"}}}}]}}, {"id": 36329097, "seedNum": 3, "entrant": {"id": 21074765, "name": "KHW | Frumps", "participants": [{"id": 19381622, "gamerTag": "Frumps", "prefix": "KHW", "user": {"location": {"city": "Greenville", "state": "SC", "country": "United States"}}, "player": {"id": 2844590, "gamerTag": "Frumps", "prefix": "KHW", "user": {"location": {"city": "Greenville", "state": "SC", "country": "United States"}}}}]}}, {"id": 36329294, "seedNum": 5, "entrant": {"id": 21074939, "name": "kablooey", "participants": [{"id": 19368963, "gamerTag": "kablooey", "prefix": "", "user": {"location": {"city": "Peachtree City", "state": "GA", "country": "United States"}}, "player": {"id": 220299, "gamerTag": "kablooey", "prefix": "milk", "user": {"location": {"city": "Peachtree City", "state": "GA", "country": "United States"}}}}]}}, {"id": 36329115, "seedNum": 7, "entrant": {"id": 21074787, "name": "dgo", "participants": [{"id": 19360384, "gamerTag": "dgo", "prefix": null, "user": {"location": {"city": "Lithonia", "state": "GA", "country": "United States"}}, "player": {"id": 3821146, "gamerTag": "dgo", "prefix": null, "user": {"location": {"city": "Lithonia", "state": "GA", "country": "United States"}}}}]}}, {"id": 36328962, "seedNum": 8, "entrant": {"id": 21074641, "name": "Juncineroar", "participants": [{"id": 19384161, "gamerTag": "Juncineroar", "prefix": "", "user": {"location": {"city": "Atlanta", "state": "GA", "country": "United States"}}, "player": {"id": 208790, "gamerTag": "Juncineroar", "prefix": "", "user": {"location": {"city": "Atlanta", "state": "GA", "country": "United States"}}}}]}}, {"id": 36328864, "seedNum": 9, "entrant": {"id": 21074599, "name": "June!", "participants": [{"id": 19381787, "gamerTag": "June!", "prefix": null, "user": {"location": {"city": null, "state": "GA", "country": "United States"}}, "player": {"id": 1969803, "gamerTag": "June!", "prefix": null, "user": {"location": {"city": null, "state": "GA", "country": "United States"}}}}]}}, {"id": 36329111, "seedNum": 6, "entrant": {"id": 21074779, "name": "Permafrost", "participants": [{"id": 19345445, "gamerTag": "Permafrost", "prefix": "", "user": {"location": {"city": "Atlanta", "state": "GA", "country": "United States"}}, "player": {"id": 1256898, "gamerTag": "Permafrost", "prefix": "", "user": {"location": {"city": "Atlanta", "state": "GA", "country": "United States"}}}}]}}, {"id": 36328865, "seedNum": 10, "entrant": {"id": 21074600, "name": "TPS | $CAIT", "participants": [{"id": 19342612, "gamerTag": "$CAIT", "prefix": "TPS", "user": {"location": {"city": "Acworth", "state": "GA", "country": "United States"}}, "player": {"id": 3422494, "gamerTag": "$CAITLIN", "prefix": "TPS", "user": {"location": {"city": "Acworth", "state": "GA", "country": "United States"}}}}]}}, {"id": 36329029, "seedNum": 11, "entrant": {"id": 21074708, "name": "juug", "participants": [{"id": 19385637, "gamerTag": "juug", "prefix": "", "user": {"location": {"city": null, "state": "GA", "country": "United States"}}, "player": {"id": 4770959, "gamerTag": "juug", "prefix": "", "user": {"location": {"city": null, "state": "GA", "country": "United States"}}}}]}}, {"id": 36328984, "seedNum": 12, "entrant": {"id": 21074664, "name": "popsicle", "participants": [{"id": 19343372, "gamerTag": "popsicle", "prefix": "", "user": {"location": {"city": "Atlanta", "state": "GA", "country": "United States"}}, "player": {"id": 4435133, "gamerTag": "popsicle", "prefix": "", "user": {"location": {"city": "Atlanta", "state": "GA", "country": "United States"}}}}]}}, {"id": 36329067, "seedNum": 13, "entrant": {"id": 21074735, "name": "Siwoo", "participants": [{"id": 19385659, "gamerTag": "Siwoo", "prefix": "", "user": {"location": {"city": null, "state": "GA", "country": "United States"}}, "player": {"id": 4851678, "gamerTag": "Siwoo", "prefix": "", "user": {"location": {"city": null, "state": "GA", "country": "United States"}}}}]}}]}}}