{"phase": {"seeds": {"pageInfo": {"totalPages": 1, "total": 11}, "nodes": [{"id": 36949210, "seedNum": 1, "entrant": {"id": 21498393, "name": "KumaDusk", "participants": [{"id": 19756088, "gamerTag": "KumaDusk", "prefix": "", "user": {"location": {"city": "Lawrenceville", "state": "GA", "country": "United States"}}, "player": {"id": 253909, "gamerTag": "KumaDusk", "prefix": "", "user": {"location": {"city": "Lawrenceville", "state": "GA", "country": "United States"}}}}]}}, {"id": 36952045, "seedNum": 3, "entrant": {"id": 21500902, "name": "Kid Kaioken", "participants": [{"id": 19758363, "gamerTag": "Kid Kaioken", "prefix": "", "user": {"location": {"city": "Norcross", "state": "GA", "country": "United States"}}, "player": {"id": 2730912, "gamerTag": "Kid Kaioken", "prefix": "", "user": {"location": {"city": "Norcross", "state": "GA", "country": "United States"}}}}]}}, {"id": 36939012, "seedNum": 2, "entrant": {"id": 21490444, "name": "Rain~", "participants": [{"id": 19749066, "gamerTag": "Rain~", "prefix": null, "user": {"location": {"city": "Atlanta", "state": "GA", "country": "United States"}}, "player": {"id": 4240164, "gamerTag": "Rain~", "prefix": null, "user": {"location": {"city": "Atlanta", "state": "GA", "country": "United States"}}}}]}}, {"id": 36951169, "seedNum": 4, "entrant": {"id": 21500113, "name": "Typical!", "participants": [{"id": 19757628, "gamerTag": "Typical!", "prefix": "", "user": {"location": {"city": "Cumming", "state": "GA", "country": "United States"}}, "player": {"id": 1227171, "gamerTag": "Typical!", "prefix": "", "user": {"location": {"city": "Cumming", "state": "GA", "country": "United States"}}}}]}}, {"id": 36950839, "seedNum": 6, "entrant": {"id": 21499820, "name": "Noot", "participants": [{"id": 19757358, "gamerTag": "Noot", "prefix": "", "user": {"location": {"city": null, "state": null, "country": "United States"}}, "player": {"id": 4001469, "gamerTag": "Noot", "prefix": "", "user": {"location": {"city": null, "state": null, "country": "United States"}}}}]}}, {"id": 36951694, "seedNum": 8, "entrant": {"id": 21500608, "name": "Moopisegg", "participants": [{"id": 19758105, "gamerTag": "Moopisegg", "prefix": "", "user": {"location": {"city": null, "state": null, "country": "United States"}}, "player": {"id": 4680890, "gamerTag": "Moopisegg", "prefix": "", "user": {"location": {"city": null, "state": null, "country": "United States"}}}}]}}, {"id": 36950621, "seedNum": 5, "entrant": {"id": 21499658, "name": "AnimeSage", "participants": [{"id": 19757217, "gamerTag": "AnimeSage", "prefix": "", "user": {"location": {"city": null, "state": "GA", "country": "United States"}}, "player": {"id": 2769365, "gamerTag": "AnimeSage", "prefix": "", "user": {"location": {"city": null, "state": "GA", "country": "United States"}}}}]}}, {"id": 36951717, "seedNum": 7, "entrant": {"id": 21500631, "name": "Hq", "participants": [{"id": 19758125, "gamerTag": "Hq", "prefix": "", "user": {"location": {"city": "Suwanee", "state": "GA", "country": "United States"}}, "player": {"id": 4680916, "gamerTag": "Hq", "prefix": "", "user": {"location": {"city": "Suwanee", "state": "GA", "country": "United States"}}}}]}}, {"id": 36951264, "seedNum": 9, "entrant": {"id": 21500201, "name": "LightningFlex", "participants": [{"id": 19757709, "gamerTag": "LightningFlex", "prefix": "", "user": null, "player": {"id": 5010891, "gamerTag": "LightningFlex", "prefix": "", "user": null}}]}}, {"id": 36950728, "seedNum": 10, "entrant": {"id": 21499733, "name": "procuitto", "participants": [{"id": 19757280, "gamerTag": "procuitto", "prefix": null, "user": {"location": {"city": "Suwanee", "state": "GA", "country": "United States"}}, "player": {"id": 4789082, "gamerTag": "procuitto", "prefix": null, "user": {"location": {"city": "Suwanee", "state": "GA", "country": "United States"}}}}]}}, {"id": 36953034, "seedNum": 11, "entrant": {"id": 21501548, "name": "MelN", "participants": [{"id": 19758956, "gamerTag": "MelN", "prefix": null, "user": {"location": {"city": "", "state": "GA", "country": "United States"}}, "player": {"id": 5011016, "gamerTag": "MelN", "prefix": null, "user": {"location": {"city": "", "state": "GA", "country": "United States"}}}}]}}]}}}