{"event": {"sets": {"pageInfo": {"totalPages": 22, "total": 318}, "nodes": [{"id": 92110788, "state": 3, "round": 1, "fullRoundText": "Winners Round 1", "completedAt": 1754180327, "winnerId": 20718910, "slots": [{"id": "92110788-0", "entrant": {"id": 20718910, "name": "HyperKirby", "participants": [{"id": 19068181, "gamerTag": "HyperKirby", "prefix": null, "user": {"location": {"city": "Lawrenceville", "state": "GA", "country": "United States"}}, "player": {"id": 71079, "gamerTag": "HyperKirby", "prefix": null, "user": {"location": {"city": "Lawrenceville", "state": "GA", "country": "United States"}}}}]}, "standing": {"placement": 1, "stats": {"score": {"value": 2}}}}, {"id": "92110788-1", "entrant": {"id": 20723478, "name": "ROK | Karu!", "participants": [{"id": 19072257, "gamerTag": "Karu!", "prefix": "ROK", "user": {"location": {"city": null, "state": null, "country": "United States"}}, "player": {"id": 1964751, "gamerTag": "Super Awesome Duck", "prefix": "ROK", "user": {"location": {"city": null, "state": null, "country": "United States"}}}}]}, "standing": {"placement": 2, "stats": {"score": {"value": 0}}}}], "games": null}, {"id": 92227374, "state": 3, "round": 1, "fullRoundText": "Winners Round 1", "completedAt": 1754166522, "winnerId": 20488513, "slots": [{"id": "92227374-0", "entrant": {"id": 20488513, "name": "BE | Bumble", "participants": [{"id": 18867472, "gamerTag": "Bumble", "prefix": "BE", "user": {"location": {"city": "Savannah", "state": "GA", "country": "United States"}}, "player": {"id": 1169889, "gamerTag": "Bumble", "prefix": "", "user": {"location": {"city": "Savannah", "state": "GA", "country": "United States"}}}}]}, "standing": {"placement": 1, "stats": {"score": {"value": null}}}}, {"id": "92227374-1", "entrant": {"id": 20731847, "name": "soph", "participants": [{"id": 19079389, "gamerTag": "soph", "prefix": "", "user": {"location": {"city": "Santa Rosa Beach", "state": "FL", "country": "United States"}}, "player": {"id": 1641440, "gamerTag": "soph", "prefix": "", "user": {"location": {"city": "Santa Rosa Beach", "state": "FL", "country": "United States"}}}}]}, "standing": {"placement": 2, "stats": {"score": {"value": -1}}}}], "games": null}, {"id": 92110839, "state": 3, "round": -4, "fullRoundText": "Losers Round 2", "completedAt": 1754183994, "winnerId": 20487659, "slots": [{"id": "92110839-0", "entrant": {"id": 20487659, "name": "WIN | KornDog | CJFrozen", "participants": [{"id": 18866879, "gamerTag": "CJFrozen", "prefix": "WIN | KornDog", "user": {"location": {"city": "Rock Hill", "state": "SC", "country": "United States"}}, "player": {"id": 918277, "gamerTag": "CJFrozen", "prefix": "WIN | KornDog", "user": {"location": {"city": "Rock Hill", "state": "SC", "country": "United States"}}}}]}, "standing": {"placement": 1, "stats": {"score": {"value": 2}}}}, {"id": "92110839-1", "entrant": {"id": 20709705, "name": "Cobalt", "participants": [{"id": 19060234, "gamerTag": "Cobalt", "prefix": null, "user": {"location": {"city": "Gainesville", "state": "GA", "country": "United States"}}, "player": {"id": 181792, "gamerTag": "Cobalt", "prefix": null, "user": {"location": {"city": "Gainesville", "state": "GA", "country": "United States"}}}}]}, "standing": {"placement": 2, "stats": {"score": {"value": 1}}}}], "games": null}, {"id": 92110840, "state": 3, "round": -4, "fullRoundText": "Losers Round 2", "completedAt": 1754182281, "winnerId": 20721570, "slots": [{"id": "92110840-0", "entrant": {"id": 20721570, "name": "SmU5h | Vendetta", "participants": [{"id": 19070584, "gamerTag": "Vendetta", "prefix": "SmU5h", "user": {"location": {"city": "Duluth", "state": "GA", "country": "United States"}}, "player": {"id": 343421, "gamerTag": "Vendetta", "prefix": "SmU5h", "user": {"location": {"city": "Duluth", "state": "GA", "country": "United States"}}}}]}, "standing": {"placement": 1, "stats": {"score": {"value": 2}}}}, {"id": "92110840-1", "entrant": {"id": 20673588, "name": "UTK | DBQ | HammerBro", "participants": [{"id": 19028789, "gamerTag": "HammerBro", "prefix": "UTK | DBQ", "user": {"location": {"city": "Chattanooga", "state": "TN", "country": "United States"}}, "player": {"id": 1080845, "gamerTag": "HammerBro", "prefix": "UTK | DBQ", "user": {"location": {"city": "Chattanooga", "state": "TN", "country": "United States"}}}}]}, "standing": {"placement": 2, "stats": {"score": {"value": 1}}}}], "games": null}, {"id": 92110841, "state": 3, "round": -4, "fullRoundText": "Losers Round 2", "completedAt": 1754182184, "winnerId": 20730596, "slots": [{"id": "92110841-0", "entrant": {"id": 20730596, "name": "TTV | aj_waves", "participants": [{"id": 19078266, "gamerTag": "aj_waves", "prefix": "TTV", "user": {"location": {"city": "Statesboro", "state": "GA", "country": "United States"}}, "player": {"id": 3430874, "gamerTag": "aj_waves", "prefix": "TTV", "user": {"location": {"city": "Statesboro", "state": "GA", "country": "United States"}}}}]}, "standing": {"placement": 1, "stats": {"score": {"value": 2}}}}, {"id": "92110841-1", "entrant": {"id": 20555595, "name": "Tavares", "participants": [{"id": 18925965, "gamerTag": "Tavares", "prefix": "", "user": {"location": {"city": "Huntsville", "state": "AL", "country": "United States"}}, "player": {"id": 234829, "gamerTag": "Tavares", "prefix": "CF | AR |", "user": {"location": {"city": "Huntsville", "state": "AL", "country": "United States"}}}}]}, "standing": {"placement": 2, "stats": {"score": {"value": 0}}}}], "games": null}, {"id": 92110842, "state": 3, "round": -4, "fullRoundText": "Losers Round 2", "completedAt": 1754181747, "winnerId": 20494615, "slots": [{"id": "92110842-0", "entrant": {"id": 20768144, "name": "UNAG | WOD | Mirage", "participants": [{"id": 19113338, "gamerTag": "Mirage", "prefix": "UNAG | WOD", "user": {"location": {"city": null, "state": "AL", "country": "United States"}}, "player": {"id": 2303717, "gamerTag": "Mirage", "prefix": "UNAG | WOD", "user": {"location": {"city": null, "state": "AL", "country": "United States"}}}}]}, "standing": {"placement": 2, "stats": {"score": {"value": 1}}}}, {"id": "92110842-1", "entrant": {"id": 20494615, "name": "PACDUECE", "participants": [{"id": 18872949, "gamerTag": "PACDUECE", "prefix": "", "user": {"location": {"city": "Valdosta", "state": "GA", "country": "United States"}}, "player": {"id": 35275, "gamerTag": "PACDUECE", "prefix": "", "user": {"location": {"city": "Valdosta", "state": "GA", "country": "United States"}}}}]}, "standing": {"placement": 1, "stats": {"score": {"value": 2}}}}], "games": null}, {"id": 92110843, "state": 3, "round": -4, "fullRoundText": "Losers Round 2", "completedAt": 1754183042, "winnerId": 20720131, "slots": [{"id": "92110843-0", "entrant": {"id": 20720965, "name": "ROK | Surehyper", "participants": [{"id": 19070028, "gamerTag": "Surehyper", "prefix": "ROK", "user": {"location": {"city": "Miami", "state": "FL", "country": "United States"}}, "player": {"id": 1726915, "gamerTag": "Surehyper", "prefix": "ROK", "user": {"location": {"city": "Miami", "state": "FL", "country": "United States"}}}}]}, "standing": {"placement": 2, "stats": {"score": {"value": 1}}}}, {"id": "92110843-1", "entrant": {"id": 20720131, "name": "PHNM | Chunky", "participants": [{"id": 19069296, "gamerTag": "Chunky", "prefix": "PHNM", "user": {"location": {"city": "Summerville", "state": "SC", "country": "United States"}}, "player": {"id": 1479891, "gamerTag": "Chunky", "prefix": "PHNM", "user": {"location": {"city": "Summerville", "state": "SC", "country": "United States"}}}}]}, "standing": {"placement": 1, "stats": {"score": {"value": 2}}}}], "games": null}, {"id": 92110844, "state": 3, "round": -4, "fullRoundText": "Losers Round 2", "completedAt": 1754183311, "winnerId": 20699992, "slots": [{"id": "92110844-0", "entrant": {"id": 20680949, "name": "Ns | Xceed | Xerzal", "participants": [{"id": 19034841, "gamerTag": "Xerzal", "prefix": "Ns | Xceed", "user": {"location": {"city": "Tuscaloosa", "state": "AL", "country": "United States"}}, "player": {"id": 1760924, "gamerTag": "Xerzal", "prefix": "Ns | Xceed", "user": {"location": {"city": "Tuscaloosa", "state": "AL", "country": "United States"}}}}]}, "standing": {"placement": 2, "stats": {"score": {"value": 1}}}}, {"id": "92110844-1", "entrant": {"id": 20699992, "name": "SFS | TCS | Dany", "participants": [{"id": 19051511, "gamerTag": "Dany", "prefix": "SFS | TCS", "user": {"location": {"city": "Nashville", "state": "TN", "country": "United States"}}, "player": {"id": 606386, "gamerTag": "Dany2theny", "prefix": "TCS", "user": {"location": {"city": "Nashville", "state": "TN", "country": "United States"}}}}]}, "standing": {"placement": 1, "stats": {"score": {"value": 2}}}}], "games": null}, {"id": 92110845, "state": 3, "round": -4, "fullRoundText": "Losers Round 2", "completedAt": 1754182570, "winnerId": 20722062, "slots": [{"id": "92110845-0", "entrant": {"id": 20488589, "name": "Tobe", "participants": [{"id": 18867548, "gamerTag": "Tobe", "prefix": "", "user": {"location": {"city": "Buford", "state": "GA", "country": "United States"}}, "player": {"id": 1646132, "gamerTag": "Tobe", "prefix": "", "user": {"location": {"city": "Buford", "state": "GA", "country": "United States"}}}}]}, "standing": {"placement": 2, "stats": {"score": {"value": 1}}}}, {"id": "92110845-1", "entrant": {"id": 20722062, "name": "YBG Don", "participants": [{"id": 19071049, "gamerTag": "YBG Don", "prefix": "", "user": {"location": {"city": "sussy amogus school", "state": "TX", "country": "United States"}}, "player": {"id": 2228357, "gamerTag": "YBG Don", "prefix": "", "user": {"location": {"city": "sussy amogus school", "state": "TX", "country": "United States"}}}}]}, "standing": {"placement": 1, "stats": {"score": {"value": 2}}}}], "games": null}, {"id": 92110838, "state": 3, "round": -4, "fullRoundText": "Losers Round 2", "completedAt": 1754182864, "winnerId": 20723478, "slots": [{"id": "92110838-0", "entrant": {"id": 20723478, "name": "ROK | Karu!", "participants": [{"id": 19072257, "gamerTag": "Karu!", "prefix": "ROK", "user": {"location": {"city": null, "state": null, "country": "United States"}}, "player": {"id": 1964751, "gamerTag": "Super Awesome Duck", "prefix": "ROK", "user": {"location": {"city": null, "state": null, "country": "United States"}}}}]}, "standing": {"placement": 1, "stats": {"score": {"value": 2}}}}, {"id": "92110838-1", "entrant": {"id": 20482285, "name": "Ave~", "participants": [{"id": 18862343, "gamerTag": "Ave~", "prefix": "", "user": {"location": {"city": null, "state": null, "country": null}}, "player": {"id": 38830, "gamerTag": "Ave~", "prefix": "", "user": {"location": {"city": null, "state": null, "country": null}}}}]}, "standing": {"placement": 2, "stats": {"score": {"value": 1}}}}], "games": null}, {"id": 92110830, "state": 3, "round": -3, "fullRoundText": "Losers Round 1", "completedAt": 1754181819, "winnerId": 20482285, "slots": [{"id": "92110830-0", "entrant": {"id": 20564504, "name": "SmU5h | Shaine", "participants": [{"id": 18933874, "gamerTag": "Shaine", "prefix": "SmU5h", "user": {"location": {"city": "Leesburg", "state": "GA", "country": "United States"}}, "player": {"id": 1482843, "gamerTag": "Shaine", "prefix": "SmU5h", "user": {"location": {"city": "Leesburg", "state": "GA", "country": "United States"}}}}]}, "standing": {"placement": 2, "stats": {"score": {"value": 1}}}}, {"id": "92110830-1", "entrant": {"id": 20482285, "name": "Ave~", "participants": [{"id": 18862343, "gamerTag": "Ave~", "prefix": "", "user": {"location": {"city": null, "state": null, "country": null}}, "player": {"id": 38830, "gamerTag": "Ave~", "prefix": "", "user": {"location": {"city": null, "state": null, "country": null}}}}]}, "standing": {"placement": 1, "stats": {"score": {"value": 2}}}}], "games": null}, {"id": 92110831, "state": 3, "round": -3, "fullRoundText": "Losers Round 1", "completedAt": 1754180043, "winnerId": 20709705, "slots": [{"id": "92110831-0", "entrant": {"id": 20778878, "name": "ROK | Sneaky Pocket Golem", "participants": [{"id": 19122930, "gamerTag": "Sneaky Pocket Golem", "prefix": "ROK", "user": {"location": {"city": "Miami", "state": "FL", "country": "United States"}}, "player": {"id": 1042374, "gamerTag": "Riku", "prefix": "ROK", "user": {"location": {"city": "Miami", "state": "FL", "country": "United States"}}}}]}, "standing": {"placement": 2, "stats": {"score": {"value": 1}}}}, {"id": "92110831-1", "entrant": {"id": 20709705, "name": "Cobalt", "participants": [{"id": 19060234, "gamerTag": "Cobalt", "prefix": null, "user": {"location": {"city": "Gainesville", "state": "GA", "country": "United States"}}, "player": {"id": 181792, "gamerTag": "Cobalt", "prefix": null, "user": {"location": {"city": "Gainesville", "state": "GA", "country": "United States"}}}}]}, "standing": {"placement": 1, "stats": {"score": {"value": 2}}}}], "games": null}, {"id": 92110832, "state": 3, "round": -3, "fullRoundText": "Losers Round 1", "completedAt": 1754181411, "winnerId": 20673588, "slots": [{"id": "92110832-0", "entrant": {"id": 20554478, "name": "Cake", "participants": [{"id": 18925007, "gamerTag": "Cake", "prefix": "", "user": {"location": {"city": "Dallas", "state": "AL", "country": "United States"}}, "player": {"id": 1046075, "gamerTag": "Cake", "prefix": "", "user": {"location": {"city": "Dallas", "state": "AL", "country": "United States"}}}}]}, "standing": {"placement": 2, "stats": {"score": {"value": 0}}}}, {"id": "92110832-1", "entrant": {"id": 20673588, "name": "UTK | DBQ | HammerBro", "participants": [{"id": 19028789, "gamerTag": "HammerBro", "prefix": "UTK | DBQ", "user": {"location": {"city": "Chattanooga", "state": "TN", "country": "United States"}}, "player": {"id": 1080845, "gamerTag": "HammerBro", "prefix": "UTK | DBQ", "user": {"location": {"city": "Chattanooga", "state": "TN", "country": "United States"}}}}]}, "standing": {"placement": 1, "stats": {"score": {"value": 2}}}}], "games": null}, {"id": 92110833, "state": 3, "round": -3, "fullRoundText": "Losers Round 1", "completedAt": 1754181466, "winnerId": 20555595, "slots": [{"id": "92110833-0", "entrant": {"id": 20555595, "name": "Tavares", "participants": [{"id": 18925965, "gamerTag": "Tavares", "prefix": "", "user": {"location": {"city": "Huntsville", "state": "AL", "country": "United States"}}, "player": {"id": 234829, "gamerTag": "Tavares", "prefix": "CF | AR |", "user": {"location": {"city": "Huntsville", "state": "AL", "country": "United States"}}}}]}, "standing": {"placement": 1, "stats": {"score": {"value": 2}}}}, {"id": "92110833-1", "entrant": {"id": 20488678, "name": "GUMP2 | Eleven", "participants": [{"id": 18867622, "gamerTag": "Eleven", "prefix": "GUMP2", "user": {"location": {"city": null, "state": null, "country": null}}, "player": {"id": 2348605, "gamerTag": "Ryu from Streets", "prefix": "GUMP2", "user": {"location": {"city": null, "state": null, "country": null}}}}]}, "standing": {"placement": 2, "stats": {"score": {"value": 0}}}}], "games": null}, {"id": 92110834, "state": 3, "round": -3, "fullRoundText": "Losers Round 1", "completedAt": 1754180575, "winnerId": 20494615, "slots": [{"id": "92110834-0", "entrant": {"id": 20773601, "name": "TCS BTV/WOD | Lost", "participants": [{"id": 19118053, "gamerTag": "Lost", "prefix": "TCS BTV/WOD", "user": {"location": {"city": "Scotts Hill", "state": "TN", "country": "United States"}}, "player": {"id": 1683473, "gamerTag": "Lost", "prefix": "TCS BTV/WOD", "user": {"location": {"city": "Scotts Hill", "state": "TN", "country": "United States"}}}}]}, "standing": {"placement": 2, "stats": {"score": {"value": 0}}}}, {"id": "92110834-1", "entrant": {"id": 20494615, "name": "PACDUECE", "participants": [{"id": 18872949, "gamerTag": "PACDUECE", "prefix": "", "user": {"location": {"city": "Valdosta", "state": "GA", "country": "United States"}}, "player": {"id": 35275, "gamerTag": "PACDUECE", "prefix": "", "user": {"location": {"city": "Valdosta", "state": "GA", "country": "United States"}}}}]}, "standing": {"placement": 1, "stats": {"score": {"value": 2}}}}], "games": null}]}}}