{"phase": {"seeds": {"pageInfo": {"totalPages": 1, "total": 7}, "nodes": [{"id": 36912571, "seedNum": 5, "entrant": {"id": 21471829, "name": "an ewok", "participants": [{"id": 19732275, "gamerTag": "an ewok", "prefix": "", "user": {"location": {"city": "Granite Bay", "state": "CA", "country": "United States"}}, "player": {"id": 40417, "gamerTag": "an ewok", "prefix": "", "user": {"location": {"city": "Granite Bay", "state": "CA", "country": "United States"}}}}]}}, {"id": 36840304, "seedNum": 1, "entrant": {"id": 21420924, "name": "Kemono", "participants": [{"id": 19688975, "gamerTag": "Kemono", "prefix": "", "user": {"location": {"city": null, "state": null, "country": null}}, "player": {"id": 1700140, "gamerTag": "Kemono", "prefix": "", "user": {"location": {"city": null, "state": null, "country": null}}}}]}}, {"id": 36840636, "seedNum": 2, "entrant": {"id": 21421145, "name": "Kirbyfan", "participants": [{"id": 19689154, "gamerTag": "Kirbyfan", "prefix": null, "user": {"location": {"city": "Savannah", "state": "GA", "country": "United States"}}, "player": {"id": 2195459, "gamerTag": "Kirbyfan", "prefix": null, "user": {"location": {"city": "Savannah", "state": "GA", "country": "United States"}}}}]}}, {"id": 36840227, "seedNum": 4, "entrant": {"id": 21420848, "name": "Bumble", "participants": [{"id": 19688923, "gamerTag": "Bumble", "prefix": "", "user": {"location": {"city": "Savannah", "state": "GA", "country": "United States"}}, "player": {"id": 1169889, "gamerTag": "Bumble", "prefix": "", "user": {"location": {"city": "Savannah", "state": "GA", "country": "United States"}}}}]}}, {"id": 36915771, "seedNum": 7, "entrant": {"id": 21473894, "name": "Noobyoulus", "participants": [{"id": 19734092, "gamerTag": "Noobyoulus", "prefix": "", "user": {"location": {"city": null, "state": "SC", "country": "United States"}}, "player": {"id": 4134317, "gamerTag": "Noobyoulus", "prefix": "", "user": {"location": {"city": null, "state": "SC", "country": "United States"}}}}]}}, {"id": 36840366, "seedNum": 3, "entrant": {"id": 21420985, "name": "Yusei", "participants": [{"id": 19689021, "gamerTag": "Yusei", "prefix": "", "user": {"location": {"city": "Fort Stewart", "state": "GA", "country": "United States"}}, "player": {"id": 7817, "gamerTag": "Yusei", "prefix": "", "user": {"location": {"city": "Fort Stewart", "state": "GA", "country": "United States"}}}}]}}, {"id": 36915592, "seedNum": 6, "entrant": {"id": 21473766, "name": "G0053 | Fire_eyes", "participants": [{"id": 19733972, "gamerTag": "Fire_eyes", "prefix": "G0053", "user": {"location": {"city": null, "state": "GA", "country": "United States"}}, "player": {"id": 5007155, "gamerTag": "Fire_eyes", "prefix": "G0053", "user": {"location": {"city": null, "state": "GA", "country": "United States"}}}}]}}]}}}