{"event": {"sets": {"pageInfo": {"totalPages": 3, "total": 32}, "nodes": [{"id": 91655317, "state": 3, "round": 4, "fullRoundText": "Round 4", "completedAt": 1753041983, "winnerId": 20749971, "slots": [{"id": "91655317-0", "entrant": {"id": 20663114, "name": "GG | varunk", "participants": [{"id": 19019970, "gamerTag": "varunk", "prefix": "GG", "user": {"location": {"city": "Marietta", "state": "GA", "country": "United States"}}, "player": {"id": 1653684, "gamerTag": "varunk", "prefix": "GG", "user": {"location": {"city": "Marietta", "state": "GA", "country": "United States"}}}}]}, "standing": {"placement": 2, "stats": {"score": {"value": -1}}}}, {"id": "91655317-1", "entrant": {"id": 20749971, "name": "punk2 | tape", "participants": [{"id": 19094661, "gamerTag": "tape", "prefix": "punk2", "user": {"location": {"city": "Douglasville", "state": "GA", "country": "United States"}}, "player": {"id": 2493488, "gamerTag": "tape", "prefix": "punk2", "user": {"location": {"city": "Douglasville", "state": "GA", "country": "United States"}}}}]}, "standing": {"placement": 1, "stats": {"score": {"value": null}}}}], "games": null}, {"id": 91655310, "state": 3, "round": 3, "fullRoundText": "Round 3", "completedAt": 1753045439, "winnerId": 20652317, "slots": [{"id": "91655310-0", "entrant": {"id": 20652317, "name": "ROB Slayer", "participants": [{"id": 19010408, "gamerTag": "ROB Slayer", "prefix": null, "user": {"location": {"city": "Atlanta", "state": "GA", "country": "United States"}}, "player": {"id": 2414381, "gamerTag": "ROB Slayer", "prefix": "Hell Mode", "user": {"location": {"city": "Atlanta", "state": "GA", "country": "United States"}}}}]}, "standing": {"placement": 1, "stats": {"score": {"value": 2}}}}, {"id": "91655310-1", "entrant": {"id": 20747994, "name": "librakitty", "participants": [{"id": 19093574, "gamerTag": "librakitty", "prefix": "", "user": {"location": {"city": "Carrollton", "state": "GA", "country": "United States"}}, "player": {"id": 4796441, "gamerTag": "librakitty", "prefix": "", "user": {"location": {"city": "Carrollton", "state": "GA", "country": "United States"}}}}]}, "standing": {"placement": 2, "stats": {"score": {"value": 0}}}}], "games": null}, {"id": 91655311, "state": 3, "round": 3, "fullRoundText": "Round 3", "completedAt": 1753042062, "winnerId": 20720056, "slots": [{"id": "91655311-0", "entrant": {"id": 20736213, "name": "Puke", "participants": [{"id": 19082937, "gamerTag": "Puke", "prefix": "", "user": {"location": {"city": null, "state": "GA", "country": "United States"}}, "player": {"id": 400199, "gamerTag": "Alting", "prefix": "", "user": {"location": {"city": null, "state": "GA", "country": "United States"}}}}]}, "standing": {"placement": 2, "stats": {"score": {"value": -1}}}}, {"id": "91655311-1", "entrant": {"id": 20720056, "name": "LADZ | Gunstar3888", "participants": [{"id": 19069227, "gamerTag": "Gunstar3888", "prefix": "LADZ", "user": {"location": {"city": null, "state": null, "country": null}}, "player": {"id": 1313518, "gamerTag": "Gunstar3888", "prefix": "LADZ", "user": {"location": {"city": null, "state": null, "country": null}}}}]}, "standing": {"placement": 1, "stats": {"score": {"value": null}}}}], "games": null}, {"id": 91655312, "state": 3, "round": 3, "fullRoundText": "Round 3", "completedAt": 1753042008, "winnerId": 20741083, "slots": [{"id": "91655312-0", "entrant": {"id": 20663114, "name": "GG | varunk", "participants": [{"id": 19019970, "gamerTag": "varunk", "prefix": "GG", "user": {"location": {"city": "Marietta", "state": "GA", "country": "United States"}}, "player": {"id": 1653684, "gamerTag": "varunk", "prefix": "GG", "user": {"location": {"city": "Marietta", "state": "GA", "country": "United States"}}}}]}, "standing": {"placement": 2, "stats": {"score": {"value": -1}}}}, {"id": "91655312-1", "entrant": {"id": 20741083, "name": "Nyramyss", "participants": [{"id": 19087063, "gamerTag": "Nyramyss", "prefix": "", "user": {"location": {"city": "Acworth", "state": "GA", "country": "United States"}}, "player": {"id": 2648735, "gamerTag": "Nyramyss", "prefix": "", "user": {"location": {"city": "Acworth", "state": "GA", "country": "United States"}}}}]}, "standing": {"placement": 1, "stats": {"score": {"value": null}}}}], "games": null}, {"id": 91655313, "state": 3, "round": 3, "fullRoundText": "Round 3", "completedAt": 1753044076, "winnerId": 20749971, "slots": [{"id": "91655313-0", "entrant": {"id": 20749971, "name": "punk2 | tape", "participants": [{"id": 19094661, "gamerTag": "tape", "prefix": "punk2", "user": {"location": {"city": "Douglasville", "state": "GA", "country": "United States"}}, "player": {"id": 2493488, "gamerTag": "tape", "prefix": "punk2", "user": {"location": {"city": "Douglasville", "state": "GA", "country": "United States"}}}}]}, "standing": {"placement": 1, "stats": {"score": {"value": 2}}}}, {"id": "91655313-1", "entrant": {"id": 20719705, "name": "ballmeat", "participants": [{"id": 19068884, "gamerTag": "ballmeat", "prefix": null, "user": {"location": {"city": "Alexandria", "state": "VA", "country": "United States"}}, "player": {"id": 2295476, "gamerTag": "ballmeat", "prefix": null, "user": {"location": {"city": "Alexandria", "state": "VA", "country": "United States"}}}}]}, "standing": {"placement": 2, "stats": {"score": {"value": 0}}}}], "games": [{"id": 31402731, "orderNum": 1, "winnerId": 20749971, "entrant1Score": null, "entrant2Score": 0, "stage": null, "selections": [{"id": 46228174, "selectionType": "CHARACTER", "selectionValue": 1301, "entrant": {"id": 20719705}, "character": {"id": 1301, "name": "Luigi"}}, {"id": 46228175, "selectionType": "CHARACTER", "selectionValue": 1279, "entrant": {"id": 20749971}, "character": {"id": 1279, "name": "Diddy Kong"}}]}, {"id": 31402732, "orderNum": 2, "winnerId": 20749971, "entrant1Score": null, "entrant2Score": 0, "stage": null, "selections": [{"id": 46228176, "selectionType": "CHARACTER", "selectionValue": 1301, "entrant": {"id": 20719705}, "character": {"id": 1301, "name": "Luigi"}}, {"id": 46228177, "selectionType": "CHARACTER", "selectionValue": 1279, "entrant": {"id": 20749971}, "character": {"id": 1279, "name": "Diddy Kong"}}]}]}, {"id": 91658410, "state": 3, "round": 2, "fullRoundText": "Grand Final", "completedAt": 1753048886, "winnerId": 20652317, "slots": [{"id": "91658410-0", "entrant": {"id": 20652317, "name": "ROB Slayer", "participants": [{"id": 19010408, "gamerTag": "ROB Slayer", "prefix": null, "user": {"location": {"city": "Atlanta", "state": "GA", "country": "United States"}}, "player": {"id": 2414381, "gamerTag": "ROB Slayer", "prefix": "Hell Mode", "user": {"location": {"city": "Atlanta", "state": "GA", "country": "United States"}}}}]}, "standing": {"placement": 1, "stats": {"score": {"value": 3}}}}, {"id": "91658410-1", "entrant": {"id": 20749971, "name": "punk2 | tape", "participants": [{"id": 19094661, "gamerTag": "tape", "prefix": "punk2", "user": {"location": {"city": "Douglasville", "state": "GA", "country": "United States"}}, "player": {"id": 2493488, "gamerTag": "tape", "prefix": "punk2", "user": {"location": {"city": "Douglasville", "state": "GA", "country": "United States"}}}}]}, "standing": {"placement": 2, "stats": {"score": {"value": 0}}}}], "games": [{"id": 31404639, "orderNum": 1, "winnerId": 20652317, "entrant1Score": 0, "entrant2Score": 0, "stage": null, "selections": [{"id": 46231327, "selectionType": "CHARACTER", "selectionValue": 1453, "entrant": {"id": 20652317}, "character": {"id": 1453, "name": "Joker"}}, {"id": 46231328, "selectionType": "CHARACTER", "selectionValue": 1274, "entrant": {"id": 20749971}, "character": {"id": 1274, "name": "Captain Falcon"}}]}, {"id": 31404640, "orderNum": 2, "winnerId": 20652317, "entrant1Score": null, "entrant2Score": 0, "stage": null, "selections": [{"id": 46231329, "selectionType": "CHARACTER", "selectionValue": 1453, "entrant": {"id": 20652317}, "character": {"id": 1453, "name": "Joker"}}, {"id": 46231330, "selectionType": "CHARACTER", "selectionValue": 1274, "entrant": {"id": 20749971}, "character": {"id": 1274, "name": "Captain Falcon"}}]}, {"id": 31404641, "orderNum": 3, "winnerId": 20652317, "entrant1Score": null, "entrant2Score": 0, "stage": null, "selections": [{"id": 46231331, "selectionType": "CHARACTER", "selectionValue": 1453, "entrant": {"id": 20652317}, "character": {"id": 1453, "name": "Joker"}}, {"id": 46231332, "selectionType": "CHARACTER", "selectionValue": 1274, "entrant": {"id": 20749971}, "character": {"id": 1274, "name": "Captain Falcon"}}]}]}, {"id": 91655306, "state": 3, "round": 2, "fullRoundText": "Round 2", "completedAt": 1753042036, "winnerId": 20652317, "slots": [{"id": "91655306-0", "entrant": {"id": 20652317, "name": "ROB Slayer", "participants": [{"id": 19010408, "gamerTag": "ROB Slayer", "prefix": null, "user": {"location": {"city": "Atlanta", "state": "GA", "country": "United States"}}, "player": {"id": 2414381, "gamerTag": "ROB Slayer", "prefix": "Hell Mode", "user": {"location": {"city": "Atlanta", "state": "GA", "country": "United States"}}}}]}, "standing": {"placement": 1, "stats": {"score": {"value": null}}}}, {"id": "91655306-1", "entrant": {"id": 20736213, "name": "Puke", "participants": [{"id": 19082937, "gamerTag": "Puke", "prefix": "", "user": {"location": {"city": null, "state": "GA", "country": "United States"}}, "player": {"id": 400199, "gamerTag": "Alting", "prefix": "", "user": {"location": {"city": null, "state": "GA", "country": "United States"}}}}]}, "standing": {"placement": 2, "stats": {"score": {"value": -1}}}}], "games": null}, {"id": 91655307, "state": 3, "round": 2, "fullRoundText": "Round 2", "completedAt": 1753042019, "winnerId": 20747994, "slots": [{"id": "91655307-0", "entrant": {"id": 20663114, "name": "GG | varunk", "participants": [{"id": 19019970, "gamerTag": "varunk", "prefix": "GG", "user": {"location": {"city": "Marietta", "state": "GA", "country": "United States"}}, "player": {"id": 1653684, "gamerTag": "varunk", "prefix": "GG", "user": {"location": {"city": "Marietta", "state": "GA", "country": "United States"}}}}]}, "standing": {"placement": 2, "stats": {"score": {"value": -1}}}}, {"id": "91655307-1", "entrant": {"id": 20747994, "name": "librakitty", "participants": [{"id": 19093574, "gamerTag": "librakitty", "prefix": "", "user": {"location": {"city": "Carrollton", "state": "GA", "country": "United States"}}, "player": {"id": 4796441, "gamerTag": "librakitty", "prefix": "", "user": {"location": {"city": "Carrollton", "state": "GA", "country": "United States"}}}}]}, "standing": {"placement": 1, "stats": {"score": {"value": null}}}}], "games": null}, {"id": 91655308, "state": 3, "round": 2, "fullRoundText": "Round 2", "completedAt": 1753043476, "winnerId": 20749971, "slots": [{"id": "91655308-0", "entrant": {"id": 20749971, "name": "punk2 | tape", "participants": [{"id": 19094661, "gamerTag": "tape", "prefix": "punk2", "user": {"location": {"city": "Douglasville", "state": "GA", "country": "United States"}}, "player": {"id": 2493488, "gamerTag": "tape", "prefix": "punk2", "user": {"location": {"city": "Douglasville", "state": "GA", "country": "United States"}}}}]}, "standing": {"placement": 1, "stats": {"score": {"value": 2}}}}, {"id": "91655308-1", "entrant": {"id": 20720056, "name": "LADZ | Gunstar3888", "participants": [{"id": 19069227, "gamerTag": "Gunstar3888", "prefix": "LADZ", "user": {"location": {"city": null, "state": null, "country": null}}, "player": {"id": 1313518, "gamerTag": "Gunstar3888", "prefix": "LADZ", "user": {"location": {"city": null, "state": null, "country": null}}}}]}, "standing": {"placement": 2, "stats": {"score": {"value": 0}}}}], "games": [{"id": 31402515, "orderNum": 1, "winnerId": 20749971, "entrant1Score": null, "entrant2Score": 0, "stage": null, "selections": [{"id": 46227831, "selectionType": "CHARACTER", "selectionValue": 1407, "entrant": {"id": 20720056}, "character": {"id": 1407, "name": "King K. Rool"}}, {"id": 46227832, "selectionType": "CHARACTER", "selectionValue": 1293, "entrant": {"id": 20749971}, "character": {"id": 1293, "name": "Jigglypuff"}}]}, {"id": 31402516, "orderNum": 2, "winnerId": 20749971, "entrant1Score": null, "entrant2Score": 0, "stage": null, "selections": [{"id": 46227833, "selectionType": "CHARACTER", "selectionValue": 1530, "entrant": {"id": 20720056}, "character": {"id": 1530, "name": "Banjo-Kazooie"}}, {"id": 46227834, "selectionType": "CHARACTER", "selectionValue": 1291, "entrant": {"id": 20749971}, "character": {"id": 1291, "name": "Ike"}}]}]}, {"id": 91655309, "state": 3, "round": 2, "fullRoundText": "Round 2", "completedAt": 1753043372, "winnerId": 20741083, "slots": [{"id": "91655309-0", "entrant": {"id": 20719705, "name": "ballmeat", "participants": [{"id": 19068884, "gamerTag": "ballmeat", "prefix": null, "user": {"location": {"city": "Alexandria", "state": "VA", "country": "United States"}}, "player": {"id": 2295476, "gamerTag": "ballmeat", "prefix": null, "user": {"location": {"city": "Alexandria", "state": "VA", "country": "United States"}}}}]}, "standing": {"placement": 2, "stats": {"score": {"value": 0}}}}, {"id": "91655309-1", "entrant": {"id": 20741083, "name": "Nyramyss", "participants": [{"id": 19087063, "gamerTag": "Nyramyss", "prefix": "", "user": {"location": {"city": "Acworth", "state": "GA", "country": "United States"}}, "player": {"id": 2648735, "gamerTag": "Nyramyss", "prefix": "", "user": {"location": {"city": "Acworth", "state": "GA", "country": "United States"}}}}]}, "standing": {"placement": 1, "stats": {"score": {"value": 2}}}}], "games": null}, {"id": 91658409, "state": 3, "round": 1, "fullRoundText": "Winners Final", "completedAt": 1753047211, "winnerId": 20652317, "slots": [{"id": "91658409-0", "entrant": {"id": 20652317, "name": "ROB Slayer", "participants": [{"id": 19010408, "gamerTag": "ROB Slayer", "prefix": null, "user": {"location": {"city": "Atlanta", "state": "GA", "country": "United States"}}, "player": {"id": 2414381, "gamerTag": "ROB Slayer", "prefix": "Hell Mode", "user": {"location": {"city": "Atlanta", "state": "GA", "country": "United States"}}}}]}, "standing": {"placement": 1, "stats": {"score": {"value": 3}}}}, {"id": "91658409-1", "entrant": {"id": 20749971, "name": "punk2 | tape", "participants": [{"id": 19094661, "gamerTag": "tape", "prefix": "punk2", "user": {"location": {"city": "Douglasville", "state": "GA", "country": "United States"}}, "player": {"id": 2493488, "gamerTag": "tape", "prefix": "punk2", "user": {"location": {"city": "Douglasville", "state": "GA", "country": "United States"}}}}]}, "standing": {"placement": 2, "stats": {"score": {"value": 0}}}}], "games": [{"id": 31403972, "orderNum": 1, "winnerId": 20652317, "entrant1Score": null, "entrant2Score": 0, "stage": null, "selections": [{"id": 46230174, "selectionType": "CHARACTER", "selectionValue": 1291, "entrant": {"id": 20652317}, "character": {"id": 1291, "name": "Ike"}}, {"id": 46230175, "selectionType": "CHARACTER", "selectionValue": 1291, "entrant": {"id": 20749971}, "character": {"id": 1291, "name": "Ike"}}]}, {"id": 31403973, "orderNum": 2, "winnerId": 20652317, "entrant1Score": null, "entrant2Score": 0, "stage": null, "selections": [{"id": 46230176, "selectionType": "CHARACTER", "selectionValue": 1323, "entrant": {"id": 20652317}, "character": {"id": 1323, "name": "R.O.B."}}, {"id": 46230179, "selectionType": "CHARACTER", "selectionValue": 1279, "entrant": {"id": 20749971}, "character": {"id": 1279, "name": "Diddy Kong"}}]}, {"id": 31403975, "orderNum": 3, "winnerId": 20652317, "entrant1Score": null, "entrant2Score": 0, "stage": null, "selections": [{"id": 46230180, "selectionType": "CHARACTER", "selectionValue": 1323, "entrant": {"id": 20652317}, "character": {"id": 1323, "name": "R.O.B."}}, {"id": 46230181, "selectionType": "CHARACTER", "selectionValue": 1279, "entrant": {"id": 20749971}, "character": {"id": 1279, "name": "Diddy Kong"}}]}]}, {"id": 91655302, "state": 3, "round": 1, "fullRoundText": "Round 1", "completedAt": 1753041973, "winnerId": 20652317, "slots": [{"id": "91655302-0", "entrant": {"id": 20652317, "name": "ROB Slayer", "participants": [{"id": 19010408, "gamerTag": "ROB Slayer", "prefix": null, "user": {"location": {"city": "Atlanta", "state": "GA", "country": "United States"}}, "player": {"id": 2414381, "gamerTag": "ROB Slayer", "prefix": "Hell Mode", "user": {"location": {"city": "Atlanta", "state": "GA", "country": "United States"}}}}]}, "standing": {"placement": 1, "stats": {"score": {"value": null}}}}, {"id": "91655302-1", "entrant": {"id": 20663114, "name": "GG | varunk", "participants": [{"id": 19019970, "gamerTag": "varunk", "prefix": "GG", "user": {"location": {"city": "Marietta", "state": "GA", "country": "United States"}}, "player": {"id": 1653684, "gamerTag": "varunk", "prefix": "GG", "user": {"location": {"city": "Marietta", "state": "GA", "country": "United States"}}}}]}, "standing": {"placement": 2, "stats": {"score": {"value": -1}}}}], "games": null}, {"id": 91655303, "state": 3, "round": 1, "fullRoundText": "Round 1", "completedAt": 1753042041, "winnerId": 20749971, "slots": [{"id": "91655303-0", "entrant": {"id": 20749971, "name": "punk2 | tape", "participants": [{"id": 19094661, "gamerTag": "tape", "prefix": "punk2", "user": {"location": {"city": "Douglasville", "state": "GA", "country": "United States"}}, "player": {"id": 2493488, "gamerTag": "tape", "prefix": "punk2", "user": {"location": {"city": "Douglasville", "state": "GA", "country": "United States"}}}}]}, "standing": {"placement": 1, "stats": {"score": {"value": null}}}}, {"id": "91655303-1", "entrant": {"id": 20736213, "name": "Puke", "participants": [{"id": 19082937, "gamerTag": "Puke", "prefix": "", "user": {"location": {"city": null, "state": "GA", "country": "United States"}}, "player": {"id": 400199, "gamerTag": "Alting", "prefix": "", "user": {"location": {"city": null, "state": "GA", "country": "United States"}}}}]}, "standing": {"placement": 2, "stats": {"score": {"value": -1}}}}], "games": null}, {"id": 91655304, "state": 3, "round": 1, "fullRoundText": "Round 1", "completedAt": 1753044401, "winnerId": 20719705, "slots": [{"id": "91655304-0", "entrant": {"id": 20719705, "name": "ballmeat", "participants": [{"id": 19068884, "gamerTag": "ballmeat", "prefix": null, "user": {"location": {"city": "Alexandria", "state": "VA", "country": "United States"}}, "player": {"id": 2295476, "gamerTag": "ballmeat", "prefix": null, "user": {"location": {"city": "Alexandria", "state": "VA", "country": "United States"}}}}]}, "standing": {"placement": 1, "stats": {"score": {"value": 2}}}}, {"id": "91655304-1", "entrant": {"id": 20747994, "name": "librakitty", "participants": [{"id": 19093574, "gamerTag": "librakitty", "prefix": "", "user": {"location": {"city": "Carrollton", "state": "GA", "country": "United States"}}, "player": {"id": 4796441, "gamerTag": "librakitty", "prefix": "", "user": {"location": {"city": "Carrollton", "state": "GA", "country": "United States"}}}}]}, "standing": {"placement": 2, "stats": {"score": {"value": 0}}}}], "games": [{"id": 31402845, "orderNum": 1, "winnerId": 20719705, "entrant1Score": null, "entrant2Score": 0, "stage": null, "selections": [{"id": 46228360, "selectionType": "CHARACTER", "selectionValue": 1846, "entrant": {"id": 20719705}, "character": {"id": 1846, "name": "Kazuya"}}, {"id": 46228361, "selectionType": "CHARACTER", "selectionValue": 1897, "entrant": {"id": 20747994}, "character": {"id": 1897, "name": "Sora"}}]}, {"id": 31402846, "orderNum": 2, "winnerId": 20719705, "entrant1Score": null, "entrant2Score": 0, "stage": null, "selections": [{"id": 46228362, "selectionType": "CHARACTER", "selectionValue": 1301, "entrant": {"id": 20719705}, "character": {"id": 1301, "name": "Luigi"}}, {"id": 46228363, "selectionType": "CHARACTER", "selectionValue": 1897, "entrant": {"id": 20747994}, "character": {"id": 1897, "name": "Sora"}}]}]}, {"id": 91655305, "state": 3, "round": 1, "fullRoundText": "Round 1", "completedAt": 1753044537, "winnerId": 20741083, "slots": [{"id": "91655305-0", "entrant": {"id": 20741083, "name": "Nyramyss", "participants": [{"id": 19087063, "gamerTag": "Nyramyss", "prefix": "", "user": {"location": {"city": "Acworth", "state": "GA", "country": "United States"}}, "player": {"id": 2648735, "gamerTag": "Nyramyss", "prefix": "", "user": {"location": {"city": "Acworth", "state": "GA", "country": "United States"}}}}]}, "standing": {"placement": 1, "stats": {"score": {"value": 2}}}}, {"id": "91655305-1", "entrant": {"id": 20720056, "name": "LADZ | Gunstar3888", "participants": [{"id": 19069227, "gamerTag": "Gunstar3888", "prefix": "LADZ", "user": {"location": {"city": null, "state": null, "country": null}}, "player": {"id": 1313518, "gamerTag": "Gunstar3888", "prefix": "LADZ", "user": {"location": {"city": null, "state": null, "country": null}}}}]}, "standing": {"placement": 2, "stats": {"score": {"value": 0}}}}], "games": [{"id": 31402874, "orderNum": 1, "winnerId": 20741083, "entrant1Score": null, "entrant2Score": 0, "stage": null, "selections": [{"id": 46228403, "selectionType": "CHARACTER", "selectionValue": 1407, "entrant": {"id": 20720056}, "character": {"id": 1407, "name": "King K. Rool"}}, {"id": 46228404, "selectionType": "CHARACTER", "selectionValue": 1325, "entrant": {"id": 20741083}, "character": {"id": 1325, "name": "Rosalina"}}]}, {"id": 31402875, "orderNum": 2, "winnerId": 20741083, "entrant1Score": null, "entrant2Score": 0, "stage": null, "selections": [{"id": 46228405, "selectionType": "CHARACTER", "selectionValue": 1526, "entrant": {"id": 20720056}, "character": {"id": 1526, "name": "Hero"}}, {"id": 46228406, "selectionType": "CHARACTER", "selectionValue": 1325, "entrant": {"id": 20741083}, "character": {"id": 1325, "name": "Rosalina"}}]}]}]}}}