{"phase": {"seeds": {"pageInfo": {"totalPages": 1, "total": 7}, "nodes": [{"id": 35962773, "seedNum": 2, "entrant": {"id": 20843544, "name": "vivesthesia", "participants": [{"id": 19180311, "gamerTag": "vivesthesia", "prefix": null, "user": {"location": {"city": "Atlanta", "state": "GA", "country": "United States"}}, "player": {"id": 4395171, "gamerTag": "vivesthesia", "prefix": null, "user": {"location": {"city": "Atlanta", "state": "GA", "country": "United States"}}}}]}}, {"id": 35932315, "seedNum": 3, "entrant": {"id": 20825866, "name": "swaggerbee", "participants": [{"id": 19164670, "gamerTag": "swaggerbee", "prefix": "", "user": {"location": {"city": "Atlanta", "state": "GA", "country": "United States"}}, "player": {"id": 1687384, "gamerTag": "swaggerbee", "prefix": "", "user": {"location": {"city": "Atlanta", "state": "GA", "country": "United States"}}}}]}}, {"id": 35942491, "seedNum": 1, "entrant": {"id": 20832630, "name": "audrey", "participants": [{"id": 19170983, "gamerTag": "audrey", "prefix": null, "user": {"location": {"city": "Dunwoody", "state": "GA", "country": "United States"}}, "player": {"id": 1335864, "gamerTag": "audrey", "prefix": null, "user": {"location": {"city": "Dunwoody", "state": "GA", "country": "United States"}}}}]}}, {"id": 35979888, "seedNum": 4, "entrant": {"id": 20854332, "name": "Erran", "participants": [{"id": 19190200, "gamerTag": "Erran", "prefix": "", "user": {"location": {"city": "Atlanta", "state": "GA", "country": "United States"}}, "player": {"id": 36706, "gamerTag": "Erran", "prefix": "", "user": {"location": {"city": "Atlanta", "state": "GA", "country": "United States"}}}}]}}, {"id": 35927975, "seedNum": 5, "entrant": {"id": 20823241, "name": "Tech Chase | braxton", "participants": [{"id": 19162227, "gamerTag": "braxton", "prefix": "Tech Chase", "user": {"location": {"city": "Atlanta", "state": "GA", "country": "United States"}}, "player": {"id": 1037821, "gamerTag": "braxton", "prefix": "The Hive", "user": {"location": {"city": "Atlanta", "state": "GA", "country": "United States"}}}}]}}, {"id": 35967353, "seedNum": 6, "entrant": {"id": 20845995, "name": "Juan J. Steven's", "participants": [{"id": 19182615, "gamerTag": "Juan J. Steven's", "prefix": null, "user": {"location": {"city": "atlanta", "state": "GA", "country": "United States"}}, "player": {"id": 3318064, "gamerTag": "Guts", "prefix": "\u72a0\u7272\u306e\u70d9\u5370", "user": {"location": {"city": "atlanta", "state": "GA", "country": "United States"}}}}]}}, {"id": 35949809, "seedNum": 7, "entrant": {"id": 20837257, "name": "TPS | cryptonic", "participants": [{"id": 19174884, "gamerTag": "cryptonic", "prefix": "TPS", "user": {"location": {"city": "Kennesaw", "state": "GA", "country": "United States"}}, "player": {"id": 3422494, "gamerTag": "$CAITLIN", "prefix": "TPS", "user": {"location": {"city": "Kennesaw", "state": "GA", "country": "United States"}}}}]}}]}}}