{"event": {"sets": {"pageInfo": {"totalPages": 4, "total": 53}, "nodes": [{"id": 91543421, "state": 3, "round": 7, "fullRoundText": "Round 7", "completedAt": 1752883347, "winnerId": 20621556, "slots": [{"id": "91543421-0", "entrant": {"id": 20621556, "name": "Tobe", "participants": [{"id": 18983792, "gamerTag": "Tobe", "prefix": "", "user": {"location": {"city": "Buford", "state": "GA", "country": "United States"}}, "player": {"id": 1646132, "gamerTag": "Tobe", "prefix": "", "user": {"location": {"city": "Buford", "state": "GA", "country": "United States"}}}}]}, "standing": {"placement": 1, "stats": {"score": {"value": 2}}}}, {"id": "91543421-1", "entrant": {"id": 20621519, "name": "STiCK", "participants": [{"id": 18983760, "gamerTag": "STiCK", "prefix": null, "user": {"location": {"city": "Woodstock", "state": "GA", "country": "United States"}}, "player": {"id": 282674, "gamerTag": "STiCK", "prefix": "GUMP2", "user": {"location": {"city": "Woodstock", "state": "GA", "country": "United States"}}}}]}, "standing": {"placement": 2, "stats": {"score": {"value": 0}}}}], "games": null}, {"id": 91543541, "state": 3, "round": 7, "fullRoundText": "Round 7", "completedAt": 1752884351, "winnerId": 20621515, "slots": [{"id": "91543541-0", "entrant": {"id": 20621515, "name": "KumaDusk", "participants": [{"id": 18983757, "gamerTag": "KumaDusk", "prefix": "", "user": {"location": {"city": "Lawrenceville", "state": "GA", "country": "United States"}}, "player": {"id": 253909, "gamerTag": "KumaDusk", "prefix": "", "user": {"location": {"city": "Lawrenceville", "state": "GA", "country": "United States"}}}}]}, "standing": {"placement": 1, "stats": {"score": {"value": null}}}}, {"id": "91543541-1", "entrant": {"id": 20621491, "name": "Barbashop", "participants": [{"id": 18983736, "gamerTag": "Barbashop", "prefix": "", "user": {"location": {"city": null, "state": null, "country": null}}, "player": {"id": 2537853, "gamerTag": "Barbashop", "prefix": "", "user": {"location": {"city": null, "state": null, "country": null}}}}]}, "standing": {"placement": 2, "stats": {"score": {"value": -1}}}}], "games": null}, {"id": 91543542, "state": 3, "round": 7, "fullRoundText": "Round 7", "completedAt": 1752887078, "winnerId": 20621493, "slots": [{"id": "91543542-0", "entrant": {"id": 20621493, "name": "AshNoJoy", "participants": [{"id": 18983738, "gamerTag": "AshNoJoy", "prefix": "", "user": {"location": {"city": "Phenix City", "state": "AL", "country": "United States"}}, "player": {"id": 3141674, "gamerTag": "AshNoJoy", "prefix": "", "user": {"location": {"city": "Phenix City", "state": "AL", "country": "United States"}}}}]}, "standing": {"placement": 1, "stats": {"score": {"value": 2}}}}, {"id": "91543542-1", "entrant": {"id": 20733027, "name": "Jdaddy", "participants": [{"id": 19042273, "gamerTag": "Jdaddy", "prefix": null, "user": {"location": {"city": "Atlanta", "state": "GA", "country": "United States"}}, "player": {"id": 4384721, "gamerTag": "Jdaddy", "prefix": null, "user": {"location": {"city": "Atlanta", "state": "GA", "country": "United States"}}}}]}, "standing": {"placement": 2, "stats": {"score": {"value": 0}}}}], "games": null}, {"id": 91543422, "state": 3, "round": 7, "fullRoundText": "Round 7", "completedAt": 1752891837, "winnerId": 20621384, "slots": [{"id": "91543422-0", "entrant": {"id": 20621384, "name": "C$ | holdmypockets", "participants": [{"id": 18983641, "gamerTag": "holdmypockets", "prefix": "C$", "user": {"location": {"city": "Fayetteville", "state": "GA", "country": "United States"}}, "player": {"id": 617199, "gamerTag": "holdmypockets", "prefix": "C$", "user": {"location": {"city": "Fayetteville", "state": "GA", "country": "United States"}}}}]}, "standing": {"placement": 1, "stats": {"score": {"value": 2}}}}, {"id": "91543422-1", "entrant": {"id": 20621496, "name": "TFT | BigCheese", "participants": [{"id": 18983741, "gamerTag": "BigCheese", "prefix": "TFT", "user": {"location": {"city": null, "state": null, "country": null}}, "player": {"id": 3991446, "gamerTag": "BigCheese", "prefix": "TFT", "user": {"location": {"city": null, "state": null, "country": null}}}}]}, "standing": {"placement": 2, "stats": {"score": {"value": 1}}}}], "games": null}, {"id": 91543423, "state": 3, "round": 7, "fullRoundText": "Round 7", "completedAt": 1752889115, "winnerId": 20621435, "slots": [{"id": "91543423-0", "entrant": {"id": 20621435, "name": "RAMS | RussianJesus", "participants": [{"id": 18983686, "gamerTag": "RussianJesus", "prefix": "RAMS", "user": {"location": {"city": "Atlanta", "state": "GA", "country": "United States"}}, "player": {"id": 1140567, "gamerTag": "RussianJesus", "prefix": "RAMS", "user": {"location": {"city": "Atlanta", "state": "GA", "country": "United States"}}}}]}, "standing": {"placement": 1, "stats": {"score": {"value": 2}}}}, {"id": "91543423-1", "entrant": {"id": 20621498, "name": "TnT | Damp\u00e9", "participants": [{"id": 18983743, "gamerTag": "Damp\u00e9", "prefix": "TnT", "user": {"location": {"city": "Atlanta", "state": "GA", "country": "United States"}}, "player": {"id": 1170738, "gamerTag": "Damp\u00e9", "prefix": "TnT", "user": {"location": {"city": "Atlanta", "state": "GA", "country": "United States"}}}}]}, "standing": {"placement": 2, "stats": {"score": {"value": 0}}}}], "games": null}, {"id": 91543543, "state": 3, "round": 7, "fullRoundText": "Round 7", "completedAt": 1752890119, "winnerId": 20621378, "slots": [{"id": "91543543-0", "entrant": {"id": 20621377, "name": "TnT | Monologgue", "participants": [{"id": 18983633, "gamerTag": "Monologgue", "prefix": "TnT", "user": {"location": {"city": "Atlanta", "state": "GA", "country": "United States"}}, "player": {"id": 1135679, "gamerTag": "Monologgue", "prefix": "TnT", "user": {"location": {"city": "Atlanta", "state": "GA", "country": "United States"}}}}]}, "standing": {"placement": 2, "stats": {"score": {"value": 0}}}}, {"id": "91543543-1", "entrant": {"id": 20621378, "name": "Zarek", "participants": [{"id": 18983634, "gamerTag": "Zarek", "prefix": "", "user": {"location": {"city": "Atlanta", "state": "GA", "country": "United States"}}, "player": {"id": 405682, "gamerTag": "Zarek", "prefix": "", "user": {"location": {"city": "Atlanta", "state": "GA", "country": "United States"}}}}]}, "standing": {"placement": 1, "stats": {"score": {"value": 2}}}}], "games": [{"id": 31357295, "orderNum": 1, "winnerId": 20621378, "entrant1Score": 0, "entrant2Score": null, "stage": {"id": 484, "name": "Small Battlefield"}, "selections": [{"id": 46146127, "selectionType": "CHARACTER", "selectionValue": 1331, "entrant": {"id": 20621377}, "character": {"id": 1331, "name": "Snake"}}, {"id": 46146128, "selectionType": "CHARACTER", "selectionValue": 1338, "entrant": {"id": 20621378}, "character": {"id": 1338, "name": "Yoshi"}}]}, {"id": 31357296, "orderNum": 2, "winnerId": 20621378, "entrant1Score": 0, "entrant2Score": null, "stage": {"id": 484, "name": "Small Battlefield"}, "selections": [{"id": 46146129, "selectionType": "CHARACTER", "selectionValue": 1331, "entrant": {"id": 20621377}, "character": {"id": 1331, "name": "Snake"}}, {"id": 46146130, "selectionType": "CHARACTER", "selectionValue": 1338, "entrant": {"id": 20621378}, "character": {"id": 1338, "name": "Yoshi"}}]}]}, {"id": 91543538, "state": 3, "round": 6, "fullRoundText": "Round 6", "completedAt": 1752888798, "winnerId": 20621515, "slots": [{"id": "91543538-0", "entrant": {"id": 20621515, "name": "KumaDusk", "participants": [{"id": 18983757, "gamerTag": "KumaDusk", "prefix": "", "user": {"location": {"city": "Lawrenceville", "state": "GA", "country": "United States"}}, "player": {"id": 253909, "gamerTag": "KumaDusk", "prefix": "", "user": {"location": {"city": "Lawrenceville", "state": "GA", "country": "United States"}}}}]}, "standing": {"placement": 1, "stats": {"score": {"value": 2}}}}, {"id": "91543538-1", "entrant": {"id": 20621488, "name": "Dubz", "participants": [{"id": 18983732, "gamerTag": "Dubz", "prefix": null, "user": {"location": {"city": "Grayson", "state": "GA", "country": "United States"}}, "player": {"id": 22583, "gamerTag": "Dubz", "prefix": "", "user": {"location": {"city": "Grayson", "state": "GA", "country": "United States"}}}}]}, "standing": {"placement": 2, "stats": {"score": {"value": 0}}}}], "games": null}, {"id": 91543418, "state": 3, "round": 6, "fullRoundText": "Round 6", "completedAt": 1752891077, "winnerId": 20621556, "slots": [{"id": "91543418-0", "entrant": {"id": 20621556, "name": "Tobe", "participants": [{"id": 18983792, "gamerTag": "Tobe", "prefix": "", "user": {"location": {"city": "Buford", "state": "GA", "country": "United States"}}, "player": {"id": 1646132, "gamerTag": "Tobe", "prefix": "", "user": {"location": {"city": "Buford", "state": "GA", "country": "United States"}}}}]}, "standing": {"placement": 1, "stats": {"score": {"value": 2}}}}, {"id": "91543418-1", "entrant": {"id": 20621483, "name": "TFT | Frank", "participants": [{"id": 18983727, "gamerTag": "Frank", "prefix": "TFT", "user": {"location": {"city": "Doraville", "state": "GA", "country": "United States"}}, "player": {"id": 1227401, "gamerTag": "Terry Labonte", "prefix": "TFT", "user": {"location": {"city": "Doraville", "state": "GA", "country": "United States"}}}}]}, "standing": {"placement": 2, "stats": {"score": {"value": 1}}}}], "games": null}, {"id": 91543419, "state": 3, "round": 6, "fullRoundText": "Round 6", "completedAt": 1752891359, "winnerId": 20621519, "slots": [{"id": "91543419-0", "entrant": {"id": 20621384, "name": "C$ | holdmypockets", "participants": [{"id": 18983641, "gamerTag": "holdmypockets", "prefix": "C$", "user": {"location": {"city": "Fayetteville", "state": "GA", "country": "United States"}}, "player": {"id": 617199, "gamerTag": "holdmypockets", "prefix": "C$", "user": {"location": {"city": "Fayetteville", "state": "GA", "country": "United States"}}}}]}, "standing": {"placement": 2, "stats": {"score": {"value": 0}}}}, {"id": "91543419-1", "entrant": {"id": 20621519, "name": "STiCK", "participants": [{"id": 18983760, "gamerTag": "STiCK", "prefix": null, "user": {"location": {"city": "Woodstock", "state": "GA", "country": "United States"}}, "player": {"id": 282674, "gamerTag": "STiCK", "prefix": "GUMP2", "user": {"location": {"city": "Woodstock", "state": "GA", "country": "United States"}}}}]}, "standing": {"placement": 1, "stats": {"score": {"value": 2}}}}], "games": null}, {"id": 91543539, "state": 3, "round": 6, "fullRoundText": "Round 6", "completedAt": 1752884355, "winnerId": 20621493, "slots": [{"id": "91543539-0", "entrant": {"id": 20621493, "name": "AshNoJoy", "participants": [{"id": 18983738, "gamerTag": "AshNoJoy", "prefix": "", "user": {"location": {"city": "Phenix City", "state": "AL", "country": "United States"}}, "player": {"id": 3141674, "gamerTag": "AshNoJoy", "prefix": "", "user": {"location": {"city": "Phenix City", "state": "AL", "country": "United States"}}}}]}, "standing": {"placement": 1, "stats": {"score": {"value": null}}}}, {"id": "91543539-1", "entrant": {"id": 20621491, "name": "Barbashop", "participants": [{"id": 18983736, "gamerTag": "Barbashop", "prefix": "", "user": {"location": {"city": null, "state": null, "country": null}}, "player": {"id": 2537853, "gamerTag": "Barbashop", "prefix": "", "user": {"location": {"city": null, "state": null, "country": null}}}}]}, "standing": {"placement": 2, "stats": {"score": {"value": -1}}}}], "games": null}, {"id": 91543420, "state": 3, "round": 6, "fullRoundText": "Round 6", "completedAt": 1752891318, "winnerId": 20621498, "slots": [{"id": "91543420-0", "entrant": {"id": 20621498, "name": "TnT | Damp\u00e9", "participants": [{"id": 18983743, "gamerTag": "Damp\u00e9", "prefix": "TnT", "user": {"location": {"city": "Atlanta", "state": "GA", "country": "United States"}}, "player": {"id": 1170738, "gamerTag": "Damp\u00e9", "prefix": "TnT", "user": {"location": {"city": "Atlanta", "state": "GA", "country": "United States"}}}}]}, "standing": {"placement": 1, "stats": {"score": {"value": 2}}}}, {"id": "91543420-1", "entrant": {"id": 20621496, "name": "TFT | BigCheese", "participants": [{"id": 18983741, "gamerTag": "BigCheese", "prefix": "TFT", "user": {"location": {"city": null, "state": null, "country": null}}, "player": {"id": 3991446, "gamerTag": "BigCheese", "prefix": "TFT", "user": {"location": {"city": null, "state": null, "country": null}}}}]}, "standing": {"placement": 2, "stats": {"score": {"value": 0}}}}], "games": null}, {"id": 91543540, "state": 3, "round": 6, "fullRoundText": "Round 6", "completedAt": 1752885548, "winnerId": 20621378, "slots": [{"id": "91543540-0", "entrant": {"id": 20621378, "name": "Zarek", "participants": [{"id": 18983634, "gamerTag": "Zarek", "prefix": "", "user": {"location": {"city": "Atlanta", "state": "GA", "country": "United States"}}, "player": {"id": 405682, "gamerTag": "Zarek", "prefix": "", "user": {"location": {"city": "Atlanta", "state": "GA", "country": "United States"}}}}]}, "standing": {"placement": 1, "stats": {"score": {"value": 2}}}}, {"id": "91543540-1", "entrant": {"id": 20733027, "name": "Jdaddy", "participants": [{"id": 19042273, "gamerTag": "Jdaddy", "prefix": null, "user": {"location": {"city": "Atlanta", "state": "GA", "country": "United States"}}, "player": {"id": 4384721, "gamerTag": "Jdaddy", "prefix": null, "user": {"location": {"city": "Atlanta", "state": "GA", "country": "United States"}}}}]}, "standing": {"placement": 2, "stats": {"score": {"value": 1}}}}], "games": [{"id": 31353542, "orderNum": 1, "winnerId": 20621378, "entrant1Score": 0, "entrant2Score": 0, "stage": {"id": 484, "name": "Small Battlefield"}, "selections": [{"id": 46139724, "selectionType": "CHARACTER", "selectionValue": 1315, "entrant": {"id": 20621378}, "character": {"id": 1315, "name": "Pac-Man"}}, {"id": 46139725, "selectionType": "CHARACTER", "selectionValue": 1327, "entrant": {"id": 20733027}, "character": {"id": 1327, "name": "Ryu"}}]}, {"id": 31353543, "orderNum": 2, "winnerId": 20733027, "entrant1Score": 0, "entrant2Score": 0, "stage": {"id": 484, "name": "Small Battlefield"}, "selections": [{"id": 46139726, "selectionType": "CHARACTER", "selectionValue": 1315, "entrant": {"id": 20621378}, "character": {"id": 1315, "name": "Pac-Man"}}, {"id": 46139727, "selectionType": "CHARACTER", "selectionValue": 1327, "entrant": {"id": 20733027}, "character": {"id": 1327, "name": "Ryu"}}]}, {"id": 31353544, "orderNum": 3, "winnerId": 20621378, "entrant1Score": null, "entrant2Score": 0, "stage": null, "selections": [{"id": 46139728, "selectionType": "CHARACTER", "selectionValue": 1315, "entrant": {"id": 20621378}, "character": {"id": 1315, "name": "Pac-Man"}}, {"id": 46139729, "selectionType": "CHARACTER", "selectionValue": 1327, "entrant": {"id": 20733027}, "character": {"id": 1327, "name": "Ryu"}}]}]}, {"id": 91543415, "state": 3, "round": 5, "fullRoundText": "Round 5", "completedAt": 1752889706, "winnerId": 20621556, "slots": [{"id": "91543415-0", "entrant": {"id": 20621556, "name": "Tobe", "participants": [{"id": 18983792, "gamerTag": "Tobe", "prefix": "", "user": {"location": {"city": "Buford", "state": "GA", "country": "United States"}}, "player": {"id": 1646132, "gamerTag": "Tobe", "prefix": "", "user": {"location": {"city": "Buford", "state": "GA", "country": "United States"}}}}]}, "standing": {"placement": 1, "stats": {"score": {"value": 2}}}}, {"id": "91543415-1", "entrant": {"id": 20621384, "name": "C$ | holdmypockets", "participants": [{"id": 18983641, "gamerTag": "holdmypockets", "prefix": "C$", "user": {"location": {"city": "Fayetteville", "state": "GA", "country": "United States"}}, "player": {"id": 617199, "gamerTag": "holdmypockets", "prefix": "C$", "user": {"location": {"city": "Fayetteville", "state": "GA", "country": "United States"}}}}]}, "standing": {"placement": 2, "stats": {"score": {"value": 0}}}}], "games": null}, {"id": 91543535, "state": 3, "round": 5, "fullRoundText": "Round 5", "completedAt": 1752890074, "winnerId": 20621515, "slots": [{"id": "91543535-0", "entrant": {"id": 20621515, "name": "KumaDusk", "participants": [{"id": 18983757, "gamerTag": "KumaDusk", "prefix": "", "user": {"location": {"city": "Lawrenceville", "state": "GA", "country": "United States"}}, "player": {"id": 253909, "gamerTag": "KumaDusk", "prefix": "", "user": {"location": {"city": "Lawrenceville", "state": "GA", "country": "United States"}}}}]}, "standing": {"placement": 1, "stats": {"score": {"value": 2}}}}, {"id": "91543535-1", "entrant": {"id": 20621493, "name": "AshNoJoy", "participants": [{"id": 18983738, "gamerTag": "AshNoJoy", "prefix": "", "user": {"location": {"city": "Phenix City", "state": "AL", "country": "United States"}}, "player": {"id": 3141674, "gamerTag": "AshNoJoy", "prefix": "", "user": {"location": {"city": "Phenix City", "state": "AL", "country": "United States"}}}}]}, "standing": {"placement": 2, "stats": {"score": {"value": 0}}}}], "games": null}, {"id": 91543416, "state": 3, "round": 5, "fullRoundText": "Round 5", "completedAt": 1752888597, "winnerId": 20621483, "slots": [{"id": "91543416-0", "entrant": {"id": 20621435, "name": "RAMS | RussianJesus", "participants": [{"id": 18983686, "gamerTag": "RussianJesus", "prefix": "RAMS", "user": {"location": {"city": "Atlanta", "state": "GA", "country": "United States"}}, "player": {"id": 1140567, "gamerTag": "RussianJesus", "prefix": "RAMS", "user": {"location": {"city": "Atlanta", "state": "GA", "country": "United States"}}}}]}, "standing": {"placement": 2, "stats": {"score": {"value": -1}}}}, {"id": "91543416-1", "entrant": {"id": 20621483, "name": "TFT | Frank", "participants": [{"id": 18983727, "gamerTag": "Frank", "prefix": "TFT", "user": {"location": {"city": "Doraville", "state": "GA", "country": "United States"}}, "player": {"id": 1227401, "gamerTag": "Terry Labonte", "prefix": "TFT", "user": {"location": {"city": "Doraville", "state": "GA", "country": "United States"}}}}]}, "standing": {"placement": 1, "stats": {"score": {"value": 0}}}}], "games": null}]}}}