{"phase": {"seeds": {"pageInfo": {"totalPages": 1, "total": 16}, "nodes": [{"id": 35884841, "seedNum": 3, "entrant": {"id": 20796582, "name": "NLP | iNGenius", "participants": [{"id": 19139535, "gamerTag": "iNGenius", "prefix": "NLP", "user": {"location": {"city": null, "state": null, "country": null}}, "player": {"id": 3194293, "gamerTag": "iNGenius", "prefix": "", "user": {"location": {"city": null, "state": null, "country": null}}}}]}}, {"id": 35624294, "seedNum": 2, "entrant": {"id": 20625763, "name": "CJay", "participants": [{"id": 18987489, "gamerTag": "CJay", "prefix": null, "user": {"location": {"city": "tallahassee", "state": "FL", "country": "United States"}}, "player": {"id": 1852984, "gamerTag": "CJay", "prefix": null, "user": {"location": {"city": "tallahassee", "state": "FL", "country": "United States"}}}}]}}, {"id": 35624473, "seedNum": 1, "entrant": {"id": 20625894, "name": "PACDUECE", "participants": [{"id": 18987576, "gamerTag": "PACDUECE", "prefix": "", "user": {"location": {"city": "Valdosta", "state": "GA", "country": "United States"}}, "player": {"id": 35275, "gamerTag": "PACDUECE", "prefix": "", "user": {"location": {"city": "Valdosta", "state": "GA", "country": "United States"}}}}]}}, {"id": 35624292, "seedNum": 4, "entrant": {"id": 20625760, "name": "BE/JLE | CaptainMilkMan", "participants": [{"id": 18987486, "gamerTag": "CaptainMilkMan", "prefix": "BE/JLE", "user": {"location": {"city": "Albany", "state": "GA", "country": "United States"}}, "player": {"id": 1101654, "gamerTag": "CaptainMilkMan", "prefix": "BE/JLE", "user": {"location": {"city": "Albany", "state": "GA", "country": "United States"}}}}]}}, {"id": 35624300, "seedNum": 5, "entrant": {"id": 20625769, "name": "BE | Derp", "participants": [{"id": 18987495, "gamerTag": "Derp", "prefix": "BE", "user": {"location": {"city": "", "state": "GA", "country": "United States"}}, "player": {"id": 2080364, "gamerTag": "Derp", "prefix": "BE", "user": {"location": {"city": "", "state": "GA", "country": "United States"}}}}]}}, {"id": 35816940, "seedNum": 12, "entrant": {"id": 20759018, "name": "FireLime", "participants": [{"id": 19104654, "gamerTag": "FireLime", "prefix": "", "user": {"location": {"city": "Savannah", "state": "GA", "country": "United States"}}, "player": {"id": 2227253, "gamerTag": "FireLime", "prefix": "", "user": {"location": {"city": "Savannah", "state": "GA", "country": "United States"}}}}]}}, {"id": 35624346, "seedNum": 8, "entrant": {"id": 20625783, "name": "FANN", "participants": [{"id": 18987508, "gamerTag": "FANN", "prefix": "", "user": {"location": {"city": "Valdosta", "state": "GA", "country": "United States"}}, "player": {"id": 2366169, "gamerTag": "crimFANN", "prefix": "", "user": {"location": {"city": "Valdosta", "state": "GA", "country": "United States"}}}}]}}, {"id": 35698213, "seedNum": 11, "entrant": {"id": 20677682, "name": "Braai", "participants": [{"id": 19031989, "gamerTag": "Braai", "prefix": null, "user": {"location": {"city": "Nicholls", "state": null, "country": "United States"}}, "player": {"id": 2627801, "gamerTag": "Braai", "prefix": "", "user": {"location": {"city": "Nicholls", "state": null, "country": "United States"}}}}]}}, {"id": 35816351, "seedNum": 6, "entrant": {"id": 20758616, "name": "Phl0w", "participants": [{"id": 19104294, "gamerTag": "Phl0w", "prefix": null, "user": {"location": {"city": "Savannah", "state": "GA", "country": "United States"}}, "player": {"id": 2525580, "gamerTag": "Phl0w", "prefix": null, "user": {"location": {"city": "Savannah", "state": "GA", "country": "United States"}}}}]}}, {"id": 35624339, "seedNum": 7, "entrant": {"id": 20625775, "name": "KageGato", "participants": [{"id": 18987500, "gamerTag": "KageGato", "prefix": null, "user": {"location": {"city": "Valdosta", "state": "GA", "country": "United States"}}, "player": {"id": 1392649, "gamerTag": "KageGato", "prefix": "", "user": {"location": {"city": "Valdosta", "state": "GA", "country": "United States"}}}}]}}, {"id": 35741306, "seedNum": 9, "entrant": {"id": 20708851, "name": "Stars", "participants": [{"id": 19059492, "gamerTag": "Stars", "prefix": "", "user": {"location": {"city": "Brunswick", "state": "GA", "country": "United States"}}, "player": {"id": 367982, "gamerTag": "Stars", "prefix": "", "user": {"location": {"city": "Brunswick", "state": "GA", "country": "United States"}}}}]}}, {"id": 35624289, "seedNum": 10, "entrant": {"id": 20625758, "name": "Alex828", "participants": [{"id": 18987484, "gamerTag": "Alex828", "prefix": null, "user": {"location": {"city": "Valdosta", "state": "GA", "country": "United States"}}, "player": {"id": 1630146, "gamerTag": "Alex828", "prefix": "", "user": {"location": {"city": "Valdosta", "state": "GA", "country": "United States"}}}}]}}, {"id": 35624302, "seedNum": 13, "entrant": {"id": 20625771, "name": "Ford", "participants": [{"id": 18987497, "gamerTag": "Ford", "prefix": null, "user": {"location": {"city": "", "state": "GA", "country": "United States"}}, "player": {"id": 3471629, "gamerTag": "Ford", "prefix": null, "user": {"location": {"city": "", "state": "GA", "country": "United States"}}}}]}}, {"id": 35624338, "seedNum": 14, "entrant": {"id": 20625777, "name": "TheNickXV", "participants": [{"id": 18987502, "gamerTag": "TheNickXV", "prefix": "", "user": {"location": {"city": null, "state": "GA", "country": "United States"}}, "player": {"id": 1100033, "gamerTag": "TheNickXV", "prefix": "", "user": {"location": {"city": null, "state": "GA", "country": "United States"}}}}]}}, {"id": 35624435, "seedNum": 15, "entrant": {"id": 20625855, "name": "NS | CrossSlash", "participants": [{"id": 18987553, "gamerTag": "CrossSlash", "prefix": "NS", "user": {"location": {"city": "Ocilla", "state": "GA", "country": "United States"}}, "player": {"id": 2235741, "gamerTag": "CrossSlash", "prefix": "NS", "user": {"location": {"city": "Ocilla", "state": "GA", "country": "United States"}}}}]}}, {"id": 35630178, "seedNum": 16, "entrant": {"id": 20629503, "name": "LogMan", "participants": [{"id": 18990709, "gamerTag": "LogMan", "prefix": null, "user": {"location": {"city": "Valdosta", "state": "GA", "country": "United States"}}, "player": {"id": 4526456, "gamerTag": "LogMan", "prefix": "VMS", "user": {"location": {"city": "Valdosta", "state": "GA", "country": "United States"}}}}]}}]}}}