{"phase": {"seeds": {"pageInfo": {"totalPages": 1, "total": 11}, "nodes": [{"id": 36574505, "seedNum": 1, "entrant": {"id": 21237982, "name": "Salvo", "participants": [{"id": 19530630, "gamerTag": "Salvo", "prefix": "", "user": {"location": {"city": "Richmond Hill", "state": "GA", "country": "United States"}}, "player": {"id": 1287834, "gamerTag": "Salvo", "prefix": "", "user": {"location": {"city": "Richmond Hill", "state": "GA", "country": "United States"}}}}]}}, {"id": 36889648, "seedNum": 3, "entrant": {"id": 21455003, "name": "Kemono", "participants": [{"id": 19718559, "gamerTag": "Kemono", "prefix": "", "user": {"location": {"city": null, "state": null, "country": null}}, "player": {"id": 1700140, "gamerTag": "Kemono", "prefix": "", "user": {"location": {"city": null, "state": null, "country": null}}}}]}}, {"id": 36679064, "seedNum": 4, "entrant": {"id": 21312789, "name": "Phl0w", "participants": [{"id": 19593319, "gamerTag": "Phl0w", "prefix": null, "user": {"location": {"city": "Savannah", "state": "GA", "country": "United States"}}, "player": {"id": 2525580, "gamerTag": "Phl0w", "prefix": null, "user": {"location": {"city": "Savannah", "state": "GA", "country": "United States"}}}}]}}, {"id": 36884505, "seedNum": 6, "entrant": {"id": 21450985, "name": "Bumble", "participants": [{"id": 19714939, "gamerTag": "Bumble", "prefix": "", "user": {"location": {"city": "Savannah", "state": "GA", "country": "United States"}}, "player": {"id": 1169889, "gamerTag": "Bumble", "prefix": "", "user": {"location": {"city": "Savannah", "state": "GA", "country": "United States"}}}}]}}, {"id": 36890594, "seedNum": 5, "entrant": {"id": 21455692, "name": "Havoc", "participants": [{"id": 19719122, "gamerTag": "Havoc", "prefix": null, "user": {"location": {"city": "Orlando", "state": "FL", "country": "United States"}}, "player": {"id": 376942, "gamerTag": "Havoc", "prefix": null, "user": {"location": {"city": "Orlando", "state": "FL", "country": "United States"}}}}]}}, {"id": 36886034, "seedNum": 7, "entrant": {"id": 21452076, "name": "Stars", "participants": [{"id": 19715951, "gamerTag": "Stars", "prefix": "", "user": {"location": {"city": "Brunswick", "state": "GA", "country": "United States"}}, "player": {"id": 367982, "gamerTag": "Stars", "prefix": "", "user": {"location": {"city": "Brunswick", "state": "GA", "country": "United States"}}}}]}}, {"id": 36892770, "seedNum": 2, "entrant": {"id": 21457462, "name": "an ewok", "participants": [{"id": 19720716, "gamerTag": "an ewok", "prefix": "", "user": {"location": {"city": "Granite Bay", "state": "CA", "country": "United States"}}, "player": {"id": 40417, "gamerTag": "an ewok", "prefix": "", "user": {"location": {"city": "Granite Bay", "state": "CA", "country": "United States"}}}}]}}, {"id": 36892674, "seedNum": 9, "entrant": {"id": 21457387, "name": "*Seaghoul*", "participants": [{"id": 19720656, "gamerTag": "*Seaghoul*", "prefix": "", "user": {"location": {"city": null, "state": null, "country": "United States"}}, "player": {"id": 4090522, "gamerTag": "*Seaghoul*", "prefix": "", "user": {"location": {"city": null, "state": null, "country": "United States"}}}}]}}, {"id": 36645042, "seedNum": 8, "entrant": {"id": 21287515, "name": "KrimsonKurta", "participants": [{"id": 19572006, "gamerTag": "KrimsonKurta", "prefix": "", "user": {"location": {"city": "Savannah", "state": "GA", "country": "United States"}}, "player": {"id": 3820372, "gamerTag": "KrimsonKurta", "prefix": "", "user": {"location": {"city": "Savannah", "state": "GA", "country": "United States"}}}}]}}, {"id": 36889456, "seedNum": 10, "entrant": {"id": 21454851, "name": "im_tr4$h", "participants": [{"id": 19718440, "gamerTag": "im_tr4$h", "prefix": "", "user": {"location": {"city": "30058", "state": "GA", "country": "United States"}}, "player": {"id": 1862646, "gamerTag": "im_tr4$h", "prefix": "", "user": {"location": {"city": "30058", "state": "GA", "country": "United States"}}}}]}}, {"id": 36888014, "seedNum": 11, "entrant": {"id": 21453647, "name": "^_^ | G1ggleGl1tch", "participants": [{"id": 19717350, "gamerTag": "G1ggleGl1tch", "prefix": "^_^", "user": {"location": {"city": "Savannah", "state": "GA", "country": "United States"}}, "player": {"id": 3893421, "gamerTag": "G1ggleGl1tch", "prefix": "^_^", "user": {"location": {"city": "Savannah", "state": "GA", "country": "United States"}}}}]}}]}}}