{"event": {"sets": {"pageInfo": {"totalPages": 2, "total": 27}, "nodes": [{"id": 94285416, "state": 3, "round": -4, "fullRoundText": "Losers Round 2", "completedAt": 1758770517, "winnerId": 21372098, "slots": [{"id": "94285416-0", "entrant": {"id": 21372098, "name": "PhaZe", "participants": [{"id": 19646549, "gamerTag": "PhaZe", "prefix": "", "user": {"location": {"city": "Gainesville", "state": "GA", "country": "United States"}}, "player": {"id": 36212, "gamerTag": "PhaZe", "prefix": "", "user": {"location": {"city": "Gainesville", "state": "GA", "country": "United States"}}}}]}, "standing": {"placement": 1, "stats": {"score": {"value": 2}}}}, {"id": "94285416-1", "entrant": {"id": 21372099, "name": "TnT | annamation", "participants": [{"id": 19646550, "gamerTag": "annamation", "prefix": "TnT", "user": {"location": {"city": "Atlanta", "state": "GA", "country": "United States"}}, "player": {"id": 1699369, "gamerTag": "annamation", "prefix": "TnT", "user": {"location": {"city": "Atlanta", "state": "GA", "country": "United States"}}}}]}, "standing": {"placement": 2, "stats": {"score": {"value": 1}}}}], "games": null}, {"id": 94285417, "state": 3, "round": -4, "fullRoundText": "Losers Round 2", "completedAt": 1758771818, "winnerId": 21372116, "slots": [{"id": "94285417-0", "entrant": {"id": 21372116, "name": "Mickey.Deeez", "participants": [{"id": 19646566, "gamerTag": "Mickey.Deeez", "prefix": null, "user": {"location": {"city": null, "state": null, "country": "Georgia"}}, "player": {"id": 4023323, "gamerTag": "Mickey.Deeez", "prefix": null, "user": {"location": {"city": null, "state": null, "country": "Georgia"}}}}]}, "standing": {"placement": 1, "stats": {"score": {"value": 2}}}}, {"id": "94285417-1", "entrant": {"id": 21372119, "name": "assclapFGC", "participants": [{"id": 19646570, "gamerTag": "assclapFGC", "prefix": "", "user": {"location": {"city": "Scottdale", "state": "GA", "country": "United States"}}, "player": {"id": 3481864, "gamerTag": "assclapFGC", "prefix": "", "user": {"location": {"city": "Scottdale", "state": "GA", "country": "United States"}}}}]}, "standing": {"placement": 2, "stats": {"score": {"value": 0}}}}], "games": null}, {"id": 94285418, "state": 3, "round": -4, "fullRoundText": "Losers Round 2", "completedAt": 1758771152, "winnerId": 21368020, "slots": [{"id": "94285418-0", "entrant": {"id": 21368020, "name": "TFT/ WFF2 | Ricky Rudd", "participants": [{"id": 19642843, "gamerTag": "Ricky Rudd", "prefix": "TFT/ WFF2", "user": {"location": {"city": "Atlanta", "state": "GA", "country": "United States"}}, "player": {"id": 1751817, "gamerTag": "Ricky Rudd", "prefix": "TFT", "user": {"location": {"city": "Atlanta", "state": "GA", "country": "United States"}}}}]}, "standing": {"placement": 1, "stats": {"score": {"value": 2}}}}, {"id": "94285418-1", "entrant": {"id": 21372394, "name": "Raury", "participants": [{"id": 19646805, "gamerTag": "Raury", "prefix": "", "user": {"location": {"city": "Stone mountain", "state": null, "country": "United States"}}, "player": {"id": 3994062, "gamerTag": "Raury", "prefix": "", "user": {"location": {"city": "Stone mountain", "state": null, "country": "United States"}}}}]}, "standing": {"placement": 2, "stats": {"score": {"value": 0}}}}], "games": null}, {"id": 94285419, "state": 3, "round": -4, "fullRoundText": "Losers Round 2", "completedAt": 1758770977, "winnerId": 21372106, "slots": [{"id": "94285419-0", "entrant": {"id": 21372106, "name": "Jahku$ha", "participants": [{"id": 19646557, "gamerTag": "Jahku$ha", "prefix": "", "user": {"location": {"city": "Atlanta", "state": "GA", "country": "United States"}}, "player": {"id": 4559746, "gamerTag": "Jahku$ha", "prefix": "", "user": {"location": {"city": "Atlanta", "state": "GA", "country": "United States"}}}}]}, "standing": {"placement": 1, "stats": {"score": {"value": 2}}}}, {"id": "94285419-1", "entrant": {"id": 21372397, "name": "Nurikami", "participants": [{"id": 19646534, "gamerTag": "Nurikami", "prefix": null, "user": {"location": {"city": "Sandy Springs", "state": "GA", "country": "United States"}}, "player": {"id": 2894467, "gamerTag": "Nurikami", "prefix": null, "user": {"location": {"city": "Sandy Springs", "state": "GA", "country": "United States"}}}}]}, "standing": {"placement": 2, "stats": {"score": {"value": 1}}}}], "games": null}, {"id": 94285413, "state": 3, "round": -3, "fullRoundText": "Losers Round 1", "completedAt": 1758770133, "winnerId": 21372119, "slots": [{"id": "94285413-0", "entrant": {"id": 21372133, "name": "qua.shn", "participants": [{"id": 19646578, "gamerTag": "qua.shn", "prefix": "", "user": null, "player": {"id": 4992120, "gamerTag": "qua.shn", "prefix": "", "user": null}}]}, "standing": {"placement": 2, "stats": {"score": {"value": 1}}}}, {"id": "94285413-1", "entrant": {"id": 21372119, "name": "assclapFGC", "participants": [{"id": 19646570, "gamerTag": "assclapFGC", "prefix": "", "user": {"location": {"city": "Scottdale", "state": "GA", "country": "United States"}}, "player": {"id": 3481864, "gamerTag": "assclapFGC", "prefix": "", "user": {"location": {"city": "Scottdale", "state": "GA", "country": "United States"}}}}]}, "standing": {"placement": 1, "stats": {"score": {"value": 2}}}}], "games": null}, {"id": 94285415, "state": 3, "round": -3, "fullRoundText": "Losers Round 1", "completedAt": 1758769317, "winnerId": 21372397, "slots": [{"id": "94285415-0", "entrant": {"id": 21372397, "name": "Nurikami", "participants": [{"id": 19646534, "gamerTag": "Nurikami", "prefix": null, "user": {"location": {"city": "Sandy Springs", "state": "GA", "country": "United States"}}, "player": {"id": 2894467, "gamerTag": "Nurikami", "prefix": null, "user": {"location": {"city": "Sandy Springs", "state": "GA", "country": "United States"}}}}]}, "standing": {"placement": 1, "stats": {"score": {"value": 2}}}}, {"id": "94285415-1", "entrant": {"id": 21372103, "name": "TFT | TFT - Guillotine", "participants": [{"id": 19646554, "gamerTag": "TFT - Guillotine", "prefix": "TFT", "user": {"location": {"city": "Atlanta", "state": "GA", "country": "United States"}}, "player": {"id": 4263821, "gamerTag": "TFT - Guillotine", "prefix": "TFT", "user": {"location": {"city": "Atlanta", "state": "GA", "country": "United States"}}}}]}, "standing": {"placement": 2, "stats": {"score": {"value": 0}}}}], "games": null}, {"id": 94285380, "state": 3, "round": 1, "fullRoundText": "Winners Round 1", "completedAt": 1758766956, "winnerId": 21372106, "slots": [{"id": "94285380-0", "entrant": {"id": 21372099, "name": "TnT | annamation", "participants": [{"id": 19646550, "gamerTag": "annamation", "prefix": "TnT", "user": {"location": {"city": "Atlanta", "state": "GA", "country": "United States"}}, "player": {"id": 1699369, "gamerTag": "annamation", "prefix": "TnT", "user": {"location": {"city": "Atlanta", "state": "GA", "country": "United States"}}}}]}, "standing": {"placement": 2, "stats": {"score": {"value": 0}}}}, {"id": "94285380-1", "entrant": {"id": 21372106, "name": "Jahku$ha", "participants": [{"id": 19646557, "gamerTag": "Jahku$ha", "prefix": "", "user": {"location": {"city": "Atlanta", "state": "GA", "country": "United States"}}, "player": {"id": 4559746, "gamerTag": "Jahku$ha", "prefix": "", "user": {"location": {"city": "Atlanta", "state": "GA", "country": "United States"}}}}]}, "standing": {"placement": 1, "stats": {"score": {"value": 2}}}}], "games": null}, {"id": 94285381, "state": 3, "round": 1, "fullRoundText": "Winners Round 1", "completedAt": 1758767450, "winnerId": 21368020, "slots": [{"id": "94285381-0", "entrant": {"id": 21368020, "name": "TFT/ WFF2 | Ricky Rudd", "participants": [{"id": 19642843, "gamerTag": "Ricky Rudd", "prefix": "TFT/ WFF2", "user": {"location": {"city": "Atlanta", "state": "GA", "country": "United States"}}, "player": {"id": 1751817, "gamerTag": "Ricky Rudd", "prefix": "TFT", "user": {"location": {"city": "Atlanta", "state": "GA", "country": "United States"}}}}]}, "standing": {"placement": 1, "stats": {"score": {"value": 2}}}}, {"id": "94285381-1", "entrant": {"id": 21372133, "name": "qua.shn", "participants": [{"id": 19646578, "gamerTag": "qua.shn", "prefix": "", "user": null, "player": {"id": 4992120, "gamerTag": "qua.shn", "prefix": "", "user": null}}]}, "standing": {"placement": 2, "stats": {"score": {"value": 0}}}}], "games": null}, {"id": 94285382, "state": 3, "round": 1, "fullRoundText": "Winners Round 1", "completedAt": 1758768506, "winnerId": 21368034, "slots": [{"id": "94285382-0", "entrant": {"id": 21368034, "name": "TFT | ALLEYCAT", "participants": [{"id": 19642855, "gamerTag": "ALLEYCAT", "prefix": "TFT", "user": {"location": {"city": "Atlanta", "state": "GA", "country": "United States"}}, "player": {"id": 1940654, "gamerTag": "ALLEYCAT", "prefix": "TFT", "user": {"location": {"city": "Atlanta", "state": "GA", "country": "United States"}}}}]}, "standing": {"placement": 1, "stats": {"score": {"value": 2}}}}, {"id": "94285382-1", "entrant": {"id": 21372119, "name": "assclapFGC", "participants": [{"id": 19646570, "gamerTag": "assclapFGC", "prefix": "", "user": {"location": {"city": "Scottdale", "state": "GA", "country": "United States"}}, "player": {"id": 3481864, "gamerTag": "assclapFGC", "prefix": "", "user": {"location": {"city": "Scottdale", "state": "GA", "country": "United States"}}}}]}, "standing": {"placement": 2, "stats": {"score": {"value": 0}}}}], "games": null}, {"id": 94285384, "state": 3, "round": 1, "fullRoundText": "Winners Round 1", "completedAt": 1758768062, "winnerId": 21372116, "slots": [{"id": "94285384-0", "entrant": {"id": 21372394, "name": "Raury", "participants": [{"id": 19646805, "gamerTag": "Raury", "prefix": "", "user": {"location": {"city": "Stone mountain", "state": null, "country": "United States"}}, "player": {"id": 3994062, "gamerTag": "Raury", "prefix": "", "user": {"location": {"city": "Stone mountain", "state": null, "country": "United States"}}}}]}, "standing": {"placement": 2, "stats": {"score": {"value": 1}}}}, {"id": "94285384-1", "entrant": {"id": 21372116, "name": "Mickey.Deeez", "participants": [{"id": 19646566, "gamerTag": "Mickey.Deeez", "prefix": null, "user": {"location": {"city": null, "state": null, "country": "Georgia"}}, "player": {"id": 4023323, "gamerTag": "Mickey.Deeez", "prefix": null, "user": {"location": {"city": null, "state": null, "country": "Georgia"}}}}]}, "standing": {"placement": 1, "stats": {"score": {"value": 2}}}}], "games": null}, {"id": 94285385, "state": 3, "round": 1, "fullRoundText": "Winners Round 1", "completedAt": 1758767457, "winnerId": 21368110, "slots": [{"id": "94285385-0", "entrant": {"id": 21368110, "name": "TFT | Terry Labonte", "participants": [{"id": 19642928, "gamerTag": "Terry Labonte", "prefix": "TFT", "user": {"location": {"city": "Doraville", "state": "GA", "country": "United States"}}, "player": {"id": 1227401, "gamerTag": "Terry Labonte", "prefix": "TFT", "user": {"location": {"city": "Doraville", "state": "GA", "country": "United States"}}}}]}, "standing": {"placement": 1, "stats": {"score": {"value": 2}}}}, {"id": "94285385-1", "entrant": {"id": 21372397, "name": "Nurikami", "participants": [{"id": 19646534, "gamerTag": "Nurikami", "prefix": null, "user": {"location": {"city": "Sandy Springs", "state": "GA", "country": "United States"}}, "player": {"id": 2894467, "gamerTag": "Nurikami", "prefix": null, "user": {"location": {"city": "Sandy Springs", "state": "GA", "country": "United States"}}}}]}, "standing": {"placement": 2, "stats": {"score": {"value": 0}}}}], "games": null}, {"id": 94285386, "state": 3, "round": 1, "fullRoundText": "Winners Round 1", "completedAt": 1758767907, "winnerId": 21372098, "slots": [{"id": "94285386-0", "entrant": {"id": 21372098, "name": "PhaZe", "participants": [{"id": 19646549, "gamerTag": "PhaZe", "prefix": "", "user": {"location": {"city": "Gainesville", "state": "GA", "country": "United States"}}, "player": {"id": 36212, "gamerTag": "PhaZe", "prefix": "", "user": {"location": {"city": "Gainesville", "state": "GA", "country": "United States"}}}}]}, "standing": {"placement": 1, "stats": {"score": {"value": 2}}}}, {"id": "94285386-1", "entrant": {"id": 21372103, "name": "TFT | TFT - Guillotine", "participants": [{"id": 19646554, "gamerTag": "TFT - Guillotine", "prefix": "TFT", "user": {"location": {"city": "Atlanta", "state": "GA", "country": "United States"}}, "player": {"id": 4263821, "gamerTag": "TFT - Guillotine", "prefix": "TFT", "user": {"location": {"city": "Atlanta", "state": "GA", "country": "United States"}}}}]}, "standing": {"placement": 2, "stats": {"score": {"value": 0}}}}], "games": null}]}}}