{"event": {"sets": {"pageInfo": {"totalPages": 4, "total": 58}, "nodes": [{"id": 93924454, "state": 3, "round": 2, "fullRoundText": "Winners Quarter-Final", "completedAt": 1757898160, "winnerId": 21269500, "slots": [{"id": "93924454-0", "entrant": {"id": 21269500, "name": "Heart", "participants": [{"id": 19555339, "gamerTag": "Heart", "prefix": "", "user": {"location": {"city": "Atlanta", "state": "GA", "country": "United States"}}, "player": {"id": 4287822, "gamerTag": "Heart", "prefix": "", "user": {"location": {"city": "Atlanta", "state": "GA", "country": "United States"}}}}]}, "standing": {"placement": 1, "stats": {"score": {"value": 2}}}}, {"id": "93924454-1", "entrant": {"id": 21269232, "name": "Zarek", "participants": [{"id": 19557227, "gamerTag": "Zarek", "prefix": "", "user": {"location": {"city": "Atlanta", "state": "GA", "country": "United States"}}, "player": {"id": 405682, "gamerTag": "Zarek", "prefix": "", "user": {"location": {"city": "Atlanta", "state": "GA", "country": "United States"}}}}]}, "standing": {"placement": 2, "stats": {"score": {"value": 1}}}}], "games": [{"id": 32614808, "orderNum": 1, "winnerId": 21269232, "entrant1Score": 0, "entrant2Score": null, "stage": {"id": 378, "name": "Pok\u00e9mon Stadium 2"}, "selections": [{"id": 48089649, "selectionType": "CHARACTER", "selectionValue": 1315, "entrant": {"id": 21269232}, "character": {"id": 1315, "name": "Pac-Man"}}, {"id": 48089650, "selectionType": "CHARACTER", "selectionValue": 1271, "entrant": {"id": 21269500}, "character": {"id": 1271, "name": "Bayonetta"}}]}, {"id": 32614809, "orderNum": 2, "winnerId": 21269500, "entrant1Score": 0, "entrant2Score": 0, "stage": {"id": 387, "name": "Smashville"}, "selections": [{"id": 48089651, "selectionType": "CHARACTER", "selectionValue": 1315, "entrant": {"id": 21269232}, "character": {"id": 1315, "name": "Pac-Man"}}, {"id": 48089652, "selectionType": "CHARACTER", "selectionValue": 1317, "entrant": {"id": 21269500}, "character": {"id": 1317, "name": "Peach"}}]}, {"id": 32614810, "orderNum": 3, "winnerId": 21269500, "entrant1Score": null, "entrant2Score": 0, "stage": {"id": 348, "name": "Kalos Pok\u00e9mon League"}, "selections": [{"id": 48089653, "selectionType": "CHARACTER", "selectionValue": 1315, "entrant": {"id": 21269232}, "character": {"id": 1315, "name": "Pac-Man"}}, {"id": 48089654, "selectionType": "CHARACTER", "selectionValue": 1317, "entrant": {"id": 21269500}, "character": {"id": 1317, "name": "Peach"}}]}]}, {"id": 93924122, "state": 3, "round": 2, "fullRoundText": "Winners Quarter-Final", "completedAt": 1757898631, "winnerId": 21269453, "slots": [{"id": "93924122-0", "entrant": {"id": 21269455, "name": "TFT | TFT - Guillotine", "participants": [{"id": 19557414, "gamerTag": "TFT - Guillotine", "prefix": "TFT", "user": {"location": {"city": "Atlanta", "state": "GA", "country": "United States"}}, "player": {"id": 4263821, "gamerTag": "TFT - Guillotine", "prefix": "TFT", "user": {"location": {"city": "Atlanta", "state": "GA", "country": "United States"}}}}]}, "standing": {"placement": 2, "stats": {"score": {"value": 0}}}}, {"id": "93924122-1", "entrant": {"id": 21269453, "name": "Jdaddy", "participants": [{"id": 19557412, "gamerTag": "Jdaddy", "prefix": null, "user": {"location": {"city": "Atlanta", "state": "GA", "country": "United States"}}, "player": {"id": 4384721, "gamerTag": "Jdaddy", "prefix": null, "user": {"location": {"city": "Atlanta", "state": "GA", "country": "United States"}}}}]}, "standing": {"placement": 1, "stats": {"score": {"value": 2}}}}], "games": null}, {"id": 93924455, "state": 3, "round": 2, "fullRoundText": "Winners Quarter-Final", "completedAt": 1757898149, "winnerId": 21269304, "slots": [{"id": "93924455-0", "entrant": {"id": 21264569, "name": "TFT | ALLEYCAT", "participants": [{"id": 19553441, "gamerTag": "ALLEYCAT", "prefix": "TFT", "user": {"location": {"city": "Atlanta", "state": "GA", "country": "United States"}}, "player": {"id": 1940654, "gamerTag": "ALLEYCAT", "prefix": "TFT", "user": {"location": {"city": "Atlanta", "state": "GA", "country": "United States"}}}}]}, "standing": {"placement": 2, "stats": {"score": {"value": 0}}}}, {"id": "93924455-1", "entrant": {"id": 21269304, "name": "TFT | BigCheese", "participants": [{"id": 19557285, "gamerTag": "BigCheese", "prefix": "TFT", "user": {"location": {"city": null, "state": null, "country": null}}, "player": {"id": 3991446, "gamerTag": "BigCheese", "prefix": "TFT", "user": {"location": {"city": null, "state": null, "country": null}}}}]}, "standing": {"placement": 1, "stats": {"score": {"value": 2}}}}], "games": null}, {"id": 93924123, "state": 3, "round": 2, "fullRoundText": "Winners Quarter-Final", "completedAt": 1757904209, "winnerId": 21269461, "slots": [{"id": "93924123-0", "entrant": {"id": 21269461, "name": "WFF | Happy", "participants": [{"id": 19557420, "gamerTag": "Happy", "prefix": "WFF", "user": {"location": {"city": "Peachtree CIty", "state": "GA", "country": "United States"}}, "player": {"id": 1383907, "gamerTag": "Happy", "prefix": "WFF", "user": {"location": {"city": "Peachtree CIty", "state": "GA", "country": "United States"}}}}]}, "standing": {"placement": 1, "stats": {"score": {"value": 2}}}}, {"id": "93924123-1", "entrant": {"id": 21268664, "name": "Mrbray30", "participants": [{"id": 19556760, "gamerTag": "Mrbray30", "prefix": "", "user": {"location": {"city": "Atlanta", "state": "GA", "country": "United States"}}, "player": {"id": 4664413, "gamerTag": "Mrbray30", "prefix": "", "user": {"location": {"city": "Atlanta", "state": "GA", "country": "United States"}}}}]}, "standing": {"placement": 2, "stats": {"score": {"value": 0}}}}], "games": [{"id": 32616504, "orderNum": 1, "winnerId": 21269461, "entrant1Score": null, "entrant2Score": 0, "stage": null, "selections": [{"id": 48092718, "selectionType": "CHARACTER", "selectionValue": 1296, "entrant": {"id": 21268664}, "character": {"id": 1296, "name": "Link"}}, {"id": 48092719, "selectionType": "CHARACTER", "selectionValue": 1795, "entrant": {"id": 21269461}, "character": {"id": 1795, "name": "Pyra & Mythra"}}]}, {"id": 32616505, "orderNum": 2, "winnerId": 21269461, "entrant1Score": null, "entrant2Score": 0, "stage": null, "selections": [{"id": 48092720, "selectionType": "CHARACTER", "selectionValue": 1296, "entrant": {"id": 21268664}, "character": {"id": 1296, "name": "Link"}}, {"id": 48092721, "selectionType": "CHARACTER", "selectionValue": 1795, "entrant": {"id": 21269461}, "character": {"id": 1795, "name": "Pyra & Mythra"}}]}]}, {"id": 93924456, "state": 3, "round": 2, "fullRoundText": "Winners Quarter-Final", "completedAt": 1757899058, "winnerId": 21269182, "slots": [{"id": "93924456-0", "entrant": {"id": 21269458, "name": "WeFarmFrank | Gorilla Glue", "participants": [{"id": 19557417, "gamerTag": "Gorilla Glue", "prefix": "WeFarmFrank", "user": {"location": {"city": "Atlanta", "state": "GA", "country": "United States"}}, "player": {"id": 1810274, "gamerTag": "Planet Of Da", "prefix": "WeFarmFrank", "user": {"location": {"city": "Atlanta", "state": "GA", "country": "United States"}}}}]}, "standing": {"placement": 2, "stats": {"score": {"value": 0}}}}, {"id": "93924456-1", "entrant": {"id": 21269182, "name": "SamRice", "participants": [{"id": 19557183, "gamerTag": "SamRice", "prefix": "", "user": {"location": {"city": "Norcross", "state": "GA", "country": "United States"}}, "player": {"id": 2387403, "gamerTag": "SamRice", "prefix": "", "user": {"location": {"city": "Norcross", "state": "GA", "country": "United States"}}}}]}, "standing": {"placement": 1, "stats": {"score": {"value": 2}}}}], "games": null}, {"id": 93924124, "state": 3, "round": 2, "fullRoundText": "Winners Quarter-Final", "completedAt": 1757899460, "winnerId": 21268937, "slots": [{"id": "93924124-0", "entrant": {"id": 21268937, "name": "TnT | Damp\u00e9", "participants": [{"id": 19556966, "gamerTag": "Damp\u00e9", "prefix": "TnT", "user": {"location": {"city": "Atlanta", "state": "GA", "country": "United States"}}, "player": {"id": 1170738, "gamerTag": "Damp\u00e9", "prefix": "TnT", "user": {"location": {"city": "Atlanta", "state": "GA", "country": "United States"}}}}]}, "standing": {"placement": 1, "stats": {"score": {"value": 2}}}}, {"id": "93924124-1", "entrant": {"id": 21265906, "name": "MONEY | ImNoPro", "participants": [{"id": 19554510, "gamerTag": "ImNoPro", "prefix": "MONEY", "user": {"location": {"city": "Calhoun", "state": "GA", "country": "United States"}}, "player": {"id": 2149803, "gamerTag": "ImNoPro", "prefix": "MONEY", "user": {"location": {"city": "Calhoun", "state": "GA", "country": "United States"}}}}]}, "standing": {"placement": 2, "stats": {"score": {"value": 0}}}}], "games": null}, {"id": 93924457, "state": 3, "round": 2, "fullRoundText": "Winners Quarter-Final", "completedAt": 1757899143, "winnerId": 21269469, "slots": [{"id": "93924457-0", "entrant": {"id": 21269469, "name": "TFT | RoKu", "participants": [{"id": 19557430, "gamerTag": "RoKu", "prefix": "TFT", "user": {"location": {"city": "Peachtree Corners", "state": "GA", "country": "United States"}}, "player": {"id": 1107285, "gamerTag": "RoKu", "prefix": "TFT", "user": {"location": {"city": "Peachtree Corners", "state": "GA", "country": "United States"}}}}]}, "standing": {"placement": 1, "stats": {"score": {"value": 2}}}}, {"id": "93924457-1", "entrant": {"id": 21265820, "name": "Yehtu", "participants": [{"id": 19554427, "gamerTag": "Yehtu", "prefix": null, "user": {"location": {"city": null, "state": null, "country": null}}, "player": {"id": 2230310, "gamerTag": "Yehtu", "prefix": null, "user": {"location": {"city": null, "state": null, "country": null}}}}]}, "standing": {"placement": 2, "stats": {"score": {"value": 1}}}}], "games": null}, {"id": 93924511, "state": 3, "round": -6, "fullRoundText": "Losers Final", "completedAt": 1757908740, "winnerId": 21269500, "slots": [{"id": "93924511-0", "entrant": {"id": 21269500, "name": "Heart", "participants": [{"id": 19555339, "gamerTag": "Heart", "prefix": "", "user": {"location": {"city": "Atlanta", "state": "GA", "country": "United States"}}, "player": {"id": 4287822, "gamerTag": "Heart", "prefix": "", "user": {"location": {"city": "Atlanta", "state": "GA", "country": "United States"}}}}]}, "standing": {"placement": 1, "stats": {"score": {"value": 2}}}}, {"id": "93924511-1", "entrant": {"id": 21269458, "name": "WeFarmFrank | Gorilla Glue", "participants": [{"id": 19557417, "gamerTag": "Gorilla Glue", "prefix": "WeFarmFrank", "user": {"location": {"city": "Atlanta", "state": "GA", "country": "United States"}}, "player": {"id": 1810274, "gamerTag": "Planet Of Da", "prefix": "WeFarmFrank", "user": {"location": {"city": "Atlanta", "state": "GA", "country": "United States"}}}}]}, "standing": {"placement": 2, "stats": {"score": {"value": 0}}}}], "games": null}, {"id": 93924483, "state": 3, "round": -4, "fullRoundText": "Losers Round 2", "completedAt": 1757899217, "winnerId": 21265820, "slots": [{"id": "93924483-0", "entrant": {"id": 21265820, "name": "Yehtu", "participants": [{"id": 19554427, "gamerTag": "Yehtu", "prefix": null, "user": {"location": {"city": null, "state": null, "country": null}}, "player": {"id": 2230310, "gamerTag": "Yehtu", "prefix": null, "user": {"location": {"city": null, "state": null, "country": null}}}}]}, "standing": {"placement": 1, "stats": {"score": {"value": 0}}}}, {"id": "93924483-1", "entrant": {"id": 21269354, "name": "TFT | Juug$tarr", "participants": [{"id": 19557329, "gamerTag": "Juug$tarr", "prefix": "TFT", "user": {"location": {"city": "Atlanta", "state": "GA", "country": "United States"}}, "player": {"id": 3621035, "gamerTag": "Juug$tarr", "prefix": "TFT", "user": {"location": {"city": "Atlanta", "state": "GA", "country": "United States"}}}}]}, "standing": {"placement": 2, "stats": {"score": {"value": -1}}}}], "games": null}, {"id": 93924150, "state": 3, "round": -4, "fullRoundText": "Losers Round 2", "completedAt": 1757900671, "winnerId": 21265906, "slots": [{"id": "93924150-0", "entrant": {"id": 21265906, "name": "MONEY | ImNoPro", "participants": [{"id": 19554510, "gamerTag": "ImNoPro", "prefix": "MONEY", "user": {"location": {"city": "Calhoun", "state": "GA", "country": "United States"}}, "player": {"id": 2149803, "gamerTag": "ImNoPro", "prefix": "MONEY", "user": {"location": {"city": "Calhoun", "state": "GA", "country": "United States"}}}}]}, "standing": {"placement": 1, "stats": {"score": {"value": 2}}}}, {"id": "93924150-1", "entrant": {"id": 21269456, "name": "TFT/ WFF2 | Frank Osherm", "participants": [{"id": 19557415, "gamerTag": "Frank Osherm", "prefix": "TFT/ WFF2", "user": {"location": {"city": "Atlanta", "state": "GA", "country": "United States"}}, "player": {"id": 1751817, "gamerTag": "Ricky Rudd", "prefix": "TFT", "user": {"location": {"city": "Atlanta", "state": "GA", "country": "United States"}}}}]}, "standing": {"placement": 2, "stats": {"score": {"value": 0}}}}], "games": null}, {"id": 93924484, "state": 3, "round": -4, "fullRoundText": "Losers Round 2", "completedAt": 1757899688, "winnerId": 21269458, "slots": [{"id": "93924484-0", "entrant": {"id": 21269458, "name": "WeFarmFrank | Gorilla Glue", "participants": [{"id": 19557417, "gamerTag": "Gorilla Glue", "prefix": "WeFarmFrank", "user": {"location": {"city": "Atlanta", "state": "GA", "country": "United States"}}, "player": {"id": 1810274, "gamerTag": "Planet Of Da", "prefix": "WeFarmFrank", "user": {"location": {"city": "Atlanta", "state": "GA", "country": "United States"}}}}]}, "standing": {"placement": 1, "stats": {"score": {"value": 2}}}}, {"id": "93924484-1", "entrant": {"id": 21268827, "name": "MTM | X", "participants": [{"id": 19556885, "gamerTag": "X", "prefix": "MTM", "user": {"location": {"city": "Sandy Springs", "state": "GA", "country": "United States"}}, "player": {"id": 2650387, "gamerTag": "X", "prefix": "MTM", "user": {"location": {"city": "Sandy Springs", "state": "GA", "country": "United States"}}}}]}, "standing": {"placement": 2, "stats": {"score": {"value": 0}}}}], "games": null}, {"id": 93924151, "state": 3, "round": -4, "fullRoundText": "Losers Round 2", "completedAt": 1757900113, "winnerId": 21265186, "slots": [{"id": "93924151-0", "entrant": {"id": 21268664, "name": "Mrbray30", "participants": [{"id": 19556760, "gamerTag": "Mrbray30", "prefix": "", "user": {"location": {"city": "Atlanta", "state": "GA", "country": "United States"}}, "player": {"id": 4664413, "gamerTag": "Mrbray30", "prefix": "", "user": {"location": {"city": "Atlanta", "state": "GA", "country": "United States"}}}}]}, "standing": {"placement": 2, "stats": {"score": {"value": 1}}}}, {"id": "93924151-1", "entrant": {"id": 21265186, "name": "RAMS | RussianJesus", "participants": [{"id": 19553907, "gamerTag": "RussianJesus", "prefix": "RAMS", "user": {"location": {"city": "Atlanta", "state": "GA", "country": "United States"}}, "player": {"id": 1140567, "gamerTag": "RussianJesus", "prefix": "RAMS", "user": {"location": {"city": "Atlanta", "state": "GA", "country": "United States"}}}}]}, "standing": {"placement": 1, "stats": {"score": {"value": 2}}}}], "games": null}, {"id": 93924485, "state": 3, "round": -4, "fullRoundText": "Losers Round 2", "completedAt": 1757899203, "winnerId": 21264569, "slots": [{"id": "93924485-0", "entrant": {"id": 21264569, "name": "TFT | ALLEYCAT", "participants": [{"id": 19553441, "gamerTag": "ALLEYCAT", "prefix": "TFT", "user": {"location": {"city": "Atlanta", "state": "GA", "country": "United States"}}, "player": {"id": 1940654, "gamerTag": "ALLEYCAT", "prefix": "TFT", "user": {"location": {"city": "Atlanta", "state": "GA", "country": "United States"}}}}]}, "standing": {"placement": 1, "stats": {"score": {"value": 2}}}}, {"id": "93924485-1", "entrant": {"id": 21267897, "name": "Nurikami", "participants": [{"id": 19556099, "gamerTag": "Nurikami", "prefix": null, "user": {"location": {"city": "Sandy Springs", "state": "GA", "country": "United States"}}, "player": {"id": 2894467, "gamerTag": "Nurikami", "prefix": null, "user": {"location": {"city": "Sandy Springs", "state": "GA", "country": "United States"}}}}]}, "standing": {"placement": 2, "stats": {"score": {"value": 1}}}}], "games": null}, {"id": 93924152, "state": 3, "round": -4, "fullRoundText": "Losers Round 2", "completedAt": 1757900125, "winnerId": 21269455, "slots": [{"id": "93924152-0", "entrant": {"id": 21269455, "name": "TFT | TFT - Guillotine", "participants": [{"id": 19557414, "gamerTag": "TFT - Guillotine", "prefix": "TFT", "user": {"location": {"city": "Atlanta", "state": "GA", "country": "United States"}}, "player": {"id": 4263821, "gamerTag": "TFT - Guillotine", "prefix": "TFT", "user": {"location": {"city": "Atlanta", "state": "GA", "country": "United States"}}}}]}, "standing": {"placement": 1, "stats": {"score": {"value": 2}}}}, {"id": "93924152-1", "entrant": {"id": 21269531, "name": "Jahku$ha", "participants": [{"id": 19557476, "gamerTag": "Jahku$ha", "prefix": "", "user": {"location": {"city": "Atlanta", "state": "GA", "country": "United States"}}, "player": {"id": 4559746, "gamerTag": "Jahku$ha", "prefix": "", "user": {"location": {"city": "Atlanta", "state": "GA", "country": "United States"}}}}]}, "standing": {"placement": 2, "stats": {"score": {"value": 1}}}}], "games": null}, {"id": 93924486, "state": 3, "round": -4, "fullRoundText": "Losers Round 2", "completedAt": 1757899438, "winnerId": 21269232, "slots": [{"id": "93924486-0", "entrant": {"id": 21269232, "name": "Zarek", "participants": [{"id": 19557227, "gamerTag": "Zarek", "prefix": "", "user": {"location": {"city": "Atlanta", "state": "GA", "country": "United States"}}, "player": {"id": 405682, "gamerTag": "Zarek", "prefix": "", "user": {"location": {"city": "Atlanta", "state": "GA", "country": "United States"}}}}]}, "standing": {"placement": 1, "stats": {"score": {"value": 2}}}}, {"id": "93924486-1", "entrant": {"id": 21269522, "name": "DokiNoYomi", "participants": [{"id": 19557468, "gamerTag": "DokiNoYomi", "prefix": "", "user": {"location": {"city": null, "state": null, "country": "Georgia"}}, "player": {"id": 4154629, "gamerTag": "DokiNoYomi", "prefix": "", "user": {"location": {"city": null, "state": null, "country": "Georgia"}}}}]}, "standing": {"placement": 2, "stats": {"score": {"value": 0}}}}], "games": [{"id": 32615283, "orderNum": 1, "winnerId": 21269232, "entrant1Score": null, "entrant2Score": 0, "stage": {"id": 378, "name": "Pok\u00e9mon Stadium 2"}, "selections": [{"id": 48090428, "selectionType": "CHARACTER", "selectionValue": 1315, "entrant": {"id": 21269232}, "character": {"id": 1315, "name": "Pac-Man"}}, {"id": 48090429, "selectionType": "CHARACTER", "selectionValue": 1321, "entrant": {"id": 21269522}, "character": {"id": 1321, "name": "Pokemon Trainer"}}]}, {"id": 32615284, "orderNum": 2, "winnerId": 21269232, "entrant1Score": null, "entrant2Score": 0, "stage": {"id": 378, "name": "Pok\u00e9mon Stadium 2"}, "selections": [{"id": 48090430, "selectionType": "CHARACTER", "selectionValue": 1315, "entrant": {"id": 21269232}, "character": {"id": 1315, "name": "Pac-Man"}}, {"id": 48090431, "selectionType": "CHARACTER", "selectionValue": 1897, "entrant": {"id": 21269522}, "character": {"id": 1897, "name": "Sora"}}]}]}]}}}