{"phase": {"seeds": {"pageInfo": {"totalPages": 1, "total": 8}, "nodes": [{"id": 36889051, "seedNum": 1, "entrant": {"id": 21454504, "name": "GUMP2 | Ryu from Streets", "participants": [{"id": 19718133, "gamerTag": "Ryu from Streets", "prefix": "GUMP2", "user": {"location": {"city": null, "state": null, "country": null}}, "player": {"id": 2348605, "gamerTag": "Ryu from Streets", "prefix": "GUMP2", "user": {"location": {"city": null, "state": null, "country": null}}}}]}}, {"id": 36873516, "seedNum": 6, "entrant": {"id": 21443728, "name": "CHEESE", "participants": [{"id": 19708475, "gamerTag": "CHEESE", "prefix": null, "user": {"location": {"city": "Buford", "state": "GA", "country": "United States"}}, "player": {"id": 3429754, "gamerTag": "CHEESE", "prefix": null, "user": {"location": {"city": "Buford", "state": "GA", "country": "United States"}}}}]}}, {"id": 36888707, "seedNum": 5, "entrant": {"id": 21454260, "name": "RM | Twist!?", "participants": [{"id": 19717930, "gamerTag": "Twist!?", "prefix": "RM", "user": {"location": {"city": "Marietta", "state": "GA", "country": "United States"}}, "player": {"id": 1764076, "gamerTag": "Twist!?", "prefix": "RM", "user": {"location": {"city": "Marietta", "state": "GA", "country": "United States"}}}}]}}, {"id": 36884292, "seedNum": 7, "entrant": {"id": 21450803, "name": "promamamia", "participants": [{"id": 19714760, "gamerTag": "promamamia", "prefix": "", "user": {"location": {"city": "Alpharetta", "state": "GA", "country": "United States"}}, "player": {"id": 3548468, "gamerTag": "promamamia", "prefix": "", "user": {"location": {"city": "Alpharetta", "state": "GA", "country": "United States"}}}}]}}, {"id": 36693866, "seedNum": 2, "entrant": {"id": 21322302, "name": "Rain~", "participants": [{"id": 19602117, "gamerTag": "Rain~", "prefix": null, "user": {"location": {"city": "Atlanta", "state": "GA", "country": "United States"}}, "player": {"id": 4240164, "gamerTag": "Rain~", "prefix": null, "user": {"location": {"city": "Atlanta", "state": "GA", "country": "United States"}}}}]}}, {"id": 36596598, "seedNum": 3, "entrant": {"id": 21253332, "name": "KSU | colorful\u029a\u025e", "participants": [{"id": 19543962, "gamerTag": "colorful\u029a\u025e", "prefix": "KSU", "user": {"location": {"city": "Kennesaw", "state": "GA", "country": "United States"}}, "player": {"id": 1783074, "gamerTag": "colorful\u029a\u025e", "prefix": "KSU | RM", "user": {"location": {"city": "Kennesaw", "state": "GA", "country": "United States"}}}}]}}, {"id": 36884647, "seedNum": 4, "entrant": {"id": 21451119, "name": "KSU | Subzero", "participants": [{"id": 19715067, "gamerTag": "Subzero", "prefix": "KSU", "user": {"location": {"city": "Acworth", "state": "GA", "country": "United States"}}, "player": {"id": 1808159, "gamerTag": "Subzero", "prefix": "KSU", "user": {"location": {"city": "Acworth", "state": "GA", "country": "United States"}}}}]}}, {"id": 36889777, "seedNum": 8, "entrant": {"id": 21455095, "name": "RM | WFF | Sakruoi", "participants": [{"id": 19718641, "gamerTag": "Sakruoi", "prefix": "RM | WFF", "user": {"location": {"city": "atlanta", "state": "GA", "country": "United States"}}, "player": {"id": 1230555, "gamerTag": "Sakruoi", "prefix": "RM | WFF", "user": {"location": {"city": "atlanta", "state": "GA", "country": "United States"}}}}]}}]}}}