{"phase": {"seeds": {"pageInfo": {"totalPages": 1, "total": 12}, "nodes": [{"id": 35719775, "seedNum": 1, "entrant": {"id": 20693380, "name": "Chamu", "participants": [{"id": 19042788, "gamerTag": "Chamu", "prefix": null, "user": {"location": {"city": "Columbia", "state": "SC", "country": "United States"}}, "player": {"id": 1471872, "gamerTag": "Chamu", "prefix": null, "user": {"location": {"city": "Columbia", "state": "SC", "country": "United States"}}}}]}}, {"id": 35719986, "seedNum": 2, "entrant": {"id": 20693502, "name": "KHW | Frumps", "participants": [{"id": 19043955, "gamerTag": "Frumps", "prefix": "KHW", "user": {"location": {"city": "Greenville", "state": "SC", "country": "United States"}}, "player": {"id": 2844590, "gamerTag": "Frumps", "prefix": "KHW", "user": {"location": {"city": "Greenville", "state": "SC", "country": "United States"}}}}]}}, {"id": 35719858, "seedNum": 6, "entrant": {"id": 20693436, "name": "drimys", "participants": [{"id": 19041369, "gamerTag": "drimys", "prefix": null, "user": {"location": {"city": "Cumming", "state": "GA", "country": "United States"}}, "player": {"id": 2436958, "gamerTag": "drimys", "prefix": null, "user": {"location": {"city": "Cumming", "state": "GA", "country": "United States"}}}}]}}, {"id": 35720124, "seedNum": 3, "entrant": {"id": 20693560, "name": "Newt Man", "participants": [{"id": 19042381, "gamerTag": "Newt Man", "prefix": "", "user": {"location": {"city": null, "state": null, "country": "United States"}}, "player": {"id": 4726806, "gamerTag": "Newt Man", "prefix": "", "user": {"location": {"city": null, "state": null, "country": "United States"}}}}]}}, {"id": 35719961, "seedNum": 4, "entrant": {"id": 20693477, "name": "MSU | transrights420", "participants": [{"id": 19045597, "gamerTag": "transrights420", "prefix": "MSU", "user": {"location": {"city": "Starkville", "state": "MS", "country": "United States"}}, "player": {"id": 1479899, "gamerTag": "transrights420", "prefix": "", "user": {"location": {"city": "Starkville", "state": "MS", "country": "United States"}}}}]}}, {"id": 35719963, "seedNum": 8, "entrant": {"id": 20693479, "name": "Permafrost", "participants": [{"id": 19043091, "gamerTag": "Permafrost", "prefix": "", "user": {"location": {"city": "Atlanta", "state": "GA", "country": "United States"}}, "player": {"id": 1256898, "gamerTag": "Permafrost", "prefix": "", "user": {"location": {"city": "Atlanta", "state": "GA", "country": "United States"}}}}]}}, {"id": 35719629, "seedNum": 5, "entrant": {"id": 20693311, "name": "Milk", "participants": [{"id": 19044231, "gamerTag": "Milk", "prefix": null, "user": {"location": {"city": "Cumming", "state": "GA", "country": "United States"}}, "player": {"id": 3196902, "gamerTag": "Milk", "prefix": null, "user": {"location": {"city": "Cumming", "state": "GA", "country": "United States"}}}}]}}, {"id": 35719623, "seedNum": 7, "entrant": {"id": 20693305, "name": "Divinitycove", "participants": [{"id": 19044266, "gamerTag": "Divinitycove", "prefix": null, "user": {"location": {"city": "Lithonia", "state": "GA", "country": "United States"}}, "player": {"id": 3821146, "gamerTag": "dgo", "prefix": null, "user": {"location": {"city": "Lithonia", "state": "GA", "country": "United States"}}}}]}}, {"id": 35719721, "seedNum": 9, "entrant": {"id": 20693339, "name": "popsicle", "participants": [{"id": 19043939, "gamerTag": "popsicle", "prefix": null, "user": {"location": {"city": "Atlanta", "state": "GA", "country": "United States"}}, "player": {"id": 4435133, "gamerTag": "popsicle", "prefix": "", "user": {"location": {"city": "Atlanta", "state": "GA", "country": "United States"}}}}]}}, {"id": 35719621, "seedNum": 10, "entrant": {"id": 20693303, "name": "TPS | cryptonic", "participants": [{"id": 19038584, "gamerTag": "cryptonic", "prefix": "TPS", "user": {"location": {"city": "Acworth", "state": "GA", "country": "United States"}}, "player": {"id": 3422494, "gamerTag": "$CAITLIN", "prefix": "TPS", "user": {"location": {"city": "Acworth", "state": "GA", "country": "United States"}}}}]}}, {"id": 35719764, "seedNum": 11, "entrant": {"id": 20693367, "name": "jwg", "participants": [{"id": 19043398, "gamerTag": "jwg", "prefix": "", "user": {"location": {"city": null, "state": "GA", "country": "United States"}}, "player": {"id": 4770959, "gamerTag": "juug", "prefix": "", "user": {"location": {"city": null, "state": "GA", "country": "United States"}}}}]}}, {"id": 35719777, "seedNum": 12, "entrant": {"id": 20693378, "name": "Siwooey", "participants": [{"id": 19045952, "gamerTag": "Siwooey", "prefix": "", "user": {"location": {"city": null, "state": "GA", "country": "United States"}}, "player": {"id": 4851678, "gamerTag": "Siwoo", "prefix": "", "user": {"location": {"city": null, "state": "GA", "country": "United States"}}}}]}}]}}}