{"phase": {"seeds": {"pageInfo": {"totalPages": 1, "total": 6}, "nodes": [{"id": 36371854, "seedNum": 2, "entrant": {"id": 21100276, "name": "Iceee", "participants": [{"id": 19408723, "gamerTag": "Iceee", "prefix": "", "user": {"location": {"city": "Atlanta", "state": "GA", "country": "United States"}}, "player": {"id": 4944595, "gamerTag": "Iceee", "prefix": "", "user": {"location": {"city": "Atlanta", "state": "GA", "country": "United States"}}}}]}}, {"id": 36379924, "seedNum": 1, "entrant": {"id": 21106316, "name": "MossyCharger", "participants": [{"id": 19414105, "gamerTag": "MossyCharger", "prefix": null, "user": {"location": {"city": "Atlanta", "state": "GA", "country": "United States"}}, "player": {"id": 4945351, "gamerTag": "MossyCharger", "prefix": null, "user": {"location": {"city": "Atlanta", "state": "GA", "country": "United States"}}}}]}}, {"id": 36379741, "seedNum": 5, "entrant": {"id": 21106143, "name": "FF | Milex", "participants": [{"id": 19413972, "gamerTag": "Milex", "prefix": "FF", "user": {"location": {"city": null, "state": "FL", "country": "United States"}}, "player": {"id": 4945217, "gamerTag": "Milex", "prefix": "FF", "user": {"location": {"city": null, "state": "FL", "country": "United States"}}}}]}}, {"id": 36444447, "seedNum": 3, "entrant": {"id": 21151050, "name": "Idk | Ant-on-the-block", "participants": [{"id": 19454315, "gamerTag": "Ant-on-the-block", "prefix": "Idk", "user": {"location": {"city": null, "state": null, "country": "United States"}}, "player": {"id": 4955080, "gamerTag": "Ant-on-the-block", "prefix": "Idk", "user": {"location": {"city": null, "state": null, "country": "United States"}}}}]}}, {"id": 36444149, "seedNum": 4, "entrant": {"id": 21150789, "name": "CashGG6", "participants": [{"id": 19454091, "gamerTag": "CashGG6", "prefix": "", "user": {"location": {"city": null, "state": null, "country": "United States"}}, "player": {"id": 4955055, "gamerTag": "CashGG6", "prefix": "", "user": {"location": {"city": null, "state": null, "country": "United States"}}}}]}}, {"id": 36373600, "seedNum": 6, "entrant": {"id": 21101471, "name": "H212 | Hsquared12", "participants": [{"id": 19409812, "gamerTag": "Hsquared12", "prefix": "H212", "user": {"location": {"city": "Lawrenceville", "state": "GA", "country": "United States"}}, "player": {"id": 4944697, "gamerTag": "Hsquared12", "prefix": "H212", "user": {"location": {"city": "Lawrenceville", "state": "GA", "country": "United States"}}}}]}}]}}}