{"phase": {"seeds": {"pageInfo": {"totalPages": 1, "total": 6}, "nodes": [{"id": 35630333, "seedNum": 1, "entrant": {"id": 20629646, "name": "SE UNI | Shuri", "participants": [{"id": 18990850, "gamerTag": "Shuri", "prefix": "SE UNI", "user": {"location": {"city": "Bonaire", "state": "GA", "country": "United States"}}, "player": {"id": 183894, "gamerTag": "Shuri", "prefix": "SE UNI", "user": {"location": {"city": "Bonaire", "state": "GA", "country": "United States"}}}}]}}, {"id": 35772028, "seedNum": 2, "entrant": {"id": 20730458, "name": "visc", "participants": [{"id": 19078145, "gamerTag": "visc", "prefix": null, "user": {"location": {"city": "Macon", "state": "GA", "country": "United States"}}, "player": {"id": 3662491, "gamerTag": "visc", "prefix": null, "user": {"location": {"city": "Macon", "state": "GA", "country": "United States"}}}}]}}, {"id": 35777136, "seedNum": 3, "entrant": {"id": 20733685, "name": "JazzMo", "participants": [{"id": 19080951, "gamerTag": "JazzMo", "prefix": null, "user": {"location": {"city": "Macon", "state": "GA", "country": "United States"}}, "player": {"id": 2369252, "gamerTag": "JazzMo", "prefix": null, "user": {"location": {"city": "Macon", "state": "GA", "country": "United States"}}}}]}}, {"id": 35776700, "seedNum": 5, "entrant": {"id": 20733321, "name": "Garmore", "participants": [{"id": 19080663, "gamerTag": "Garmore", "prefix": "", "user": {"location": {"city": "Macon", "state": "GA", "country": "United States"}}, "player": {"id": 1669461, "gamerTag": "Garmore", "prefix": "", "user": {"location": {"city": "Macon", "state": "GA", "country": "United States"}}}}]}}, {"id": 35771932, "seedNum": 4, "entrant": {"id": 20730384, "name": "SLE | Glypherson", "participants": [{"id": 19078086, "gamerTag": "Glypherson", "prefix": "SLE", "user": {"location": {"city": "Warner Robins", "state": "GA", "country": "United States"}}, "player": {"id": 1163344, "gamerTag": "Glypherson", "prefix": "SLE/NuT", "user": {"location": {"city": "Warner Robins", "state": "GA", "country": "United States"}}}}]}}, {"id": 35777647, "seedNum": 6, "entrant": {"id": 20734082, "name": "Chambliss", "participants": [{"id": 19081285, "gamerTag": "Chambliss", "prefix": null, "user": {"location": {"city": null, "state": null, "country": null}}, "player": {"id": 866063, "gamerTag": "Chambliss", "prefix": null, "user": {"location": {"city": null, "state": null, "country": null}}}}]}}]}}}