{"event": {"sets": {"pageInfo": {"totalPages": 1, "total": 3}, "nodes": [{"id": 94489401, "state": 3, "round": 2, "fullRoundText": "Final", "completedAt": 1759152106, "winnerId": 21398504, "slots": [{"id": "94489401-0", "entrant": {"id": 21398504, "name": "Boxboy", "participants": [{"id": 19669376, "gamerTag": "Boxboy", "prefix": "", "user": {"location": {"city": "Tifton", "state": "GA", "country": "United States"}}, "player": {"id": 1174039, "gamerTag": "Boxboy", "prefix": "", "user": {"location": {"city": "Tifton", "state": "GA", "country": "United States"}}}}]}, "standing": {"placement": 1, "stats": {"score": {"value": 4}}}}, {"id": "94489401-1", "entrant": {"id": 21143918, "name": "FNG | SHB", "participants": [{"id": 19448048, "gamerTag": "SHB", "prefix": "FNG", "user": {"location": {"city": null, "state": null, "country": "United States"}}, "player": {"id": 3194253, "gamerTag": "SHB", "prefix": "FNG", "user": {"location": {"city": null, "state": null, "country": "United States"}}}}]}, "standing": {"placement": 2, "stats": {"score": {"value": 0}}}}], "games": null}, {"id": 94489399, "state": 3, "round": 1, "fullRoundText": "Semi-Final", "completedAt": 1759152078, "winnerId": 21398504, "slots": [{"id": "94489399-0", "entrant": {"id": 21139209, "name": "FNG | S0URCEC0DE", "participants": [{"id": 19443969, "gamerTag": "S0URCEC0DE", "prefix": "FNG", "user": {"location": {"city": "Macon", "state": "GA", "country": "United States"}}, "player": {"id": 2699776, "gamerTag": "S0URCEC0DE", "prefix": "FNG", "user": {"location": {"city": "Macon", "state": "GA", "country": "United States"}}}}]}, "standing": {"placement": 2, "stats": {"score": {"value": 0}}}}, {"id": "94489399-1", "entrant": {"id": 21398504, "name": "Boxboy", "participants": [{"id": 19669376, "gamerTag": "Boxboy", "prefix": "", "user": {"location": {"city": "Tifton", "state": "GA", "country": "United States"}}, "player": {"id": 1174039, "gamerTag": "Boxboy", "prefix": "", "user": {"location": {"city": "Tifton", "state": "GA", "country": "United States"}}}}]}, "standing": {"placement": 1, "stats": {"score": {"value": 4}}}}], "games": null}, {"id": 94489400, "state": 3, "round": 1, "fullRoundText": "Semi-Final", "completedAt": 1759152097, "winnerId": 21143918, "slots": [{"id": "94489400-0", "entrant": {"id": 21143918, "name": "FNG | SHB", "participants": [{"id": 19448048, "gamerTag": "SHB", "prefix": "FNG", "user": {"location": {"city": null, "state": null, "country": "United States"}}, "player": {"id": 3194253, "gamerTag": "SHB", "prefix": "FNG", "user": {"location": {"city": null, "state": null, "country": "United States"}}}}]}, "standing": {"placement": 1, "stats": {"score": {"value": null}}}}, {"id": "94489400-1", "entrant": {"id": 21206013, "name": "Joyblossom", "participants": [{"id": 19502509, "gamerTag": "Joyblossom", "prefix": null, "user": {"location": {"city": "Macon", "state": "GA", "country": "United States"}}, "player": {"id": 4675246, "gamerTag": "Joyblossom", "prefix": null, "user": {"location": {"city": "Macon", "state": "GA", "country": "United States"}}}}]}, "standing": {"placement": 2, "stats": {"score": {"value": -1}}}}], "games": null}]}}}