{"event": {"sets": {"pageInfo": {"totalPages": 5, "total": 62}, "nodes": [{"id": 91652178, "state": 3, "round": -4, "fullRoundText": "Losers Round 2", "completedAt": 1753042982, "winnerId": 20573154, "slots": [{"id": "91652178-0", "entrant": {"id": 20572009, "name": "69TacoTuesday69", "participants": [{"id": 18940762, "gamerTag": "69TacoTuesday69", "prefix": "", "user": {"location": {"city": "Atlanta", "state": "GA", "country": "United States"}}, "player": {"id": 158130, "gamerTag": "69TacoTuesday69", "prefix": "", "user": {"location": {"city": "Atlanta", "state": "GA", "country": "United States"}}}}]}, "standing": {"placement": 2, "stats": {"score": {"value": 1}}}}, {"id": "91652178-1", "entrant": {"id": 20573154, "name": "Ronan", "participants": [{"id": 18941627, "gamerTag": "Ronan", "prefix": "", "user": {"location": {"city": "Atlanta", "state": "GA", "country": "United States"}}, "player": {"id": 147384, "gamerTag": "Ronan", "prefix": "", "user": {"location": {"city": "Atlanta", "state": "GA", "country": "United States"}}}}]}, "standing": {"placement": 1, "stats": {"score": {"value": 3}}}}], "games": null}, {"id": 91652179, "state": 3, "round": -4, "fullRoundText": "Losers Round 2", "completedAt": 1753043840, "winnerId": 20570702, "slots": [{"id": "91652179-0", "entrant": {"id": 20570702, "name": "lioX0X0", "participants": [{"id": 18939602, "gamerTag": "lioX0X0", "prefix": "", "user": {"location": {"city": "Atlanta", "state": "GA", "country": "United States"}}, "player": {"id": 2326935, "gamerTag": "lioX0X0", "prefix": "", "user": {"location": {"city": "Atlanta", "state": "GA", "country": "United States"}}}}]}, "standing": {"placement": 1, "stats": {"score": {"value": 3}}}}, {"id": "91652179-1", "entrant": {"id": 20579179, "name": "Deign", "participants": [{"id": 18946785, "gamerTag": "Deign", "prefix": "", "user": {"location": {"city": null, "state": null, "country": "United States"}}, "player": {"id": 325595, "gamerTag": "Deign", "prefix": "", "user": {"location": {"city": null, "state": null, "country": "United States"}}}}]}, "standing": {"placement": 2, "stats": {"score": {"value": 1}}}}], "games": null}, {"id": 91652180, "state": 3, "round": -4, "fullRoundText": "Losers Round 2", "completedAt": 1753042619, "winnerId": 20716016, "slots": [{"id": "91652180-0", "entrant": {"id": 20716016, "name": "Alia", "participants": [{"id": 19065768, "gamerTag": "Alia", "prefix": "", "user": {"location": {"city": "Columbia", "state": "SC", "country": "United States"}}, "player": {"id": 3619482, "gamerTag": "Alia", "prefix": "", "user": {"location": {"city": "Columbia", "state": "SC", "country": "United States"}}}}]}, "standing": {"placement": 1, "stats": {"score": {"value": 3}}}}, {"id": "91652180-1", "entrant": {"id": 20699962, "name": "OGC | bune", "participants": [{"id": 19051484, "gamerTag": "bune", "prefix": "OGC", "user": {"location": {"city": "Macon", "state": "GA", "country": "United States"}}, "player": {"id": 3054829, "gamerTag": "bune", "prefix": "OGC", "user": {"location": {"city": "Macon", "state": "GA", "country": "United States"}}}}]}, "standing": {"placement": 2, "stats": {"score": {"value": 1}}}}], "games": null}, {"id": 91652181, "state": 3, "round": -4, "fullRoundText": "Losers Round 2", "completedAt": 1753042577, "winnerId": 20573849, "slots": [{"id": "91652181-0", "entrant": {"id": 20573849, "name": "cheeks", "participants": [{"id": 18942208, "gamerTag": "cheeks", "prefix": "", "user": {"location": {"city": "Greenville", "state": "SC", "country": "United States"}}, "player": {"id": 2168044, "gamerTag": "cheeks", "prefix": "", "user": {"location": {"city": "Greenville", "state": "SC", "country": "United States"}}}}]}, "standing": {"placement": 1, "stats": {"score": {"value": 3}}}}, {"id": "91652181-1", "entrant": {"id": 20580067, "name": "MH | Savvy", "participants": [{"id": 18947540, "gamerTag": "Savvy", "prefix": "MH", "user": {"location": {"city": "", "state": "SC", "country": "United States"}}, "player": {"id": 46433, "gamerTag": "Savvy", "prefix": "MH", "user": {"location": {"city": "", "state": "SC", "country": "United States"}}}}]}, "standing": {"placement": 2, "stats": {"score": {"value": 0}}}}], "games": null}, {"id": 91652182, "state": 3, "round": -4, "fullRoundText": "Losers Round 2", "completedAt": 1753043308, "winnerId": 20571452, "slots": [{"id": "91652182-0", "entrant": {"id": 20571452, "name": "skyguy | bag", "participants": [{"id": 18940280, "gamerTag": "bag", "prefix": "skyguy", "user": {"location": {"city": "Atlanta", "state": "GA", "country": "United States"}}, "player": {"id": 271346, "gamerTag": "bag", "prefix": "skyguy", "user": {"location": {"city": "Atlanta", "state": "GA", "country": "United States"}}}}]}, "standing": {"placement": 1, "stats": {"score": {"value": 3}}}}, {"id": "91652182-1", "entrant": {"id": 20571372, "name": "blaise", "participants": [{"id": 18940210, "gamerTag": "blaise", "prefix": "", "user": {"location": {"city": "douglasville", "state": "GA", "country": "United States"}}, "player": {"id": 1326121, "gamerTag": "blaise", "prefix": "", "user": {"location": {"city": "douglasville", "state": "GA", "country": "United States"}}}}]}, "standing": {"placement": 2, "stats": {"score": {"value": 0}}}}], "games": null}, {"id": 91652183, "state": 3, "round": -4, "fullRoundText": "Losers Round 2", "completedAt": 1753042497, "winnerId": 20571149, "slots": [{"id": "91652183-0", "entrant": {"id": 20571149, "name": "GCB | fries", "participants": [{"id": 18940005, "gamerTag": "fries", "prefix": "GCB", "user": {"location": {"city": "Greer", "state": "SC", "country": "United States"}}, "player": {"id": 1120136, "gamerTag": "fries", "prefix": "GCB", "user": {"location": {"city": "Greer", "state": "SC", "country": "United States"}}}}]}, "standing": {"placement": 1, "stats": {"score": {"value": 3}}}}, {"id": "91652183-1", "entrant": {"id": 20573867, "name": "MSU | transrights420", "participants": [{"id": 18942222, "gamerTag": "transrights420", "prefix": "MSU", "user": {"location": {"city": "Starkville", "state": "MS", "country": "United States"}}, "player": {"id": 1479899, "gamerTag": "transrights420", "prefix": "", "user": {"location": {"city": "Starkville", "state": "MS", "country": "United States"}}}}]}, "standing": {"placement": 2, "stats": {"score": {"value": 0}}}}], "games": null}, {"id": 91652184, "state": 3, "round": -4, "fullRoundText": "Losers Round 2", "completedAt": 1753043091, "winnerId": 20571158, "slots": [{"id": "91652184-0", "entrant": {"id": 20571158, "name": "skyguy | Chris Danger", "participants": [{"id": 18940013, "gamerTag": "Chris Danger", "prefix": "skyguy", "user": {"location": {"city": "Atlanta", "state": "GA", "country": "United States"}}, "player": {"id": 2808268, "gamerTag": "Chris Danger", "prefix": "skyguy", "user": {"location": {"city": "Atlanta", "state": "GA", "country": "United States"}}}}]}, "standing": {"placement": 1, "stats": {"score": {"value": 3}}}}, {"id": "91652184-1", "entrant": {"id": 20571671, "name": "SKRUNT | diremaykr", "participants": [{"id": 18940453, "gamerTag": "diremaykr", "prefix": "SKRUNT", "user": {"location": {"city": "Buford", "state": "GA", "country": "United States"}}, "player": {"id": 3207366, "gamerTag": "diremaykr", "prefix": "", "user": {"location": {"city": "Buford", "state": "GA", "country": "United States"}}}}]}, "standing": {"placement": 2, "stats": {"score": {"value": 1}}}}], "games": null}, {"id": 91652185, "state": 3, "round": -4, "fullRoundText": "Losers Round 2", "completedAt": 1753041624, "winnerId": 20636486, "slots": [{"id": "91652185-0", "entrant": {"id": 20636486, "name": "tomguy", "participants": [{"id": 18996782, "gamerTag": "tomguy", "prefix": "", "user": {"location": {"city": "Atlanta", "state": "GA", "country": "United States"}}, "player": {"id": 147458, "gamerTag": "tomguy", "prefix": "", "user": {"location": {"city": "Atlanta", "state": "GA", "country": "United States"}}}}]}, "standing": {"placement": 1, "stats": {"score": {"value": 3}}}}, {"id": "91652185-1", "entrant": {"id": 20726598, "name": "noided", "participants": [{"id": 19074800, "gamerTag": "noided", "prefix": "", "user": {"location": {"city": "Atlanta", "state": "GA", "country": "United States"}}, "player": {"id": 2586521, "gamerTag": "noided", "prefix": "", "user": {"location": {"city": "Atlanta", "state": "GA", "country": "United States"}}}}]}, "standing": {"placement": 2, "stats": {"score": {"value": 0}}}}], "games": null}, {"id": 91652170, "state": 3, "round": -3, "fullRoundText": "Losers Round 1", "completedAt": 1753040195, "winnerId": 20573154, "slots": [{"id": "91652170-0", "entrant": {"id": 20635764, "name": "Blaze | Blazescorpion", "participants": [{"id": 18996190, "gamerTag": "Blazescorpion", "prefix": "Blaze", "user": {"location": {"city": "Glenwood", "state": "GA", "country": "United States"}}, "player": {"id": 4793510, "gamerTag": "Blazescorpion", "prefix": "Blaze", "user": {"location": {"city": "Glenwood", "state": "GA", "country": "United States"}}}}]}, "standing": {"placement": 2, "stats": {"score": {"value": 0}}}}, {"id": "91652170-1", "entrant": {"id": 20573154, "name": "Ronan", "participants": [{"id": 18941627, "gamerTag": "Ronan", "prefix": "", "user": {"location": {"city": "Atlanta", "state": "GA", "country": "United States"}}, "player": {"id": 147384, "gamerTag": "Ronan", "prefix": "", "user": {"location": {"city": "Atlanta", "state": "GA", "country": "United States"}}}}]}, "standing": {"placement": 1, "stats": {"score": {"value": 3}}}}], "games": null}, {"id": 91652171, "state": 3, "round": -3, "fullRoundText": "Losers Round 1", "completedAt": 1753040220, "winnerId": 20579179, "slots": [{"id": "91652171-0", "entrant": {"id": 20579179, "name": "Deign", "participants": [{"id": 18946785, "gamerTag": "Deign", "prefix": "", "user": {"location": {"city": null, "state": null, "country": "United States"}}, "player": {"id": 325595, "gamerTag": "Deign", "prefix": "", "user": {"location": {"city": null, "state": null, "country": "United States"}}}}]}, "standing": {"placement": 1, "stats": {"score": {"value": 0}}}}, {"id": "91652171-1", "entrant": {"id": 20579183, "name": "Tyme", "participants": [{"id": 18946789, "gamerTag": "Tyme", "prefix": null, "user": {"location": {"city": null, "state": null, "country": null}}, "player": {"id": 325589, "gamerTag": "Tyme", "prefix": null, "user": {"location": {"city": null, "state": null, "country": null}}}}]}, "standing": {"placement": 2, "stats": {"score": {"value": -1}}}}], "games": null}, {"id": 91652172, "state": 3, "round": -3, "fullRoundText": "Losers Round 1", "completedAt": 1753040664, "winnerId": 20699962, "slots": [{"id": "91652172-0", "entrant": {"id": 20571319, "name": "nascar amy", "participants": [{"id": 18940161, "gamerTag": "nascar amy", "prefix": null, "user": {"location": {"city": "Atlanta", "state": "GA", "country": "United States"}}, "player": {"id": 2304498, "gamerTag": "nascar amy", "prefix": null, "user": {"location": {"city": "Atlanta", "state": "GA", "country": "United States"}}}}]}, "standing": {"placement": 2, "stats": {"score": {"value": -1}}}}, {"id": "91652172-1", "entrant": {"id": 20699962, "name": "OGC | bune", "participants": [{"id": 19051484, "gamerTag": "bune", "prefix": "OGC", "user": {"location": {"city": "Macon", "state": "GA", "country": "United States"}}, "player": {"id": 3054829, "gamerTag": "bune", "prefix": "OGC", "user": {"location": {"city": "Macon", "state": "GA", "country": "United States"}}}}]}, "standing": {"placement": 1, "stats": {"score": {"value": null}}}}], "games": null}, {"id": 91652173, "state": 3, "round": -3, "fullRoundText": "Losers Round 1", "completedAt": 1753042565, "winnerId": 20580067, "slots": [{"id": "91652173-0", "entrant": {"id": 20586506, "name": "NMBS | roshi", "participants": [{"id": 18953160, "gamerTag": "roshi", "prefix": "NMBS", "user": {"location": {"city": "Atlanta", "state": "GA", "country": "United States"}}, "player": {"id": 37667, "gamerTag": "roshi", "prefix": "NMBS", "user": {"location": {"city": "Atlanta", "state": "GA", "country": "United States"}}}}]}, "standing": {"placement": 2, "stats": {"score": {"value": null}}}}, {"id": "91652173-1", "entrant": {"id": 20580067, "name": "MH | Savvy", "participants": [{"id": 18947540, "gamerTag": "Savvy", "prefix": "MH", "user": {"location": {"city": "", "state": "SC", "country": "United States"}}, "player": {"id": 46433, "gamerTag": "Savvy", "prefix": "MH", "user": {"location": {"city": "", "state": "SC", "country": "United States"}}}}]}, "standing": {"placement": 1, "stats": {"score": {"value": null}}}}], "games": null}, {"id": 91652174, "state": 3, "round": -3, "fullRoundText": "Losers Round 1", "completedAt": 1753040396, "winnerId": 20571372, "slots": [{"id": "91652174-0", "entrant": {"id": 20573681, "name": "TPS | cryptonic", "participants": [{"id": 18942061, "gamerTag": "cryptonic", "prefix": "TPS", "user": {"location": {"city": "Kennesaw", "state": "GA", "country": "United States"}}, "player": {"id": 3422494, "gamerTag": "$CAITLIN", "prefix": "TPS", "user": {"location": {"city": "Kennesaw", "state": "GA", "country": "United States"}}}}]}, "standing": {"placement": 2, "stats": {"score": {"value": -1}}}}, {"id": "91652174-1", "entrant": {"id": 20571372, "name": "blaise", "participants": [{"id": 18940210, "gamerTag": "blaise", "prefix": "", "user": {"location": {"city": "douglasville", "state": "GA", "country": "United States"}}, "player": {"id": 1326121, "gamerTag": "blaise", "prefix": "", "user": {"location": {"city": "douglasville", "state": "GA", "country": "United States"}}}}]}, "standing": {"placement": 1, "stats": {"score": {"value": 0}}}}], "games": null}, {"id": 91652175, "state": 3, "round": -3, "fullRoundText": "Losers Round 1", "completedAt": 1753040170, "winnerId": 20573867, "slots": [{"id": "91652175-0", "entrant": {"id": 20740202, "name": "KHW | Frumps", "participants": [{"id": 19086221, "gamerTag": "Frumps", "prefix": "KHW", "user": {"location": {"city": "Greenville", "state": "SC", "country": "United States"}}, "player": {"id": 2844590, "gamerTag": "Frumps", "prefix": "KHW", "user": {"location": {"city": "Greenville", "state": "SC", "country": "United States"}}}}]}, "standing": {"placement": 2, "stats": {"score": {"value": 1}}}}, {"id": "91652175-1", "entrant": {"id": 20573867, "name": "MSU | transrights420", "participants": [{"id": 18942222, "gamerTag": "transrights420", "prefix": "MSU", "user": {"location": {"city": "Starkville", "state": "MS", "country": "United States"}}, "player": {"id": 1479899, "gamerTag": "transrights420", "prefix": "", "user": {"location": {"city": "Starkville", "state": "MS", "country": "United States"}}}}]}, "standing": {"placement": 1, "stats": {"score": {"value": 3}}}}], "games": null}, {"id": 91652176, "state": 3, "round": -3, "fullRoundText": "Losers Round 1", "completedAt": 1753041778, "winnerId": 20571671, "slots": [{"id": "91652176-0", "entrant": {"id": 20572289, "name": "President Polar Bear", "participants": [{"id": 18940994, "gamerTag": "President Polar Bear", "prefix": "", "user": {"location": {"city": "Atlanta", "state": "GA", "country": "United States"}}, "player": {"id": 34568, "gamerTag": "President Polar Bear", "prefix": "", "user": {"location": {"city": "Atlanta", "state": "GA", "country": "United States"}}}}]}, "standing": {"placement": 2, "stats": {"score": {"value": 1}}}}, {"id": "91652176-1", "entrant": {"id": 20571671, "name": "SKRUNT | diremaykr", "participants": [{"id": 18940453, "gamerTag": "diremaykr", "prefix": "SKRUNT", "user": {"location": {"city": "Buford", "state": "GA", "country": "United States"}}, "player": {"id": 3207366, "gamerTag": "diremaykr", "prefix": "", "user": {"location": {"city": "Buford", "state": "GA", "country": "United States"}}}}]}, "standing": {"placement": 1, "stats": {"score": {"value": 3}}}}], "games": null}]}}}