{"event": {"sets": {"pageInfo": {"totalPages": 4, "total": 53}, "nodes": [{"id": 94480837, "state": 3, "round": 7, "fullRoundText": "Round 7", "completedAt": 1759107743, "winnerId": 20621826, "slots": [{"id": "94480837-0", "entrant": {"id": 20621826, "name": "Yummy", "participants": [{"id": 18984047, "gamerTag": "Yummy", "prefix": "", "user": {"location": {"city": "Atlanta", "state": "GA", "country": "United States"}}, "player": {"id": 1743866, "gamerTag": "Yummy", "prefix": "", "user": {"location": {"city": "Atlanta", "state": "GA", "country": "United States"}}}}]}, "standing": {"placement": 1, "stats": {"score": {"value": 2}}}}, {"id": "94480837-1", "entrant": {"id": 20465223, "name": "TnT | Sid", "participants": [{"id": 18847922, "gamerTag": "Sid", "prefix": "TnT", "user": {"location": {"city": "Powder Springs", "state": "GA", "country": "United States"}}, "player": {"id": 1229067, "gamerTag": "Sid", "prefix": "TnT", "user": {"location": {"city": "Powder Springs", "state": "GA", "country": "United States"}}}}]}, "standing": {"placement": 2, "stats": {"score": {"value": 0}}}}], "games": null}, {"id": 94480816, "state": 3, "round": 7, "fullRoundText": "Round 7", "completedAt": 1759106932, "winnerId": 20465222, "slots": [{"id": "94480816-0", "entrant": {"id": 20465222, "name": "4o4 | chooryu :)", "participants": [{"id": 18847921, "gamerTag": "chooryu :)", "prefix": "4o4", "user": {"location": {"city": "Kennesaw", "state": "GA", "country": "United States"}}, "player": {"id": 466564, "gamerTag": "chooryu :)", "prefix": "4o4", "user": {"location": {"city": "Kennesaw", "state": "GA", "country": "United States"}}}}]}, "standing": {"placement": 1, "stats": {"score": {"value": 2}}}}, {"id": "94480816-1", "entrant": {"id": 21346117, "name": "Kid Kaioken", "participants": [{"id": 19623123, "gamerTag": "Kid Kaioken", "prefix": "", "user": {"location": {"city": "Norcross", "state": "GA", "country": "United States"}}, "player": {"id": 2730912, "gamerTag": "Kid Kaioken", "prefix": "", "user": {"location": {"city": "Norcross", "state": "GA", "country": "United States"}}}}]}, "standing": {"placement": 2, "stats": {"score": {"value": 1}}}}], "games": null}, {"id": 94480817, "state": 3, "round": 7, "fullRoundText": "Round 7", "completedAt": 1759105618, "winnerId": 20621831, "slots": [{"id": "94480817-0", "entrant": {"id": 20621831, "name": "WeFarmFrank | Planet Of Da", "participants": [{"id": 18984053, "gamerTag": "Planet Of Da", "prefix": "WeFarmFrank", "user": {"location": {"city": "Atlanta", "state": "GA", "country": "United States"}}, "player": {"id": 1810274, "gamerTag": "Planet Of Da", "prefix": "WeFarmFrank", "user": {"location": {"city": "Atlanta", "state": "GA", "country": "United States"}}}}]}, "standing": {"placement": 1, "stats": {"score": {"value": 2}}}}, {"id": "94480817-1", "entrant": {"id": 21346109, "name": "Jdaddy", "participants": [{"id": 19623116, "gamerTag": "Jdaddy", "prefix": null, "user": {"location": {"city": "Atlanta", "state": "GA", "country": "United States"}}, "player": {"id": 4384721, "gamerTag": "Jdaddy", "prefix": null, "user": {"location": {"city": "Atlanta", "state": "GA", "country": "United States"}}}}]}, "standing": {"placement": 2, "stats": {"score": {"value": 1}}}}], "games": null}, {"id": 94480838, "state": 3, "round": 7, "fullRoundText": "Round 7", "completedAt": 1759103279, "winnerId": 21346108, "slots": [{"id": "94480838-0", "entrant": {"id": 21346100, "name": "Heart", "participants": [{"id": 19623106, "gamerTag": "Heart", "prefix": "", "user": {"location": {"city": "Atlanta", "state": "GA", "country": "United States"}}, "player": {"id": 4287822, "gamerTag": "Heart", "prefix": "", "user": {"location": {"city": "Atlanta", "state": "GA", "country": "United States"}}}}]}, "standing": {"placement": 2, "stats": {"score": {"value": 0}}}}, {"id": "94480838-1", "entrant": {"id": 21346108, "name": "TFT | BigCheese", "participants": [{"id": 19623114, "gamerTag": "BigCheese", "prefix": "TFT", "user": {"location": {"city": null, "state": null, "country": null}}, "player": {"id": 3991446, "gamerTag": "BigCheese", "prefix": "TFT", "user": {"location": {"city": null, "state": null, "country": null}}}}]}, "standing": {"placement": 1, "stats": {"score": {"value": 2}}}}], "games": null}, {"id": 94480839, "state": 3, "round": 7, "fullRoundText": "Round 7", "completedAt": 1759106297, "winnerId": 21346105, "slots": [{"id": "94480839-0", "entrant": {"id": 21346105, "name": "PhaZe", "participants": [{"id": 19623111, "gamerTag": "PhaZe", "prefix": "", "user": {"location": {"city": "Gainesville", "state": "GA", "country": "United States"}}, "player": {"id": 36212, "gamerTag": "PhaZe", "prefix": "", "user": {"location": {"city": "Gainesville", "state": "GA", "country": "United States"}}}}]}, "standing": {"placement": 1, "stats": {"score": {"value": 2}}}}, {"id": "94480839-1", "entrant": {"id": 21346103, "name": "TnT | Damp\u00e9", "participants": [{"id": 19623109, "gamerTag": "Damp\u00e9", "prefix": "TnT", "user": {"location": {"city": "Atlanta", "state": "GA", "country": "United States"}}, "player": {"id": 1170738, "gamerTag": "Damp\u00e9", "prefix": "TnT", "user": {"location": {"city": "Atlanta", "state": "GA", "country": "United States"}}}}]}, "standing": {"placement": 2, "stats": {"score": {"value": 1}}}}], "games": null}, {"id": 94480818, "state": 3, "round": 7, "fullRoundText": "Round 7", "completedAt": 1759106400, "winnerId": 20621835, "slots": [{"id": "94480818-0", "entrant": {"id": 20465217, "name": "TnT | Monologgue", "participants": [{"id": 18847916, "gamerTag": "Monologgue", "prefix": "TnT", "user": {"location": {"city": "Atlanta", "state": "GA", "country": "United States"}}, "player": {"id": 1135679, "gamerTag": "Monologgue", "prefix": "TnT", "user": {"location": {"city": "Atlanta", "state": "GA", "country": "United States"}}}}]}, "standing": {"placement": 2, "stats": {"score": {"value": 1}}}}, {"id": "94480818-1", "entrant": {"id": 20621835, "name": "RAMS | RussianJesus", "participants": [{"id": 18984058, "gamerTag": "RussianJesus", "prefix": "RAMS", "user": {"location": {"city": "Atlanta", "state": "GA", "country": "United States"}}, "player": {"id": 1140567, "gamerTag": "RussianJesus", "prefix": "RAMS", "user": {"location": {"city": "Atlanta", "state": "GA", "country": "United States"}}}}]}, "standing": {"placement": 1, "stats": {"score": {"value": 2}}}}], "games": null}, {"id": 94480813, "state": 3, "round": 6, "fullRoundText": "Round 6", "completedAt": 1759103641, "winnerId": 20465222, "slots": [{"id": "94480813-0", "entrant": {"id": 20465222, "name": "4o4 | chooryu :)", "participants": [{"id": 18847921, "gamerTag": "chooryu :)", "prefix": "4o4", "user": {"location": {"city": "Kennesaw", "state": "GA", "country": "United States"}}, "player": {"id": 466564, "gamerTag": "chooryu :)", "prefix": "4o4", "user": {"location": {"city": "Kennesaw", "state": "GA", "country": "United States"}}}}]}, "standing": {"placement": 1, "stats": {"score": {"value": 2}}}}, {"id": "94480813-1", "entrant": {"id": 20621829, "name": "TFT | RoKu", "participants": [{"id": 18984050, "gamerTag": "RoKu", "prefix": "TFT", "user": {"location": {"city": "Peachtree Corners", "state": "GA", "country": "United States"}}, "player": {"id": 1107285, "gamerTag": "RoKu", "prefix": "TFT", "user": {"location": {"city": "Peachtree Corners", "state": "GA", "country": "United States"}}}}]}, "standing": {"placement": 2, "stats": {"score": {"value": 0}}}}], "games": null}, {"id": 94480834, "state": 3, "round": 6, "fullRoundText": "Round 6", "completedAt": 1759106679, "winnerId": 20621826, "slots": [{"id": "94480834-0", "entrant": {"id": 20621826, "name": "Yummy", "participants": [{"id": 18984047, "gamerTag": "Yummy", "prefix": "", "user": {"location": {"city": "Atlanta", "state": "GA", "country": "United States"}}, "player": {"id": 1743866, "gamerTag": "Yummy", "prefix": "", "user": {"location": {"city": "Atlanta", "state": "GA", "country": "United States"}}}}]}, "standing": {"placement": 1, "stats": {"score": {"value": 2}}}}, {"id": "94480834-1", "entrant": {"id": 20465220, "name": "WFF | Happy", "participants": [{"id": 18847918, "gamerTag": "Happy", "prefix": "WFF", "user": {"location": {"city": "Peachtree CIty", "state": "GA", "country": "United States"}}, "player": {"id": 1383907, "gamerTag": "Happy", "prefix": "WFF", "user": {"location": {"city": "Peachtree CIty", "state": "GA", "country": "United States"}}}}]}, "standing": {"placement": 2, "stats": {"score": {"value": 1}}}}], "games": null}, {"id": 94480814, "state": 3, "round": 6, "fullRoundText": "Round 6", "completedAt": 1759102028, "winnerId": 20621831, "slots": [{"id": "94480814-0", "entrant": {"id": 20621831, "name": "WeFarmFrank | Planet Of Da", "participants": [{"id": 18984053, "gamerTag": "Planet Of Da", "prefix": "WeFarmFrank", "user": {"location": {"city": "Atlanta", "state": "GA", "country": "United States"}}, "player": {"id": 1810274, "gamerTag": "Planet Of Da", "prefix": "WeFarmFrank", "user": {"location": {"city": "Atlanta", "state": "GA", "country": "United States"}}}}]}, "standing": {"placement": 1, "stats": {"score": {"value": 2}}}}, {"id": "94480814-1", "entrant": {"id": 21346117, "name": "Kid Kaioken", "participants": [{"id": 19623123, "gamerTag": "Kid Kaioken", "prefix": "", "user": {"location": {"city": "Norcross", "state": "GA", "country": "United States"}}, "player": {"id": 2730912, "gamerTag": "Kid Kaioken", "prefix": "", "user": {"location": {"city": "Norcross", "state": "GA", "country": "United States"}}}}]}, "standing": {"placement": 2, "stats": {"score": {"value": 0}}}}], "games": null}, {"id": 94480835, "state": 3, "round": 6, "fullRoundText": "Round 6", "completedAt": 1759104788, "winnerId": 20465223, "slots": [{"id": "94480835-0", "entrant": {"id": 21346100, "name": "Heart", "participants": [{"id": 19623106, "gamerTag": "Heart", "prefix": "", "user": {"location": {"city": "Atlanta", "state": "GA", "country": "United States"}}, "player": {"id": 4287822, "gamerTag": "Heart", "prefix": "", "user": {"location": {"city": "Atlanta", "state": "GA", "country": "United States"}}}}]}, "standing": {"placement": 2, "stats": {"score": {"value": 0}}}}, {"id": "94480835-1", "entrant": {"id": 20465223, "name": "TnT | Sid", "participants": [{"id": 18847922, "gamerTag": "Sid", "prefix": "TnT", "user": {"location": {"city": "Powder Springs", "state": "GA", "country": "United States"}}, "player": {"id": 1229067, "gamerTag": "Sid", "prefix": "TnT", "user": {"location": {"city": "Powder Springs", "state": "GA", "country": "United States"}}}}]}, "standing": {"placement": 1, "stats": {"score": {"value": 2}}}}], "games": null}, {"id": 94480815, "state": 3, "round": 6, "fullRoundText": "Round 6", "completedAt": 1759108267, "winnerId": 20621835, "slots": [{"id": "94480815-0", "entrant": {"id": 20621835, "name": "RAMS | RussianJesus", "participants": [{"id": 18984058, "gamerTag": "RussianJesus", "prefix": "RAMS", "user": {"location": {"city": "Atlanta", "state": "GA", "country": "United States"}}, "player": {"id": 1140567, "gamerTag": "RussianJesus", "prefix": "RAMS", "user": {"location": {"city": "Atlanta", "state": "GA", "country": "United States"}}}}]}, "standing": {"placement": 1, "stats": {"score": {"value": 2}}}}, {"id": "94480815-1", "entrant": {"id": 21346109, "name": "Jdaddy", "participants": [{"id": 19623116, "gamerTag": "Jdaddy", "prefix": null, "user": {"location": {"city": "Atlanta", "state": "GA", "country": "United States"}}, "player": {"id": 4384721, "gamerTag": "Jdaddy", "prefix": null, "user": {"location": {"city": "Atlanta", "state": "GA", "country": "United States"}}}}]}, "standing": {"placement": 2, "stats": {"score": {"value": 1}}}}], "games": null}, {"id": 94480836, "state": 3, "round": 6, "fullRoundText": "Round 6", "completedAt": 1759104692, "winnerId": 21346108, "slots": [{"id": "94480836-0", "entrant": {"id": 21346103, "name": "TnT | Damp\u00e9", "participants": [{"id": 19623109, "gamerTag": "Damp\u00e9", "prefix": "TnT", "user": {"location": {"city": "Atlanta", "state": "GA", "country": "United States"}}, "player": {"id": 1170738, "gamerTag": "Damp\u00e9", "prefix": "TnT", "user": {"location": {"city": "Atlanta", "state": "GA", "country": "United States"}}}}]}, "standing": {"placement": 2, "stats": {"score": {"value": 1}}}}, {"id": "94480836-1", "entrant": {"id": 21346108, "name": "TFT | BigCheese", "participants": [{"id": 19623114, "gamerTag": "BigCheese", "prefix": "TFT", "user": {"location": {"city": null, "state": null, "country": null}}, "player": {"id": 3991446, "gamerTag": "BigCheese", "prefix": "TFT", "user": {"location": {"city": null, "state": null, "country": null}}}}]}, "standing": {"placement": 1, "stats": {"score": {"value": 2}}}}], "games": null}, {"id": 94480831, "state": 3, "round": 5, "fullRoundText": "Round 5", "completedAt": 1759105874, "winnerId": 20621826, "slots": [{"id": "94480831-0", "entrant": {"id": 20621826, "name": "Yummy", "participants": [{"id": 18984047, "gamerTag": "Yummy", "prefix": "", "user": {"location": {"city": "Atlanta", "state": "GA", "country": "United States"}}, "player": {"id": 1743866, "gamerTag": "Yummy", "prefix": "", "user": {"location": {"city": "Atlanta", "state": "GA", "country": "United States"}}}}]}, "standing": {"placement": 1, "stats": {"score": {"value": 2}}}}, {"id": "94480831-1", "entrant": {"id": 21346100, "name": "Heart", "participants": [{"id": 19623106, "gamerTag": "Heart", "prefix": "", "user": {"location": {"city": "Atlanta", "state": "GA", "country": "United States"}}, "player": {"id": 4287822, "gamerTag": "Heart", "prefix": "", "user": {"location": {"city": "Atlanta", "state": "GA", "country": "United States"}}}}]}, "standing": {"placement": 2, "stats": {"score": {"value": 0}}}}], "games": null}, {"id": 94480810, "state": 3, "round": 5, "fullRoundText": "Round 5", "completedAt": 1759106139, "winnerId": 20465222, "slots": [{"id": "94480810-0", "entrant": {"id": 20465222, "name": "4o4 | chooryu :)", "participants": [{"id": 18847921, "gamerTag": "chooryu :)", "prefix": "4o4", "user": {"location": {"city": "Kennesaw", "state": "GA", "country": "United States"}}, "player": {"id": 466564, "gamerTag": "chooryu :)", "prefix": "4o4", "user": {"location": {"city": "Kennesaw", "state": "GA", "country": "United States"}}}}]}, "standing": {"placement": 1, "stats": {"score": {"value": 2}}}}, {"id": "94480810-1", "entrant": {"id": 20621831, "name": "WeFarmFrank | Planet Of Da", "participants": [{"id": 18984053, "gamerTag": "Planet Of Da", "prefix": "WeFarmFrank", "user": {"location": {"city": "Atlanta", "state": "GA", "country": "United States"}}, "player": {"id": 1810274, "gamerTag": "Planet Of Da", "prefix": "WeFarmFrank", "user": {"location": {"city": "Atlanta", "state": "GA", "country": "United States"}}}}]}, "standing": {"placement": 2, "stats": {"score": {"value": 0}}}}], "games": null}, {"id": 94480811, "state": 3, "round": 5, "fullRoundText": "Round 5", "completedAt": 1759108230, "winnerId": 20621829, "slots": [{"id": "94480811-0", "entrant": {"id": 20465217, "name": "TnT | Monologgue", "participants": [{"id": 18847916, "gamerTag": "Monologgue", "prefix": "TnT", "user": {"location": {"city": "Atlanta", "state": "GA", "country": "United States"}}, "player": {"id": 1135679, "gamerTag": "Monologgue", "prefix": "TnT", "user": {"location": {"city": "Atlanta", "state": "GA", "country": "United States"}}}}]}, "standing": {"placement": 2, "stats": {"score": {"value": 0}}}}, {"id": "94480811-1", "entrant": {"id": 20621829, "name": "TFT | RoKu", "participants": [{"id": 18984050, "gamerTag": "RoKu", "prefix": "TFT", "user": {"location": {"city": "Peachtree Corners", "state": "GA", "country": "United States"}}, "player": {"id": 1107285, "gamerTag": "RoKu", "prefix": "TFT", "user": {"location": {"city": "Peachtree Corners", "state": "GA", "country": "United States"}}}}]}, "standing": {"placement": 1, "stats": {"score": {"value": 2}}}}], "games": null}]}}}