{"event": {"sets": {"pageInfo": {"totalPages": 4, "total": 53}, "nodes": [{"id": 91543404, "state": 3, "round": 1, "fullRoundText": "Round 1", "completedAt": 1752884822, "winnerId": 20621483, "slots": [{"id": "91543404-0", "entrant": {"id": 20621483, "name": "TFT | Frank", "participants": [{"id": 18983727, "gamerTag": "Frank", "prefix": "TFT", "user": {"location": {"city": "Doraville", "state": "GA", "country": "United States"}}, "player": {"id": 1227401, "gamerTag": "Terry Labonte", "prefix": "TFT", "user": {"location": {"city": "Doraville", "state": "GA", "country": "United States"}}}}]}, "standing": {"placement": 1, "stats": {"score": {"value": 2}}}}, {"id": "91543404-1", "entrant": {"id": 20621498, "name": "TnT | Damp\u00e9", "participants": [{"id": 18983743, "gamerTag": "Damp\u00e9", "prefix": "TnT", "user": {"location": {"city": "Atlanta", "state": "GA", "country": "United States"}}, "player": {"id": 1170738, "gamerTag": "Damp\u00e9", "prefix": "TnT", "user": {"location": {"city": "Atlanta", "state": "GA", "country": "United States"}}}}]}, "standing": {"placement": 2, "stats": {"score": {"value": 0}}}}], "games": null}, {"id": 91543524, "state": 3, "round": 1, "fullRoundText": "Round 1", "completedAt": 1752884056, "winnerId": 20621488, "slots": [{"id": "91543524-0", "entrant": {"id": 20621488, "name": "Dubz", "participants": [{"id": 18983732, "gamerTag": "Dubz", "prefix": null, "user": {"location": {"city": "Grayson", "state": "GA", "country": "United States"}}, "player": {"id": 22583, "gamerTag": "Dubz", "prefix": "", "user": {"location": {"city": "Grayson", "state": "GA", "country": "United States"}}}}]}, "standing": {"placement": 1, "stats": {"score": {"value": 2}}}}, {"id": "91543524-1", "entrant": {"id": 20621378, "name": "Zarek", "participants": [{"id": 18983634, "gamerTag": "Zarek", "prefix": "", "user": {"location": {"city": "Atlanta", "state": "GA", "country": "United States"}}, "player": {"id": 405682, "gamerTag": "Zarek", "prefix": "", "user": {"location": {"city": "Atlanta", "state": "GA", "country": "United States"}}}}]}, "standing": {"placement": 2, "stats": {"score": {"value": 0}}}}], "games": [{"id": 31352174, "orderNum": 1, "winnerId": 20621488, "entrant1Score": null, "entrant2Score": 0, "stage": null, "selections": [{"id": 46137980, "selectionType": "CHARACTER", "selectionValue": 1278, "entrant": {"id": 20621378}, "character": {"id": 1278, "name": "Dark Pit"}}, {"id": 46137981, "selectionType": "CHARACTER", "selectionValue": 1316, "entrant": {"id": 20621488}, "character": {"id": 1316, "name": "Palutena"}}]}, {"id": 31352175, "orderNum": 2, "winnerId": 20621488, "entrant1Score": null, "entrant2Score": 0, "stage": null, "selections": [{"id": 46137982, "selectionType": "CHARACTER", "selectionValue": 1278, "entrant": {"id": 20621378}, "character": {"id": 1278, "name": "Dark Pit"}}, {"id": 46137983, "selectionType": "CHARACTER", "selectionValue": 1316, "entrant": {"id": 20621488}, "character": {"id": 1316, "name": "Palutena"}}]}]}, {"id": 91543405, "state": 3, "round": 1, "fullRoundText": "Round 1", "completedAt": 1752886971, "winnerId": 20621435, "slots": [{"id": "91543405-0", "entrant": {"id": 20621384, "name": "C$ | holdmypockets", "participants": [{"id": 18983641, "gamerTag": "holdmypockets", "prefix": "C$", "user": {"location": {"city": "Fayetteville", "state": "GA", "country": "United States"}}, "player": {"id": 617199, "gamerTag": "holdmypockets", "prefix": "C$", "user": {"location": {"city": "Fayetteville", "state": "GA", "country": "United States"}}}}]}, "standing": {"placement": 2, "stats": {"score": {"value": 0}}}}, {"id": "91543405-1", "entrant": {"id": 20621435, "name": "RAMS | RussianJesus", "participants": [{"id": 18983686, "gamerTag": "RussianJesus", "prefix": "RAMS", "user": {"location": {"city": "Atlanta", "state": "GA", "country": "United States"}}, "player": {"id": 1140567, "gamerTag": "RussianJesus", "prefix": "RAMS", "user": {"location": {"city": "Atlanta", "state": "GA", "country": "United States"}}}}]}, "standing": {"placement": 1, "stats": {"score": {"value": 2}}}}], "games": null}, {"id": 91543525, "state": 3, "round": 1, "fullRoundText": "Round 1", "completedAt": 1752884133, "winnerId": 20621377, "slots": [{"id": "91543525-0", "entrant": {"id": 20621493, "name": "AshNoJoy", "participants": [{"id": 18983738, "gamerTag": "AshNoJoy", "prefix": "", "user": {"location": {"city": "Phenix City", "state": "AL", "country": "United States"}}, "player": {"id": 3141674, "gamerTag": "AshNoJoy", "prefix": "", "user": {"location": {"city": "Phenix City", "state": "AL", "country": "United States"}}}}]}, "standing": {"placement": 2, "stats": {"score": {"value": 1}}}}, {"id": "91543525-1", "entrant": {"id": 20621377, "name": "TnT | Monologgue", "participants": [{"id": 18983633, "gamerTag": "Monologgue", "prefix": "TnT", "user": {"location": {"city": "Atlanta", "state": "GA", "country": "United States"}}, "player": {"id": 1135679, "gamerTag": "Monologgue", "prefix": "TnT", "user": {"location": {"city": "Atlanta", "state": "GA", "country": "United States"}}}}]}, "standing": {"placement": 1, "stats": {"score": {"value": 2}}}}], "games": null}, {"id": 91555490, "state": 3, "round": -4, "fullRoundText": "Losers Quarter-Final", "completedAt": 1752894588, "winnerId": 20621483, "slots": [{"id": "91555490-0", "entrant": {"id": 20621483, "name": "TFT | Frank", "participants": [{"id": 18983727, "gamerTag": "Frank", "prefix": "TFT", "user": {"location": {"city": "Doraville", "state": "GA", "country": "United States"}}, "player": {"id": 1227401, "gamerTag": "Terry Labonte", "prefix": "TFT", "user": {"location": {"city": "Doraville", "state": "GA", "country": "United States"}}}}]}, "standing": {"placement": 1, "stats": {"score": {"value": 2}}}}, {"id": "91555490-1", "entrant": {"id": 20621519, "name": "STiCK", "participants": [{"id": 18983760, "gamerTag": "STiCK", "prefix": null, "user": {"location": {"city": "Woodstock", "state": "GA", "country": "United States"}}, "player": {"id": 282674, "gamerTag": "STiCK", "prefix": "GUMP2", "user": {"location": {"city": "Woodstock", "state": "GA", "country": "United States"}}}}]}, "standing": {"placement": 2, "stats": {"score": {"value": 1}}}}], "games": null}, {"id": 91555491, "state": 3, "round": -4, "fullRoundText": "Losers Quarter-Final", "completedAt": 1752895290, "winnerId": 20621488, "slots": [{"id": "91555491-0", "entrant": {"id": 20621488, "name": "Dubz", "participants": [{"id": 18983732, "gamerTag": "Dubz", "prefix": null, "user": {"location": {"city": "Grayson", "state": "GA", "country": "United States"}}, "player": {"id": 22583, "gamerTag": "Dubz", "prefix": "", "user": {"location": {"city": "Grayson", "state": "GA", "country": "United States"}}}}]}, "standing": {"placement": 1, "stats": {"score": {"value": 2}}}}, {"id": "91555491-1", "entrant": {"id": 20621435, "name": "RAMS | RussianJesus", "participants": [{"id": 18983686, "gamerTag": "RussianJesus", "prefix": "RAMS", "user": {"location": {"city": "Atlanta", "state": "GA", "country": "United States"}}, "player": {"id": 1140567, "gamerTag": "RussianJesus", "prefix": "RAMS", "user": {"location": {"city": "Atlanta", "state": "GA", "country": "United States"}}}}]}, "standing": {"placement": 2, "stats": {"score": {"value": 0}}}}], "games": null}, {"id": 91555488, "state": 3, "round": -3, "fullRoundText": "Losers Round 1", "completedAt": 1752893241, "winnerId": 20621519, "slots": [{"id": "91555488-0", "entrant": {"id": 20621519, "name": "STiCK", "participants": [{"id": 18983760, "gamerTag": "STiCK", "prefix": null, "user": {"location": {"city": "Woodstock", "state": "GA", "country": "United States"}}, "player": {"id": 282674, "gamerTag": "STiCK", "prefix": "GUMP2", "user": {"location": {"city": "Woodstock", "state": "GA", "country": "United States"}}}}]}, "standing": {"placement": 1, "stats": {"score": {"value": 2}}}}, {"id": "91555488-1", "entrant": {"id": 20621377, "name": "TnT | Monologgue", "participants": [{"id": 18983633, "gamerTag": "Monologgue", "prefix": "TnT", "user": {"location": {"city": "Atlanta", "state": "GA", "country": "United States"}}, "player": {"id": 1135679, "gamerTag": "Monologgue", "prefix": "TnT", "user": {"location": {"city": "Atlanta", "state": "GA", "country": "United States"}}}}]}, "standing": {"placement": 2, "stats": {"score": {"value": 0}}}}], "games": [{"id": 31359376, "orderNum": 1, "winnerId": 20621519, "entrant1Score": null, "entrant2Score": 0, "stage": null, "selections": [{"id": 46150157, "selectionType": "CHARACTER", "selectionValue": 1331, "entrant": {"id": 20621377}, "character": {"id": 1331, "name": "Snake"}}, {"id": 46150158, "selectionType": "CHARACTER", "selectionValue": 1407, "entrant": {"id": 20621519}, "character": {"id": 1407, "name": "King K. Rool"}}]}, {"id": 31359377, "orderNum": 2, "winnerId": 20621519, "entrant1Score": null, "entrant2Score": 0, "stage": null, "selections": [{"id": 46150159, "selectionType": "CHARACTER", "selectionValue": 1331, "entrant": {"id": 20621377}, "character": {"id": 1331, "name": "Snake"}}, {"id": 46150160, "selectionType": "CHARACTER", "selectionValue": 1407, "entrant": {"id": 20621519}, "character": {"id": 1407, "name": "King K. Rool"}}]}]}, {"id": 91555489, "state": 3, "round": -3, "fullRoundText": "Losers Round 1", "completedAt": 1752893590, "winnerId": 20621435, "slots": [{"id": "91555489-0", "entrant": {"id": 20621378, "name": "Zarek", "participants": [{"id": 18983634, "gamerTag": "Zarek", "prefix": "", "user": {"location": {"city": "Atlanta", "state": "GA", "country": "United States"}}, "player": {"id": 405682, "gamerTag": "Zarek", "prefix": "", "user": {"location": {"city": "Atlanta", "state": "GA", "country": "United States"}}}}]}, "standing": {"placement": 2, "stats": {"score": {"value": 1}}}}, {"id": "91555489-1", "entrant": {"id": 20621435, "name": "RAMS | RussianJesus", "participants": [{"id": 18983686, "gamerTag": "RussianJesus", "prefix": "RAMS", "user": {"location": {"city": "Atlanta", "state": "GA", "country": "United States"}}, "player": {"id": 1140567, "gamerTag": "RussianJesus", "prefix": "RAMS", "user": {"location": {"city": "Atlanta", "state": "GA", "country": "United States"}}}}]}, "standing": {"placement": 1, "stats": {"score": {"value": 2}}}}], "games": [{"id": 31359532, "orderNum": 1, "winnerId": 20621435, "entrant1Score": 0, "entrant2Score": null, "stage": null, "selections": [{"id": 46150483, "selectionType": "CHARACTER", "selectionValue": 1283, "entrant": {"id": 20621378}, "character": {"id": 1283, "name": "Duck Hunt"}}, {"id": 46150484, "selectionType": "CHARACTER", "selectionValue": 1328, "entrant": {"id": 20621435}, "character": {"id": 1328, "name": "Samus"}}]}, {"id": 31359533, "orderNum": 2, "winnerId": 20621378, "entrant1Score": null, "entrant2Score": 0, "stage": null, "selections": [{"id": 46150485, "selectionType": "CHARACTER", "selectionValue": 1315, "entrant": {"id": 20621378}, "character": {"id": 1315, "name": "Pac-Man"}}, {"id": 46150486, "selectionType": "CHARACTER", "selectionValue": 1328, "entrant": {"id": 20621435}, "character": {"id": 1328, "name": "Samus"}}]}, {"id": 31359534, "orderNum": 3, "winnerId": 20621435, "entrant1Score": 0, "entrant2Score": null, "stage": null, "selections": [{"id": 46150487, "selectionType": "CHARACTER", "selectionValue": 1315, "entrant": {"id": 20621378}, "character": {"id": 1315, "name": "Pac-Man"}}, {"id": 46150488, "selectionType": "CHARACTER", "selectionValue": 1328, "entrant": {"id": 20621435}, "character": {"id": 1328, "name": "Samus"}}]}]}]}}}