{"phase": {"seeds": {"pageInfo": {"totalPages": 1, "total": 8}, "nodes": [{"id": 35958434, "seedNum": 1, "entrant": {"id": 20844612, "name": "Ave~", "participants": [{"id": 19181310, "gamerTag": "Ave~", "prefix": "", "user": {"location": {"city": null, "state": null, "country": null}}, "player": {"id": 38830, "gamerTag": "Ave~", "prefix": "", "user": {"location": {"city": null, "state": null, "country": null}}}}]}}, {"id": 35958437, "seedNum": 3, "entrant": {"id": 20976640, "name": "Nut Esports | | Geemoney$", "participants": [{"id": 19297673, "gamerTag": "Geemoney$", "prefix": "Nut Esports |", "user": {"location": {"city": "Jacksonville", "state": "FL", "country": "United States"}}, "player": {"id": 252344, "gamerTag": "Geemoney$", "prefix": "", "user": {"location": {"city": "Jacksonville", "state": "FL", "country": "United States"}}}}]}}, {"id": 35958441, "seedNum": 7, "entrant": {"id": 20942487, "name": "4o4 | chooryu :)", "participants": [{"id": 19267970, "gamerTag": "chooryu :)", "prefix": "4o4", "user": {"location": {"city": "Kennesaw", "state": "GA", "country": "United States"}}, "player": {"id": 466564, "gamerTag": "chooryu :)", "prefix": "4o4", "user": {"location": {"city": "Kennesaw", "state": "GA", "country": "United States"}}}}]}}, {"id": 35958435, "seedNum": 2, "entrant": {"id": 20975613, "name": "Tobe", "participants": [{"id": 19296761, "gamerTag": "Tobe", "prefix": "", "user": {"location": {"city": "Buford", "state": "GA", "country": "United States"}}, "player": {"id": 1646132, "gamerTag": "Tobe", "prefix": "", "user": {"location": {"city": "Buford", "state": "GA", "country": "United States"}}}}]}}, {"id": 35958436, "seedNum": 4, "entrant": {"id": 20883196, "name": "RM | WFF | Cyax~", "participants": [{"id": 19215694, "gamerTag": "Cyax~", "prefix": "RM | WFF", "user": {"location": {"city": "atlanta", "state": "GA", "country": "United States"}}, "player": {"id": 1230555, "gamerTag": "Sakruoi", "prefix": "RM | WFF", "user": {"location": {"city": "atlanta", "state": "GA", "country": "United States"}}}}]}}, {"id": 35958440, "seedNum": 8, "entrant": {"id": 20980980, "name": "GUMP2 | RoKu", "participants": [{"id": 19301565, "gamerTag": "RoKu", "prefix": "GUMP2", "user": {"location": {"city": "Peachtree Corners", "state": "GA", "country": "United States"}}, "player": {"id": 1107285, "gamerTag": "RoKu", "prefix": "TFT", "user": {"location": {"city": "Peachtree Corners", "state": "GA", "country": "United States"}}}}]}}, {"id": 35958438, "seedNum": 5, "entrant": {"id": 20967599, "name": "CFL | Benji", "participants": [{"id": 19289501, "gamerTag": "Benji", "prefix": "CFL", "user": {"location": {"city": "Orlando", "state": "FL", "country": "United States"}}, "player": {"id": 2990255, "gamerTag": "Benji", "prefix": "CFL", "user": {"location": {"city": "Orlando", "state": "FL", "country": "United States"}}}}]}}, {"id": 35958439, "seedNum": 6, "entrant": {"id": 20939293, "name": "Heart", "participants": [{"id": 19265072, "gamerTag": "Heart", "prefix": "", "user": {"location": {"city": "Atlanta", "state": "GA", "country": "United States"}}, "player": {"id": 4287822, "gamerTag": "Heart", "prefix": "", "user": {"location": {"city": "Atlanta", "state": "GA", "country": "United States"}}}}]}}]}}}