{"event": {"sets": {"pageInfo": {"totalPages": 3, "total": 33}, "nodes": [{"id": 91612714, "state": 3, "round": 6, "fullRoundText": "Grand Final", "completedAt": 1752973973, "winnerId": 20742661, "slots": [{"id": "91612714-0", "entrant": {"id": 20733544, "name": "Chato", "participants": [{"id": 19080847, "gamerTag": "Chato", "prefix": null, "user": {"location": {"city": null, "state": null, "country": null}}, "player": {"id": 657291, "gamerTag": "Chato", "prefix": null, "user": {"location": {"city": null, "state": null, "country": null}}}}]}, "standing": {"placement": 2, "stats": {"score": {"value": 2}}}}, {"id": "91612714-1", "entrant": {"id": 20742661, "name": "blendoben", "participants": [{"id": 18873734, "gamerTag": "blendoben", "prefix": null, "user": {"location": {"city": "Perry", "state": "GA", "country": "United States"}}, "player": {"id": 140048, "gamerTag": "blendoben", "prefix": null, "user": {"location": {"city": "Perry", "state": "GA", "country": "United States"}}}}]}, "standing": {"placement": 1, "stats": {"score": {"value": 3}}}}], "games": null}, {"id": 91612715, "state": 3, "round": 6, "fullRoundText": "Grand Final Reset", "completedAt": 1752974032, "winnerId": 20742661, "slots": [{"id": "91612715-0", "entrant": {"id": 20742661, "name": "blendoben", "participants": [{"id": 18873734, "gamerTag": "blendoben", "prefix": null, "user": {"location": {"city": "Perry", "state": "GA", "country": "United States"}}, "player": {"id": 140048, "gamerTag": "blendoben", "prefix": null, "user": {"location": {"city": "Perry", "state": "GA", "country": "United States"}}}}]}, "standing": {"placement": 1, "stats": {"score": {"value": 3}}}}, {"id": "91612715-1", "entrant": {"id": 20733544, "name": "Chato", "participants": [{"id": 19080847, "gamerTag": "Chato", "prefix": null, "user": {"location": {"city": null, "state": null, "country": null}}, "player": {"id": 657291, "gamerTag": "Chato", "prefix": null, "user": {"location": {"city": null, "state": null, "country": null}}}}]}, "standing": {"placement": 2, "stats": {"score": {"value": 2}}}}], "games": null}, {"id": 91612713, "state": 3, "round": 5, "fullRoundText": "Winners Final", "completedAt": 1752970285, "winnerId": 20733544, "slots": [{"id": "91612713-0", "entrant": {"id": 20742661, "name": "blendoben", "participants": [{"id": 18873734, "gamerTag": "blendoben", "prefix": null, "user": {"location": {"city": "Perry", "state": "GA", "country": "United States"}}, "player": {"id": 140048, "gamerTag": "blendoben", "prefix": null, "user": {"location": {"city": "Perry", "state": "GA", "country": "United States"}}}}]}, "standing": {"placement": 2, "stats": {"score": {"value": 0}}}}, {"id": "91612713-1", "entrant": {"id": 20733544, "name": "Chato", "participants": [{"id": 19080847, "gamerTag": "Chato", "prefix": null, "user": {"location": {"city": null, "state": null, "country": null}}, "player": {"id": 657291, "gamerTag": "Chato", "prefix": null, "user": {"location": {"city": null, "state": null, "country": null}}}}]}, "standing": {"placement": 1, "stats": {"score": {"value": 3}}}}], "games": null}, {"id": 91612777, "state": 3, "round": -10, "fullRoundText": "Losers Final", "completedAt": 1752973965, "winnerId": 20742661, "slots": [{"id": "91612777-0", "entrant": {"id": 20742661, "name": "blendoben", "participants": [{"id": 18873734, "gamerTag": "blendoben", "prefix": null, "user": {"location": {"city": "Perry", "state": "GA", "country": "United States"}}, "player": {"id": 140048, "gamerTag": "blendoben", "prefix": null, "user": {"location": {"city": "Perry", "state": "GA", "country": "United States"}}}}]}, "standing": {"placement": 1, "stats": {"score": {"value": 3}}}}, {"id": "91612777-1", "entrant": {"id": 20687694, "name": "D3King", "participants": [{"id": 18873678, "gamerTag": "D3King", "prefix": null, "user": {"location": {"city": "Macon", "state": "GA", "country": "United States"}}, "player": {"id": 213861, "gamerTag": "D3King", "prefix": "YHWH", "user": {"location": {"city": "Macon", "state": "GA", "country": "United States"}}}}]}, "standing": {"placement": 2, "stats": {"score": {"value": 2}}}}], "games": null}, {"id": 91612776, "state": 3, "round": -9, "fullRoundText": "Losers Semi-Final", "completedAt": 1752971589, "winnerId": 20687694, "slots": [{"id": "91612776-0", "entrant": {"id": 20687694, "name": "D3King", "participants": [{"id": 18873678, "gamerTag": "D3King", "prefix": null, "user": {"location": {"city": "Macon", "state": "GA", "country": "United States"}}, "player": {"id": 213861, "gamerTag": "D3King", "prefix": "YHWH", "user": {"location": {"city": "Macon", "state": "GA", "country": "United States"}}}}]}, "standing": {"placement": 1, "stats": {"score": {"value": 3}}}}, {"id": "91612776-1", "entrant": {"id": 20504091, "name": "MrMixtape", "participants": [{"id": 18873680, "gamerTag": "MrMixtape", "prefix": null, "user": {"location": {"city": null, "state": null, "country": null}}, "player": {"id": 3930310, "gamerTag": "MrMixtape", "prefix": null, "user": {"location": {"city": null, "state": null, "country": null}}}}]}, "standing": {"placement": 2, "stats": {"score": {"value": 0}}}}], "games": null}, {"id": 91612711, "state": 3, "round": 4, "fullRoundText": "Winners Semi-Final", "completedAt": 1752966738, "winnerId": 20742661, "slots": [{"id": "91612711-0", "entrant": {"id": 20504091, "name": "MrMixtape", "participants": [{"id": 18873680, "gamerTag": "MrMixtape", "prefix": null, "user": {"location": {"city": null, "state": null, "country": null}}, "player": {"id": 3930310, "gamerTag": "MrMixtape", "prefix": null, "user": {"location": {"city": null, "state": null, "country": null}}}}]}, "standing": {"placement": 2, "stats": {"score": {"value": 1}}}}, {"id": "91612711-1", "entrant": {"id": 20742661, "name": "blendoben", "participants": [{"id": 18873734, "gamerTag": "blendoben", "prefix": null, "user": {"location": {"city": "Perry", "state": "GA", "country": "United States"}}, "player": {"id": 140048, "gamerTag": "blendoben", "prefix": null, "user": {"location": {"city": "Perry", "state": "GA", "country": "United States"}}}}]}, "standing": {"placement": 1, "stats": {"score": {"value": 3}}}}], "games": null}, {"id": 91612712, "state": 3, "round": 4, "fullRoundText": "Winners Semi-Final", "completedAt": 1752967508, "winnerId": 20733544, "slots": [{"id": "91612712-0", "entrant": {"id": 20687694, "name": "D3King", "participants": [{"id": 18873678, "gamerTag": "D3King", "prefix": null, "user": {"location": {"city": "Macon", "state": "GA", "country": "United States"}}, "player": {"id": 213861, "gamerTag": "D3King", "prefix": "YHWH", "user": {"location": {"city": "Macon", "state": "GA", "country": "United States"}}}}]}, "standing": {"placement": 2, "stats": {"score": {"value": 2}}}}, {"id": "91612712-1", "entrant": {"id": 20733544, "name": "Chato", "participants": [{"id": 19080847, "gamerTag": "Chato", "prefix": null, "user": {"location": {"city": null, "state": null, "country": null}}, "player": {"id": 657291, "gamerTag": "Chato", "prefix": null, "user": {"location": {"city": null, "state": null, "country": null}}}}]}, "standing": {"placement": 1, "stats": {"score": {"value": 3}}}}], "games": null}, {"id": 91612774, "state": 3, "round": -8, "fullRoundText": "Losers Quarter-Final", "completedAt": 1752969739, "winnerId": 20687694, "slots": [{"id": "91612774-0", "entrant": {"id": 20687694, "name": "D3King", "participants": [{"id": 18873678, "gamerTag": "D3King", "prefix": null, "user": {"location": {"city": "Macon", "state": "GA", "country": "United States"}}, "player": {"id": 213861, "gamerTag": "D3King", "prefix": "YHWH", "user": {"location": {"city": "Macon", "state": "GA", "country": "United States"}}}}]}, "standing": {"placement": 1, "stats": {"score": {"value": 3}}}}, {"id": "91612774-1", "entrant": {"id": 20728191, "name": "AfterKast", "participants": [{"id": 19076237, "gamerTag": "AfterKast", "prefix": null, "user": {"location": {"city": "Macon", "state": "GA", "country": "United States"}}, "player": {"id": 3467624, "gamerTag": "AfterKast", "prefix": null, "user": {"location": {"city": "Macon", "state": "GA", "country": "United States"}}}}]}, "standing": {"placement": 2, "stats": {"score": {"value": 0}}}}], "games": null}, {"id": 91612775, "state": 3, "round": -8, "fullRoundText": "Losers Quarter-Final", "completedAt": 1752971574, "winnerId": 20504091, "slots": [{"id": "91612775-0", "entrant": {"id": 20504091, "name": "MrMixtape", "participants": [{"id": 18873680, "gamerTag": "MrMixtape", "prefix": null, "user": {"location": {"city": null, "state": null, "country": null}}, "player": {"id": 3930310, "gamerTag": "MrMixtape", "prefix": null, "user": {"location": {"city": null, "state": null, "country": null}}}}]}, "standing": {"placement": 1, "stats": {"score": {"value": 3}}}}, {"id": "91612775-1", "entrant": {"id": 20715057, "name": "Goob Academy | Jiub", "participants": [{"id": 19065066, "gamerTag": "Jiub", "prefix": "Goob Academy", "user": {"location": {"city": "Warner Robins", "state": "GA", "country": "United States"}}, "player": {"id": 4457617, "gamerTag": "Jiub", "prefix": "Goob Academy", "user": {"location": {"city": "Warner Robins", "state": "GA", "country": "United States"}}}}]}, "standing": {"placement": 2, "stats": {"score": {"value": 0}}}}], "games": null}, {"id": 91612772, "state": 3, "round": -7, "fullRoundText": "Losers Round 4", "completedAt": 1752968563, "winnerId": 20728191, "slots": [{"id": "91612772-0", "entrant": {"id": 20687735, "name": "LOL!", "participants": [{"id": 19040814, "gamerTag": "LOL!", "prefix": "", "user": {"location": {"city": "Byron", "state": "GA", "country": "United States"}}, "player": {"id": 3212772, "gamerTag": "LOL!", "prefix": "", "user": {"location": {"city": "Byron", "state": "GA", "country": "United States"}}}}]}, "standing": {"placement": 2, "stats": {"score": {"value": 1}}}}, {"id": "91612772-1", "entrant": {"id": 20728191, "name": "AfterKast", "participants": [{"id": 19076237, "gamerTag": "AfterKast", "prefix": null, "user": {"location": {"city": "Macon", "state": "GA", "country": "United States"}}, "player": {"id": 3467624, "gamerTag": "AfterKast", "prefix": null, "user": {"location": {"city": "Macon", "state": "GA", "country": "United States"}}}}]}, "standing": {"placement": 1, "stats": {"score": {"value": 3}}}}], "games": null}, {"id": 91612773, "state": 3, "round": -7, "fullRoundText": "Losers Round 4", "completedAt": 1752969341, "winnerId": 20715057, "slots": [{"id": "91612773-0", "entrant": {"id": 20716809, "name": "Espadah | ReaperNoLimit", "participants": [{"id": 19066360, "gamerTag": "ReaperNoLimit", "prefix": "Espadah", "user": {"location": {"city": "Warner robbins", "state": "GA", "country": "United States"}}, "player": {"id": 1650376, "gamerTag": "ReaperNoLimit", "prefix": "Espadah", "user": {"location": {"city": "Warner robbins", "state": "GA", "country": "United States"}}}}]}, "standing": {"placement": 2, "stats": {"score": {"value": 2}}}}, {"id": "91612773-1", "entrant": {"id": 20715057, "name": "Goob Academy | Jiub", "participants": [{"id": 19065066, "gamerTag": "Jiub", "prefix": "Goob Academy", "user": {"location": {"city": "Warner Robins", "state": "GA", "country": "United States"}}, "player": {"id": 4457617, "gamerTag": "Jiub", "prefix": "Goob Academy", "user": {"location": {"city": "Warner Robins", "state": "GA", "country": "United States"}}}}]}, "standing": {"placement": 1, "stats": {"score": {"value": 3}}}}], "games": null}, {"id": 91612707, "state": 3, "round": 3, "fullRoundText": "Winners Quarter-Final", "completedAt": 1752964334, "winnerId": 20504091, "slots": [{"id": "91612707-0", "entrant": {"id": 20504091, "name": "MrMixtape", "participants": [{"id": 18873680, "gamerTag": "MrMixtape", "prefix": null, "user": {"location": {"city": null, "state": null, "country": null}}, "player": {"id": 3930310, "gamerTag": "MrMixtape", "prefix": null, "user": {"location": {"city": null, "state": null, "country": null}}}}]}, "standing": {"placement": 1, "stats": {"score": {"value": 2}}}}, {"id": "91612707-1", "entrant": {"id": 20742649, "name": "Pear", "participants": [{"id": 18873736, "gamerTag": "Pear", "prefix": null, "user": {"location": {"city": "Macon", "state": "GA", "country": "United States"}}, "player": {"id": 3535960, "gamerTag": "Pear", "prefix": null, "user": {"location": {"city": "Macon", "state": "GA", "country": "United States"}}}}]}, "standing": {"placement": 2, "stats": {"score": {"value": 0}}}}], "games": null}, {"id": 91612708, "state": 3, "round": 3, "fullRoundText": "Winners Quarter-Final", "completedAt": 1752964555, "winnerId": 20742661, "slots": [{"id": "91612708-0", "entrant": {"id": 20687735, "name": "LOL!", "participants": [{"id": 19040814, "gamerTag": "LOL!", "prefix": "", "user": {"location": {"city": "Byron", "state": "GA", "country": "United States"}}, "player": {"id": 3212772, "gamerTag": "LOL!", "prefix": "", "user": {"location": {"city": "Byron", "state": "GA", "country": "United States"}}}}]}, "standing": {"placement": 2, "stats": {"score": {"value": null}}}}, {"id": "91612708-1", "entrant": {"id": 20742661, "name": "blendoben", "participants": [{"id": 18873734, "gamerTag": "blendoben", "prefix": null, "user": {"location": {"city": "Perry", "state": "GA", "country": "United States"}}, "player": {"id": 140048, "gamerTag": "blendoben", "prefix": null, "user": {"location": {"city": "Perry", "state": "GA", "country": "United States"}}}}]}, "standing": {"placement": 1, "stats": {"score": {"value": null}}}}], "games": null}, {"id": 91612709, "state": 3, "round": 3, "fullRoundText": "Winners Quarter-Final", "completedAt": 1752965908, "winnerId": 20687694, "slots": [{"id": "91612709-0", "entrant": {"id": 20687694, "name": "D3King", "participants": [{"id": 18873678, "gamerTag": "D3King", "prefix": null, "user": {"location": {"city": "Macon", "state": "GA", "country": "United States"}}, "player": {"id": 213861, "gamerTag": "D3King", "prefix": "YHWH", "user": {"location": {"city": "Macon", "state": "GA", "country": "United States"}}}}]}, "standing": {"placement": 1, "stats": {"score": {"value": 2}}}}, {"id": "91612709-1", "entrant": {"id": 20715057, "name": "Goob Academy | Jiub", "participants": [{"id": 19065066, "gamerTag": "Jiub", "prefix": "Goob Academy", "user": {"location": {"city": "Warner Robins", "state": "GA", "country": "United States"}}, "player": {"id": 4457617, "gamerTag": "Jiub", "prefix": "Goob Academy", "user": {"location": {"city": "Warner Robins", "state": "GA", "country": "United States"}}}}]}, "standing": {"placement": 2, "stats": {"score": {"value": 0}}}}], "games": null}, {"id": 91612710, "state": 3, "round": 3, "fullRoundText": "Winners Quarter-Final", "completedAt": 1752965578, "winnerId": 20733544, "slots": [{"id": "91612710-0", "entrant": {"id": 20733544, "name": "Chato", "participants": [{"id": 19080847, "gamerTag": "Chato", "prefix": null, "user": {"location": {"city": null, "state": null, "country": null}}, "player": {"id": 657291, "gamerTag": "Chato", "prefix": null, "user": {"location": {"city": null, "state": null, "country": null}}}}]}, "standing": {"placement": 1, "stats": {"score": {"value": 2}}}}, {"id": "91612710-1", "entrant": {"id": 20720517, "name": "Astroh", "participants": [{"id": 18873735, "gamerTag": "Astroh", "prefix": null, "user": {"location": {"city": "Byron", "state": "GA", "country": "United States"}}, "player": {"id": 1329801, "gamerTag": "Astroh", "prefix": null, "user": {"location": {"city": "Byron", "state": "GA", "country": "United States"}}}}]}, "standing": {"placement": 2, "stats": {"score": {"value": 1}}}}], "games": null}]}}}