{"phase": {"seeds": {"pageInfo": {"totalPages": 1, "total": 7}, "nodes": [{"id": 36547028, "seedNum": 1, "entrant": {"id": 21217608, "name": "ATLRiot", "participants": [{"id": 19512632, "gamerTag": "ATLRiot", "prefix": "", "user": {"location": {"city": "Augusta", "state": "GA", "country": "United States"}}, "player": {"id": 2057913, "gamerTag": "ATLRiot", "prefix": "", "user": {"location": {"city": "Augusta", "state": "GA", "country": "United States"}}}}]}}, {"id": 36719883, "seedNum": 3, "entrant": {"id": 21337677, "name": "CV | NiNE", "participants": [{"id": 19615235, "gamerTag": "NiNE", "prefix": "CV", "user": {"location": {"city": "Augusta", "state": "GA", "country": "United States"}}, "player": {"id": 25337, "gamerTag": "NiNE", "prefix": "CV", "user": {"location": {"city": "Augusta", "state": "GA", "country": "United States"}}}}]}}, {"id": 36645747, "seedNum": 2, "entrant": {"id": 21288032, "name": "Shifty", "participants": [{"id": 19572486, "gamerTag": "Shifty", "prefix": "", "user": {"location": {"city": "Evans", "state": "GA", "country": "United States"}}, "player": {"id": 4387897, "gamerTag": "Shifty", "prefix": "", "user": {"location": {"city": "Evans", "state": "GA", "country": "United States"}}}}]}}, {"id": 36721490, "seedNum": 7, "entrant": {"id": 21339114, "name": "Snail", "participants": [{"id": 19616581, "gamerTag": "Snail", "prefix": null, "user": {"location": {"city": "Augusta", "state": "GA", "country": "United States"}}, "player": {"id": 1659733, "gamerTag": "Snail", "prefix": null, "user": {"location": {"city": "Augusta", "state": "GA", "country": "United States"}}}}]}}, {"id": 36614475, "seedNum": 4, "entrant": {"id": 21265602, "name": "Yamcha157", "participants": [{"id": 19554252, "gamerTag": "Yamcha157", "prefix": null, "user": {"location": {"city": null, "state": null, "country": null}}, "player": {"id": 3440866, "gamerTag": "Yamcha157", "prefix": null, "user": {"location": {"city": null, "state": null, "country": null}}}}]}}, {"id": 36687986, "seedNum": 5, "entrant": {"id": 21318499, "name": "LonelyGamer5th", "participants": [{"id": 19598609, "gamerTag": "LonelyGamer5th", "prefix": "", "user": {"location": {"city": null, "state": null, "country": "United States"}}, "player": {"id": 4960831, "gamerTag": "LonelyGamer5th", "prefix": "", "user": {"location": {"city": null, "state": null, "country": "United States"}}}}]}}, {"id": 36648220, "seedNum": 6, "entrant": {"id": 21290346, "name": "Greenbean", "participants": [{"id": 19573931, "gamerTag": "Greenbean", "prefix": null, "user": {"location": {"city": "Augusta", "state": "GA", "country": "United States"}}, "player": {"id": 2249747, "gamerTag": "Greenbean", "prefix": null, "user": {"location": {"city": "Augusta", "state": "GA", "country": "United States"}}}}]}}]}}}