{"phase": {"seeds": {"pageInfo": {"totalPages": 1, "total": 15}, "nodes": [{"id": 36212222, "seedNum": 7, "entrant": {"id": 20996724, "name": "Omar", "participants": [{"id": 19258700, "gamerTag": "Omar", "prefix": "", "user": {"location": {"city": null, "state": "GA", "country": "United States"}}, "player": {"id": 4300029, "gamerTag": "Omar", "prefix": "", "user": {"location": {"city": null, "state": "GA", "country": "United States"}}}}]}}, {"id": 36212232, "seedNum": 3, "entrant": {"id": 20996735, "name": "GRW | Gooey", "participants": [{"id": 19297565, "gamerTag": "Gooey", "prefix": "GRW", "user": {"location": {"city": "Athens", "state": "GA", "country": "United States"}}, "player": {"id": 1071181, "gamerTag": "Gooey", "prefix": "GRW", "user": {"location": {"city": "Athens", "state": "GA", "country": "United States"}}}}]}}, {"id": 36212200, "seedNum": 4, "entrant": {"id": 20996702, "name": "GRW | Shad", "participants": [{"id": 19311437, "gamerTag": "Shad", "prefix": "GRW", "user": {"location": {"city": null, "state": null, "country": "United States"}}, "player": {"id": 4332389, "gamerTag": "Shad", "prefix": "GRW", "user": {"location": {"city": null, "state": null, "country": "United States"}}}}]}}, {"id": 36212289, "seedNum": 9, "entrant": {"id": 20996785, "name": "GOOMBA!", "participants": [{"id": 19298186, "gamerTag": "GOOMBA!", "prefix": null, "user": {"location": {"city": "Johns Creek", "state": "GA", "country": "United States"}}, "player": {"id": 1052642, "gamerTag": "GOOMBA!", "prefix": "EDLN | BWU", "user": {"location": {"city": "Johns Creek", "state": "GA", "country": "United States"}}}}]}}, {"id": 36212193, "seedNum": 2, "entrant": {"id": 20996695, "name": "LaJohn", "participants": [{"id": 19253727, "gamerTag": "LaJohn", "prefix": null, "user": {"location": {"city": "Suwanee", "state": "GA", "country": "United States"}}, "player": {"id": 1742867, "gamerTag": "LaJohn", "prefix": "UGA", "user": {"location": {"city": "Suwanee", "state": "GA", "country": "United States"}}}}]}}, {"id": 36212246, "seedNum": 8, "entrant": {"id": 20996750, "name": "Genaric_Human", "participants": [{"id": 19285313, "gamerTag": "Genaric_Human", "prefix": "", "user": {"location": {"city": null, "state": null, "country": "United States"}}, "player": {"id": 4427222, "gamerTag": "Genaric_Human", "prefix": "", "user": {"location": {"city": null, "state": null, "country": "United States"}}}}]}}, {"id": 36212195, "seedNum": 10, "entrant": {"id": 20996697, "name": "ThePromisedHat", "participants": [{"id": 19253578, "gamerTag": "ThePromisedHat", "prefix": null, "user": {"location": {"city": "Bishop", "state": "GA", "country": "United States"}}, "player": {"id": 4261821, "gamerTag": "ThePromisedHat", "prefix": null, "user": {"location": {"city": "Bishop", "state": "GA", "country": "United States"}}}}]}}, {"id": 36212213, "seedNum": 11, "entrant": {"id": 20996715, "name": "MTM | Mishmash", "participants": [{"id": 19310464, "gamerTag": "Mishmash", "prefix": "MTM", "user": {"location": {"city": "Cartersville", "state": "GA", "country": "United States"}}, "player": {"id": 4104907, "gamerTag": "Mishmash", "prefix": "MTM", "user": {"location": {"city": "Cartersville", "state": "GA", "country": "United States"}}}}]}}, {"id": 36212208, "seedNum": 1, "entrant": {"id": 20996710, "name": "417 | zors3y", "participants": [{"id": 19294428, "gamerTag": "zors3y", "prefix": "417", "user": {"location": {"city": "Eatonton", "state": "GA", "country": "United States"}}, "player": {"id": 994539, "gamerTag": "zors3y", "prefix": "417", "user": {"location": {"city": "Eatonton", "state": "GA", "country": "United States"}}}}]}}, {"id": 36212205, "seedNum": 5, "entrant": {"id": 20996707, "name": "417 | Luke Dryewalker", "participants": [{"id": 19253677, "gamerTag": "Luke Dryewalker", "prefix": "417", "user": {"location": {"city": "Athens", "state": "GA", "country": "United States"}}, "player": {"id": 3630114, "gamerTag": "Yharon", "prefix": "417", "user": {"location": {"city": "Athens", "state": "GA", "country": "United States"}}}}]}}, {"id": 36212229, "seedNum": 6, "entrant": {"id": 20996732, "name": "Vertebrae", "participants": [{"id": 19255797, "gamerTag": "Vertebrae", "prefix": "", "user": {"location": {"city": "Athens", "state": "GA", "country": "United States"}}, "player": {"id": 1583946, "gamerTag": "Vertebrae", "prefix": "CC", "user": {"location": {"city": "Athens", "state": "GA", "country": "United States"}}}}]}}, {"id": 36212251, "seedNum": 12, "entrant": {"id": 20996757, "name": "Eternal_Radiance", "participants": [{"id": 19305644, "gamerTag": "Eternal_Radiance", "prefix": "", "user": {"location": {"city": null, "state": "GA", "country": "United States"}}, "player": {"id": 4926508, "gamerTag": "Infinite_Radiance", "prefix": "CC UGA", "user": {"location": {"city": null, "state": "GA", "country": "United States"}}}}]}}, {"id": 36212215, "seedNum": 13, "entrant": {"id": 20996717, "name": "CheddrTV", "participants": [{"id": 19267319, "gamerTag": "CheddrTV", "prefix": "", "user": {"location": {"city": null, "state": "GA", "country": "United States"}}, "player": {"id": 4629852, "gamerTag": "CheddrTV", "prefix": "", "user": {"location": {"city": null, "state": "GA", "country": "United States"}}}}]}}, {"id": 36212228, "seedNum": 14, "entrant": {"id": 20996730, "name": "Brick Head", "participants": [{"id": 19289039, "gamerTag": "Brick Head", "prefix": "", "user": {"location": {"city": null, "state": null, "country": "United States"}}, "player": {"id": 4261425, "gamerTag": "Brick Head", "prefix": "", "user": {"location": {"city": null, "state": null, "country": "United States"}}}}]}}, {"id": 36212226, "seedNum": 15, "entrant": {"id": 20996728, "name": "NoobGamer", "participants": [{"id": 19300459, "gamerTag": "NoobGamer", "prefix": null, "user": {"location": {"city": "", "state": "GA", "country": "United States"}}, "player": {"id": 4925354, "gamerTag": "NoobGamer", "prefix": null, "user": {"location": {"city": "", "state": "GA", "country": "United States"}}}}]}}]}}}