{"event": {"sets": {"pageInfo": {"totalPages": 5, "total": 66}, "nodes": [{"id": 93342017, "state": 3, "round": 2, "fullRoundText": "Winners Round 2", "completedAt": 1756661679, "winnerId": 21125154, "slots": [{"id": "93342017-0", "entrant": {"id": 21125154, "name": "UmKellan", "participants": [{"id": 19430916, "gamerTag": "UmKellan", "prefix": "", "user": {"location": {"city": "Atlanta", "state": "GA", "country": "United States"}}, "player": {"id": 1022375, "gamerTag": "UmKellan", "prefix": "", "user": {"location": {"city": "Atlanta", "state": "GA", "country": "United States"}}}}]}, "standing": {"placement": 1, "stats": {"score": {"value": null}}}}, {"id": "93342017-1", "entrant": {"id": 21115638, "name": "EXC | Blinduv", "participants": [{"id": 19422556, "gamerTag": "Blinduv", "prefix": "EXC", "user": {"location": {"city": "Richmond", "state": "VA", "country": "United States"}}, "player": {"id": 1236931, "gamerTag": "Blinduv", "prefix": "EXC", "user": {"location": {"city": "Richmond", "state": "VA", "country": "United States"}}}}]}, "standing": {"placement": 2, "stats": {"score": {"value": -1}}}}], "games": null}, {"id": 93342018, "state": 3, "round": 2, "fullRoundText": "Winners Round 2", "completedAt": 1756661793, "winnerId": 21119382, "slots": [{"id": "93342018-0", "entrant": {"id": 21119382, "name": "Jemi Keiyns", "participants": [{"id": 19425900, "gamerTag": "Jemi Keiyns", "prefix": "", "user": {"location": {"city": null, "state": null, "country": null}}, "player": {"id": 3640628, "gamerTag": "Jemi Keiyns", "prefix": "", "user": {"location": {"city": null, "state": null, "country": null}}}}]}, "standing": {"placement": 1, "stats": {"score": {"value": 3}}}}, {"id": "93342018-1", "entrant": {"id": 21057643, "name": "Seth A.F.", "participants": [{"id": 19370158, "gamerTag": "Seth A.F.", "prefix": "", "user": {"location": {"city": "Athens", "state": null, "country": null}}, "player": {"id": 1576714, "gamerTag": "Seth A.F.", "prefix": "", "user": {"location": {"city": "Athens", "state": null, "country": null}}}}]}, "standing": {"placement": 2, "stats": {"score": {"value": 0}}}}], "games": null}, {"id": 93342116, "state": 3, "round": -4, "fullRoundText": "Losers Round 1", "completedAt": 1756662603, "winnerId": 21057643, "slots": [{"id": "93342116-0", "entrant": {"id": 21057643, "name": "Seth A.F.", "participants": [{"id": 19370158, "gamerTag": "Seth A.F.", "prefix": "", "user": {"location": {"city": "Athens", "state": null, "country": null}}, "player": {"id": 1576714, "gamerTag": "Seth A.F.", "prefix": "", "user": {"location": {"city": "Athens", "state": null, "country": null}}}}]}, "standing": {"placement": 1, "stats": {"score": {"value": 3}}}}, {"id": "93342116-1", "entrant": {"id": 21121164, "name": "Crimson", "participants": [{"id": 19422115, "gamerTag": "Crimson", "prefix": null, "user": {"location": {"city": "Peoria", "state": "AZ", "country": "United States"}}, "player": {"id": 4533084, "gamerTag": "Crimson", "prefix": "", "user": {"location": {"city": "Peoria", "state": "AZ", "country": "United States"}}}}]}, "standing": {"placement": 2, "stats": {"score": {"value": 0}}}}], "games": null}, {"id": 93342124, "state": 3, "round": -4, "fullRoundText": "Losers Round 1", "completedAt": 1756662441, "winnerId": 20930708, "slots": [{"id": "93342124-0", "entrant": {"id": 20930708, "name": "Greed", "participants": [{"id": 19257182, "gamerTag": "Greed", "prefix": "", "user": {"location": {"city": null, "state": null, "country": null}}, "player": {"id": 4917770, "gamerTag": "Greed", "prefix": "", "user": {"location": {"city": null, "state": null, "country": null}}}}]}, "standing": {"placement": 1, "stats": {"score": {"value": null}}}}, {"id": "93342124-1", "entrant": {"id": 21122510, "name": "Baixen_IRL", "participants": [{"id": 19428576, "gamerTag": "Baixen_IRL", "prefix": "", "user": {"location": {"city": "Watkinsville", "state": "GA", "country": "United States"}}, "player": {"id": 4948676, "gamerTag": "Baixen_IRL", "prefix": "", "user": {"location": {"city": "Watkinsville", "state": "GA", "country": "United States"}}}}]}, "standing": {"placement": 2, "stats": {"score": {"value": -1}}}}], "games": null}, {"id": 93341972, "state": 3, "round": 1, "fullRoundText": "Winners Round 1", "completedAt": 1756661628, "winnerId": 21119763, "slots": [{"id": "93341972-0", "entrant": {"id": 21119763, "name": "swillz", "participants": [{"id": 19426183, "gamerTag": "swillz", "prefix": null, "user": {"location": {"city": "St. John", "state": "IN", "country": "United States"}}, "player": {"id": 3607366, "gamerTag": "swillz", "prefix": null, "user": {"location": {"city": "St. John", "state": "IN", "country": "United States"}}}}]}, "standing": {"placement": 1, "stats": {"score": {"value": 3}}}}, {"id": "93341972-1", "entrant": {"id": 21121164, "name": "Crimson", "participants": [{"id": 19422115, "gamerTag": "Crimson", "prefix": null, "user": {"location": {"city": "Peoria", "state": "AZ", "country": "United States"}}, "player": {"id": 4533084, "gamerTag": "Crimson", "prefix": "", "user": {"location": {"city": "Peoria", "state": "AZ", "country": "United States"}}}}]}, "standing": {"placement": 2, "stats": {"score": {"value": 0}}}}], "games": null}, {"id": 93341988, "state": 3, "round": 1, "fullRoundText": "Winners Round 1", "completedAt": 1756661874, "winnerId": 21118964, "slots": [{"id": "93341988-0", "entrant": {"id": 21118964, "name": "Gamestradamous", "participants": [{"id": 19425551, "gamerTag": "Gamestradamous", "prefix": null, "user": {"location": {"city": "Arlington", "state": "TX", "country": "United States"}}, "player": {"id": 2701839, "gamerTag": "Gamestradamous", "prefix": null, "user": {"location": {"city": "Arlington", "state": "TX", "country": "United States"}}}}]}, "standing": {"placement": 1, "stats": {"score": {"value": null}}}}, {"id": "93341988-1", "entrant": {"id": 21122510, "name": "Baixen_IRL", "participants": [{"id": 19428576, "gamerTag": "Baixen_IRL", "prefix": "", "user": {"location": {"city": "Watkinsville", "state": "GA", "country": "United States"}}, "player": {"id": 4948676, "gamerTag": "Baixen_IRL", "prefix": "", "user": {"location": {"city": "Watkinsville", "state": "GA", "country": "United States"}}}}]}, "standing": {"placement": 2, "stats": {"score": {"value": -1}}}}], "games": null}]}}}