{"phase": {"seeds": {"pageInfo": {"totalPages": 1, "total": 20}, "nodes": [{"id": 36093660, "seedNum": 1, "entrant": {"id": 20925422, "name": "Barbashop", "participants": [{"id": 19252686, "gamerTag": "Barbashop", "prefix": "", "user": {"location": {"city": null, "state": null, "country": null}}, "player": {"id": 2537853, "gamerTag": "Barbashop", "prefix": "", "user": {"location": {"city": null, "state": null, "country": null}}}}]}}, {"id": 36093403, "seedNum": 2, "entrant": {"id": 20925245, "name": "EVC | squirtleB", "participants": [{"id": 19252551, "gamerTag": "squirtleB", "prefix": "EVC", "user": {"location": {"city": null, "state": null, "country": null}}, "player": {"id": 264290, "gamerTag": "squirtleB", "prefix": "EVC", "user": {"location": {"city": null, "state": null, "country": null}}}}]}}, {"id": 36066470, "seedNum": 8, "entrant": {"id": 20906844, "name": "Real Plant", "participants": [{"id": 19236110, "gamerTag": "Real Plant", "prefix": "", "user": {"location": {"city": null, "state": null, "country": "United States"}}, "player": {"id": 4766503, "gamerTag": "Real Plant", "prefix": "", "user": {"location": {"city": null, "state": null, "country": "United States"}}}}]}}, {"id": 36091027, "seedNum": 3, "entrant": {"id": 20923332, "name": "CV | CoolCactuS", "participants": [{"id": 19251031, "gamerTag": "CoolCactuS", "prefix": "CV", "user": {"location": {"city": null, "state": null, "country": "United States"}}, "player": {"id": 1885346, "gamerTag": "CoolCactuS", "prefix": "CV", "user": {"location": {"city": null, "state": null, "country": "United States"}}}}]}}, {"id": 36093663, "seedNum": 6, "entrant": {"id": 20925425, "name": "iNGenius", "participants": [{"id": 19252689, "gamerTag": "iNGenius", "prefix": "", "user": {"location": {"city": null, "state": null, "country": null}}, "player": {"id": 3194293, "gamerTag": "iNGenius", "prefix": "", "user": {"location": {"city": null, "state": null, "country": null}}}}]}}, {"id": 36033061, "seedNum": 12, "entrant": {"id": 20886674, "name": "Nikol", "participants": [{"id": 19218566, "gamerTag": "Nikol", "prefix": "", "user": {"location": {"city": "Stockbridge", "state": "GA", "country": "United States"}}, "player": {"id": 2152846, "gamerTag": "Nikol", "prefix": "", "user": {"location": {"city": "Stockbridge", "state": "GA", "country": "United States"}}}}]}}, {"id": 36092482, "seedNum": 7, "entrant": {"id": 20924566, "name": "Copper", "participants": [{"id": 19251987, "gamerTag": "Copper", "prefix": "", "user": {"location": {"city": "Athens", "state": "GA", "country": "United States"}}, "player": {"id": 1288306, "gamerTag": "Copper", "prefix": "417", "user": {"location": {"city": "Athens", "state": "GA", "country": "United States"}}}}]}}, {"id": 36038809, "seedNum": 11, "entrant": {"id": 20891309, "name": "promamamia", "participants": [{"id": 19222643, "gamerTag": "promamamia", "prefix": "", "user": {"location": {"city": "Alpharetta", "state": "GA", "country": "United States"}}, "player": {"id": 3548468, "gamerTag": "promamamia", "prefix": "", "user": {"location": {"city": "Alpharetta", "state": "GA", "country": "United States"}}}}]}}, {"id": 36094313, "seedNum": 4, "entrant": {"id": 20926006, "name": "VA | StreetDzine", "participants": [{"id": 19253197, "gamerTag": "StreetDzine", "prefix": "VA", "user": {"location": {"city": null, "state": null, "country": "United States"}}, "player": {"id": 989587, "gamerTag": "StreetDzine", "prefix": "VA", "user": {"location": {"city": null, "state": null, "country": "United States"}}}}]}}, {"id": 36064041, "seedNum": 5, "entrant": {"id": 20905306, "name": "Trout~", "participants": [{"id": 19234747, "gamerTag": "Trout~", "prefix": "", "user": {"location": {"city": "Lawrenceville", "state": "GA", "country": "United States"}}, "player": {"id": 905410, "gamerTag": "Primary Trout~", "prefix": "", "user": {"location": {"city": "Lawrenceville", "state": "GA", "country": "United States"}}}}]}}, {"id": 36092528, "seedNum": 9, "entrant": {"id": 20924605, "name": "417 | zors3y", "participants": [{"id": 19252014, "gamerTag": "zors3y", "prefix": "417", "user": {"location": {"city": "Eatonton", "state": "GA", "country": "United States"}}, "player": {"id": 994539, "gamerTag": "zors3y", "prefix": "417", "user": {"location": {"city": "Eatonton", "state": "GA", "country": "United States"}}}}]}}, {"id": 36092247, "seedNum": 10, "entrant": {"id": 20924371, "name": "carlop", "participants": [{"id": 19251840, "gamerTag": "carlop", "prefix": null, "user": {"location": {"city": "Johns Creek", "state": "GA", "country": "United States"}}, "player": {"id": 3431919, "gamerTag": "carlop", "prefix": null, "user": {"location": {"city": "Johns Creek", "state": "GA", "country": "United States"}}}}]}}, {"id": 36094259, "seedNum": 13, "entrant": {"id": 20925942, "name": "4o4 | Sh33rZ", "participants": [{"id": 19253141, "gamerTag": "Sh33rZ", "prefix": "4o4", "user": {"location": {"city": "alpharetta", "state": "GA", "country": "United States"}}, "player": {"id": 3640465, "gamerTag": "Sh33rZ", "prefix": "4o4", "user": {"location": {"city": "alpharetta", "state": "GA", "country": "United States"}}}}]}}, {"id": 36091120, "seedNum": 14, "entrant": {"id": 20923400, "name": "Fargus", "participants": [{"id": 19251097, "gamerTag": "Fargus", "prefix": "", "user": {"location": {"city": null, "state": "GA", "country": "United States"}}, "player": {"id": 1287164, "gamerTag": "Fargus", "prefix": "", "user": {"location": {"city": null, "state": "GA", "country": "United States"}}}}]}}, {"id": 36094288, "seedNum": 16, "entrant": {"id": 20925974, "name": "Envexity", "participants": [{"id": 19253171, "gamerTag": "Envexity", "prefix": null, "user": {"location": {"city": "", "state": "GA", "country": "United States"}}, "player": {"id": 4003882, "gamerTag": "Envexity", "prefix": null, "user": {"location": {"city": "", "state": "GA", "country": "United States"}}}}]}}, {"id": 36082434, "seedNum": 18, "entrant": {"id": 20917600, "name": "Moopisegg", "participants": [{"id": 19246015, "gamerTag": "Moopisegg", "prefix": "", "user": {"location": {"city": null, "state": null, "country": "United States"}}, "player": {"id": 4680890, "gamerTag": "Moopisegg", "prefix": "", "user": {"location": {"city": null, "state": null, "country": "United States"}}}}]}}, {"id": 36021911, "seedNum": 15, "entrant": {"id": 20878341, "name": "brave | brave", "participants": [{"id": 19211128, "gamerTag": "brave", "prefix": "brave", "user": {"location": {"city": "Lawrenceville", "state": "GA", "country": "United States"}}, "player": {"id": 1000536, "gamerTag": "brave", "prefix": "", "user": {"location": {"city": "Lawrenceville", "state": "GA", "country": "United States"}}}}]}}, {"id": 36094182, "seedNum": 17, "entrant": {"id": 20925879, "name": "D.King79", "participants": [{"id": 19253087, "gamerTag": "D.King79", "prefix": null, "user": {"location": {"city": "Mt. Olympus", "state": "GA", "country": "United States"}}, "player": {"id": 534660, "gamerTag": "D.King79", "prefix": null, "user": {"location": {"city": "Mt. Olympus", "state": "GA", "country": "United States"}}}}]}}, {"id": 36094260, "seedNum": 19, "entrant": {"id": 20925957, "name": "Hq", "participants": [{"id": 19253158, "gamerTag": "Hq", "prefix": "", "user": {"location": {"city": "Suwanee", "state": "GA", "country": "United States"}}, "player": {"id": 4680916, "gamerTag": "Hq", "prefix": "", "user": {"location": {"city": "Suwanee", "state": "GA", "country": "United States"}}}}]}}, {"id": 36091131, "seedNum": 20, "entrant": {"id": 20923408, "name": "Halbird", "participants": [{"id": 19251105, "gamerTag": "Halbird", "prefix": null, "user": {"location": {"city": "", "state": "GA", "country": "United States"}}, "player": {"id": 3204404, "gamerTag": "Halbird", "prefix": null, "user": {"location": {"city": "", "state": "GA", "country": "United States"}}}}]}}]}}}