{"phase": {"seeds": {"pageInfo": {"totalPages": 1, "total": 3}, "nodes": [{"id": 36820025, "seedNum": 1, "entrant": {"id": 21407329, "name": "Alex828", "participants": [{"id": 19676885, "gamerTag": "Alex828", "prefix": "", "user": {"location": {"city": "Valdosta", "state": "GA", "country": "United States"}}, "player": {"id": 1630146, "gamerTag": "Alex828", "prefix": "", "user": {"location": {"city": "Valdosta", "state": "GA", "country": "United States"}}}}]}}, {"id": 36522330, "seedNum": 2, "entrant": {"id": 21202109, "name": "BE/JLE | CaptainMilkMan", "participants": [{"id": 19498886, "gamerTag": "CaptainMilkMan", "prefix": "BE/JLE", "user": {"location": {"city": "Albany", "state": "GA", "country": "United States"}}, "player": {"id": 1101654, "gamerTag": "CaptainMilkMan", "prefix": "BE/JLE", "user": {"location": {"city": "Albany", "state": "GA", "country": "United States"}}}}]}}, {"id": 36850472, "seedNum": 3, "entrant": {"id": 21429071, "name": "VMS | aMSa Fan", "participants": [{"id": 19696165, "gamerTag": "aMSa Fan", "prefix": "VMS", "user": {"location": {"city": "Valdosta", "state": "GA", "country": "United States"}}, "player": {"id": 4526456, "gamerTag": "LogMan", "prefix": "VMS", "user": {"location": {"city": "Valdosta", "state": "GA", "country": "United States"}}}}]}}]}}}