{"event": {"sets": {"pageInfo": {"totalPages": 2, "total": 21}, "nodes": [{"id": 94777892, "state": 3, "round": -4, "fullRoundText": "Losers Round 1", "completedAt": 1759885946, "winnerId": 21491560, "slots": [{"id": "94777892-0", "entrant": {"id": 21491560, "name": "Envexity", "participants": [{"id": 19750080, "gamerTag": "Envexity", "prefix": null, "user": {"location": {"city": "", "state": "GA", "country": "United States"}}, "player": {"id": 4003882, "gamerTag": "Envexity", "prefix": null, "user": {"location": {"city": "", "state": "GA", "country": "United States"}}}}]}, "standing": {"placement": 1, "stats": {"score": {"value": 2}}}}, {"id": "94777892-1", "entrant": {"id": 21489639, "name": "Hq", "participants": [{"id": 19748363, "gamerTag": "Hq", "prefix": "", "user": {"location": {"city": "Suwanee", "state": "GA", "country": "United States"}}, "player": {"id": 4680916, "gamerTag": "Hq", "prefix": "", "user": {"location": {"city": "Suwanee", "state": "GA", "country": "United States"}}}}]}, "standing": {"placement": 2, "stats": {"score": {"value": 0}}}}], "games": null}, {"id": 94777894, "state": 3, "round": -4, "fullRoundText": "Losers Round 1", "completedAt": 1759885453, "winnerId": 21487598, "slots": [{"id": "94777894-0", "entrant": {"id": 21487598, "name": "Heart", "participants": [{"id": 19746512, "gamerTag": "Heart", "prefix": "", "user": {"location": {"city": "Atlanta", "state": "GA", "country": "United States"}}, "player": {"id": 4287822, "gamerTag": "Heart", "prefix": "", "user": {"location": {"city": "Atlanta", "state": "GA", "country": "United States"}}}}]}, "standing": {"placement": 1, "stats": {"score": {"value": 2}}}}, {"id": "94777894-1", "entrant": {"id": 21478102, "name": "Mighty Morfin", "participants": [{"id": 19737949, "gamerTag": "Mighty Morfin", "prefix": "", "user": {"location": {"city": "Gainesville", "state": "GA", "country": "United States"}}, "player": {"id": 1630530, "gamerTag": "Mighty Morfin", "prefix": "", "user": {"location": {"city": "Gainesville", "state": "GA", "country": "United States"}}}}]}, "standing": {"placement": 2, "stats": {"score": {"value": 0}}}}], "games": null}, {"id": 94777895, "state": 3, "round": -4, "fullRoundText": "Losers Round 1", "completedAt": 1759886349, "winnerId": 21475865, "slots": [{"id": "94777895-0", "entrant": {"id": 21475865, "name": "Billy Jones", "participants": [{"id": 19735920, "gamerTag": "Billy Jones", "prefix": "", "user": {"location": {"city": "Atlanta", "state": "GA", "country": "United States"}}, "player": {"id": 1004383, "gamerTag": "Billy Jones", "prefix": "", "user": {"location": {"city": "Atlanta", "state": "GA", "country": "United States"}}}}]}, "standing": {"placement": 1, "stats": {"score": {"value": 2}}}}, {"id": "94777895-1", "entrant": {"id": 21492642, "name": "Hashim", "participants": [{"id": 19751043, "gamerTag": "Hashim", "prefix": "", "user": null, "player": {"id": 5009569, "gamerTag": "Hashim", "prefix": "", "user": null}}]}, "standing": {"placement": 2, "stats": {"score": {"value": 0}}}}], "games": null}, {"id": 94777856, "state": 3, "round": 1, "fullRoundText": "Winners Round 1", "completedAt": 1759885397, "winnerId": 21475865, "slots": [{"id": "94777856-0", "entrant": {"id": 21475865, "name": "Billy Jones", "participants": [{"id": 19735920, "gamerTag": "Billy Jones", "prefix": "", "user": {"location": {"city": "Atlanta", "state": "GA", "country": "United States"}}, "player": {"id": 1004383, "gamerTag": "Billy Jones", "prefix": "", "user": {"location": {"city": "Atlanta", "state": "GA", "country": "United States"}}}}]}, "standing": {"placement": 1, "stats": {"score": {"value": 2}}}}, {"id": "94777856-1", "entrant": {"id": 21489639, "name": "Hq", "participants": [{"id": 19748363, "gamerTag": "Hq", "prefix": "", "user": {"location": {"city": "Suwanee", "state": "GA", "country": "United States"}}, "player": {"id": 4680916, "gamerTag": "Hq", "prefix": "", "user": {"location": {"city": "Suwanee", "state": "GA", "country": "United States"}}}}]}, "standing": {"placement": 2, "stats": {"score": {"value": 0}}}}], "games": null}, {"id": 94777860, "state": 3, "round": 1, "fullRoundText": "Winners Round 1", "completedAt": 1759884288, "winnerId": 21492098, "slots": [{"id": "94777860-0", "entrant": {"id": 21478102, "name": "Mighty Morfin", "participants": [{"id": 19737949, "gamerTag": "Mighty Morfin", "prefix": "", "user": {"location": {"city": "Gainesville", "state": "GA", "country": "United States"}}, "player": {"id": 1630530, "gamerTag": "Mighty Morfin", "prefix": "", "user": {"location": {"city": "Gainesville", "state": "GA", "country": "United States"}}}}]}, "standing": {"placement": 2, "stats": {"score": {"value": 0}}}}, {"id": "94777860-1", "entrant": {"id": 21492098, "name": "Moopisegg", "participants": [{"id": 19750595, "gamerTag": "Moopisegg", "prefix": "", "user": {"location": {"city": null, "state": null, "country": "United States"}}, "player": {"id": 4680890, "gamerTag": "Moopisegg", "prefix": "", "user": {"location": {"city": null, "state": null, "country": "United States"}}}}]}, "standing": {"placement": 1, "stats": {"score": {"value": 2}}}}], "games": null}, {"id": 94777862, "state": 3, "round": 1, "fullRoundText": "Winners Round 1", "completedAt": 1759884053, "winnerId": 21491560, "slots": [{"id": "94777862-0", "entrant": {"id": 21491560, "name": "Envexity", "participants": [{"id": 19750080, "gamerTag": "Envexity", "prefix": null, "user": {"location": {"city": "", "state": "GA", "country": "United States"}}, "player": {"id": 4003882, "gamerTag": "Envexity", "prefix": null, "user": {"location": {"city": "", "state": "GA", "country": "United States"}}}}]}, "standing": {"placement": 1, "stats": {"score": {"value": 2}}}}, {"id": "94777862-1", "entrant": {"id": 21492642, "name": "Hashim", "participants": [{"id": 19751043, "gamerTag": "Hashim", "prefix": "", "user": null, "player": {"id": 5009569, "gamerTag": "Hashim", "prefix": "", "user": null}}]}, "standing": {"placement": 2, "stats": {"score": {"value": 0}}}}], "games": null}]}}}