{"event": {"sets": {"pageInfo": {"totalPages": 5, "total": 68}, "nodes": [{"id": 93361825, "state": 3, "round": -8, "fullRoundText": "Losers Round 5", "completedAt": 1756687174, "winnerId": 21126753, "slots": [{"id": "93361825-0", "entrant": {"id": 21126753, "name": "Eternia Corp. | HBKdoza", "participants": [{"id": 19432456, "gamerTag": "HBKdoza", "prefix": "Eternia Corp.", "user": {"location": {"city": "Decatur", "state": "GA", "country": "United States"}}, "player": {"id": 3426567, "gamerTag": "HBKdoza", "prefix": "Eternia Corp.", "user": {"location": {"city": "Decatur", "state": "GA", "country": "United States"}}}}]}, "standing": {"placement": 1, "stats": {"score": {"value": 2}}}}, {"id": "93361825-1", "entrant": {"id": 21111503, "name": "HtK | toties", "participants": [{"id": 19418880, "gamerTag": "toties", "prefix": "HtK", "user": {"location": {"city": "Atlanta", "state": "GA", "country": "United States"}}, "player": {"id": 3927021, "gamerTag": "toties", "prefix": "HtK", "user": {"location": {"city": "Atlanta", "state": "GA", "country": "United States"}}}}]}, "standing": {"placement": 2, "stats": {"score": {"value": 1}}}}], "games": null}, {"id": 93361826, "state": 3, "round": -8, "fullRoundText": "Losers Round 5", "completedAt": 1756687718, "winnerId": 21125761, "slots": [{"id": "93361826-0", "entrant": {"id": 21125761, "name": "DESPERADOS | NinjaLuis", "participants": [{"id": 19431521, "gamerTag": "NinjaLuis", "prefix": "DESPERADOS", "user": {"location": {"city": "Dalton", "state": "GA", "country": "United States"}}, "player": {"id": 390270, "gamerTag": "NinjaLuis", "prefix": "DESPERADOS", "user": {"location": {"city": "Dalton", "state": "GA", "country": "United States"}}}}]}, "standing": {"placement": 1, "stats": {"score": {"value": 2}}}}, {"id": "93361826-1", "entrant": {"id": 21123301, "name": "Rated R", "participants": [{"id": 19386004, "gamerTag": "Rated R", "prefix": null, "user": {"location": {"city": null, "state": null, "country": "United States"}}, "player": {"id": 2703555, "gamerTag": "Rated R", "prefix": null, "user": {"location": {"city": null, "state": null, "country": "United States"}}}}]}, "standing": {"placement": 2, "stats": {"score": {"value": 0}}}}], "games": null}, {"id": 93361827, "state": 3, "round": -8, "fullRoundText": "Losers Round 5", "completedAt": 1756689185, "winnerId": 21126805, "slots": [{"id": "93361827-0", "entrant": {"id": 21126805, "name": "ToBeFrank | FF | SLAYlor Moon", "participants": [{"id": 19432500, "gamerTag": "SLAYlor Moon", "prefix": "ToBeFrank | FF", "user": {"location": {"city": "Atlanta", "state": "GA", "country": "United States"}}, "player": {"id": 267007, "gamerTag": "SLAYlor Moon", "prefix": "ToBeFrank | FF", "user": {"location": {"city": "Atlanta", "state": "GA", "country": "United States"}}}}]}, "standing": {"placement": 1, "stats": {"score": {"value": 2}}}}, {"id": "93361827-1", "entrant": {"id": 20738293, "name": "BOLT | Slash", "participants": [{"id": 19084598, "gamerTag": "Slash", "prefix": "BOLT", "user": {"location": {"city": "Grovetown", "state": "GA", "country": "United States"}}, "player": {"id": 4020750, "gamerTag": "Slash", "prefix": "BOLT", "user": {"location": {"city": "Grovetown", "state": "GA", "country": "United States"}}}}]}, "standing": {"placement": 2, "stats": {"score": {"value": 0}}}}], "games": null}, {"id": 93361820, "state": 3, "round": -7, "fullRoundText": "Losers Round 4", "completedAt": 1756685719, "winnerId": 21126719, "slots": [{"id": "93361820-0", "entrant": {"id": 21126719, "name": "Iso.Dgaf", "participants": [{"id": 19432428, "gamerTag": "Iso.Dgaf", "prefix": null, "user": {"location": {"city": "Acworth", "state": "GA", "country": "United States"}}, "player": {"id": 4285541, "gamerTag": "Iso.Dgaf", "prefix": null, "user": {"location": {"city": "Acworth", "state": "GA", "country": "United States"}}}}]}, "standing": {"placement": 1, "stats": {"score": {"value": 2}}}}, {"id": "93361820-1", "entrant": {"id": 20984581, "name": "4o4 | Yugo", "participants": [{"id": 19304369, "gamerTag": "Yugo", "prefix": "4o4", "user": {"location": {"city": "Sandy springs", "state": "GA", "country": "United States"}}, "player": {"id": 338020, "gamerTag": "Yugo", "prefix": "4o4", "user": {"location": {"city": "Sandy springs", "state": "GA", "country": "United States"}}}}]}, "standing": {"placement": 2, "stats": {"score": {"value": 0}}}}], "games": null}, {"id": 93361821, "state": 3, "round": -7, "fullRoundText": "Losers Round 4", "completedAt": 1756686053, "winnerId": 21111503, "slots": [{"id": "93361821-0", "entrant": {"id": 21133246, "name": "Owen Dos | BlackHeart", "participants": [{"id": 19438468, "gamerTag": "BlackHeart", "prefix": "Owen Dos", "user": {"location": {"city": "Buford", "state": "GA", "country": "United States"}}, "player": {"id": 2228433, "gamerTag": "BlackHeart", "prefix": "Owen Dos", "user": {"location": {"city": "Buford", "state": "GA", "country": "United States"}}}}]}, "standing": {"placement": 2, "stats": {"score": {"value": 0}}}}, {"id": "93361821-1", "entrant": {"id": 21111503, "name": "HtK | toties", "participants": [{"id": 19418880, "gamerTag": "toties", "prefix": "HtK", "user": {"location": {"city": "Atlanta", "state": "GA", "country": "United States"}}, "player": {"id": 3927021, "gamerTag": "toties", "prefix": "HtK", "user": {"location": {"city": "Atlanta", "state": "GA", "country": "United States"}}}}]}, "standing": {"placement": 1, "stats": {"score": {"value": 2}}}}], "games": null}, {"id": 93361822, "state": 3, "round": -7, "fullRoundText": "Losers Round 4", "completedAt": 1756687268, "winnerId": 21123301, "slots": [{"id": "93361822-0", "entrant": {"id": 21101541, "name": "N_W_Alucard", "participants": [{"id": 19409884, "gamerTag": "N_W_Alucard", "prefix": "", "user": {"location": {"city": "Jackson", "state": "MS", "country": "United States"}}, "player": {"id": 1297677, "gamerTag": "N_W_Alucard", "prefix": "", "user": {"location": {"city": "Jackson", "state": "MS", "country": "United States"}}}}]}, "standing": {"placement": 2, "stats": {"score": {"value": 1}}}}, {"id": "93361822-1", "entrant": {"id": 21123301, "name": "Rated R", "participants": [{"id": 19386004, "gamerTag": "Rated R", "prefix": null, "user": {"location": {"city": null, "state": null, "country": "United States"}}, "player": {"id": 2703555, "gamerTag": "Rated R", "prefix": null, "user": {"location": {"city": null, "state": null, "country": "United States"}}}}]}, "standing": {"placement": 1, "stats": {"score": {"value": 2}}}}], "games": null}, {"id": 93361823, "state": 3, "round": -7, "fullRoundText": "Losers Round 4", "completedAt": 1756686464, "winnerId": 20738293, "slots": [{"id": "93361823-0", "entrant": {"id": 20738293, "name": "BOLT | Slash", "participants": [{"id": 19084598, "gamerTag": "Slash", "prefix": "BOLT", "user": {"location": {"city": "Grovetown", "state": "GA", "country": "United States"}}, "player": {"id": 4020750, "gamerTag": "Slash", "prefix": "BOLT", "user": {"location": {"city": "Grovetown", "state": "GA", "country": "United States"}}}}]}, "standing": {"placement": 1, "stats": {"score": {"value": 2}}}}, {"id": "93361823-1", "entrant": {"id": 21059692, "name": "Bitazeee", "participants": [{"id": 19371927, "gamerTag": "Bitazeee", "prefix": null, "user": {"location": {"city": "Charlotte", "state": "NC", "country": "United States"}}, "player": {"id": 3817099, "gamerTag": "Bitazeee", "prefix": null, "user": {"location": {"city": "Charlotte", "state": "NC", "country": "United States"}}}}]}, "standing": {"placement": 2, "stats": {"score": {"value": 0}}}}], "games": null}, {"id": 93361698, "state": 3, "round": 3, "fullRoundText": "Winners Round 3", "completedAt": 1756684434, "winnerId": 21126753, "slots": [{"id": "93361698-0", "entrant": {"id": 21126753, "name": "Eternia Corp. | HBKdoza", "participants": [{"id": 19432456, "gamerTag": "HBKdoza", "prefix": "Eternia Corp.", "user": {"location": {"city": "Decatur", "state": "GA", "country": "United States"}}, "player": {"id": 3426567, "gamerTag": "HBKdoza", "prefix": "Eternia Corp.", "user": {"location": {"city": "Decatur", "state": "GA", "country": "United States"}}}}]}, "standing": {"placement": 1, "stats": {"score": {"value": 2}}}}, {"id": "93361698-1", "entrant": {"id": 21108900, "name": "Scottythepreparedartist", "participants": [{"id": 19416558, "gamerTag": "Scottythepreparedartist", "prefix": "", "user": {"location": {"city": "Newnan", "state": "GA", "country": "United States"}}, "player": {"id": 4757730, "gamerTag": "Thepreparedartist", "prefix": "", "user": {"location": {"city": "Newnan", "state": "GA", "country": "United States"}}}}]}, "standing": {"placement": 2, "stats": {"score": {"value": 0}}}}], "games": null}, {"id": 93361691, "state": 3, "round": 3, "fullRoundText": "Winners Round 3", "completedAt": 1756684573, "winnerId": 21133176, "slots": [{"id": "93361691-0", "entrant": {"id": 21133176, "name": "JJBREEZE", "participants": [{"id": 19438406, "gamerTag": "JJBREEZE", "prefix": "", "user": {"location": {"city": "Atlanta", "state": "GA", "country": "United States"}}, "player": {"id": 688460, "gamerTag": "JJBREEZE", "prefix": "", "user": {"location": {"city": "Atlanta", "state": "GA", "country": "United States"}}}}]}, "standing": {"placement": 1, "stats": {"score": {"value": 2}}}}, {"id": "93361691-1", "entrant": {"id": 20919744, "name": "JDG | NoBrainThinker", "participants": [{"id": 19247795, "gamerTag": "NoBrainThinker", "prefix": "JDG", "user": {"location": {"city": "Marietta", "state": "GA", "country": "United States"}}, "player": {"id": 4912998, "gamerTag": "NoBrainer", "prefix": "JDG", "user": {"location": {"city": "Marietta", "state": "GA", "country": "United States"}}}}]}, "standing": {"placement": 2, "stats": {"score": {"value": 0}}}}], "games": null}, {"id": 93361692, "state": 3, "round": 3, "fullRoundText": "Winners Round 3", "completedAt": 1756685113, "winnerId": 21125761, "slots": [{"id": "93361692-0", "entrant": {"id": 21133246, "name": "Owen Dos | BlackHeart", "participants": [{"id": 19438468, "gamerTag": "BlackHeart", "prefix": "Owen Dos", "user": {"location": {"city": "Buford", "state": "GA", "country": "United States"}}, "player": {"id": 2228433, "gamerTag": "BlackHeart", "prefix": "Owen Dos", "user": {"location": {"city": "Buford", "state": "GA", "country": "United States"}}}}]}, "standing": {"placement": 2, "stats": {"score": {"value": 1}}}}, {"id": "93361692-1", "entrant": {"id": 21125761, "name": "DESPERADOS | NinjaLuis", "participants": [{"id": 19431521, "gamerTag": "NinjaLuis", "prefix": "DESPERADOS", "user": {"location": {"city": "Dalton", "state": "GA", "country": "United States"}}, "player": {"id": 390270, "gamerTag": "NinjaLuis", "prefix": "DESPERADOS", "user": {"location": {"city": "Dalton", "state": "GA", "country": "United States"}}}}]}, "standing": {"placement": 1, "stats": {"score": {"value": 2}}}}], "games": null}, {"id": 93361693, "state": 3, "round": 3, "fullRoundText": "Winners Round 3", "completedAt": 1756684344, "winnerId": 21037322, "slots": [{"id": "93361693-0", "entrant": {"id": 21037322, "name": "BOLT | KhalRhaego", "participants": [{"id": 19351924, "gamerTag": "KhalRhaego", "prefix": "BOLT", "user": {"location": {"city": "Jonesboro", "state": "GA", "country": "United States"}}, "player": {"id": 4076327, "gamerTag": "KhalRhaego", "prefix": "BOLT", "user": {"location": {"city": "Jonesboro", "state": "GA", "country": "United States"}}}}]}, "standing": {"placement": 1, "stats": {"score": {"value": 2}}}}, {"id": "93361693-1", "entrant": {"id": 20984581, "name": "4o4 | Yugo", "participants": [{"id": 19304369, "gamerTag": "Yugo", "prefix": "4o4", "user": {"location": {"city": "Sandy springs", "state": "GA", "country": "United States"}}, "player": {"id": 338020, "gamerTag": "Yugo", "prefix": "4o4", "user": {"location": {"city": "Sandy springs", "state": "GA", "country": "United States"}}}}]}, "standing": {"placement": 2, "stats": {"score": {"value": 0}}}}], "games": null}, {"id": 93361694, "state": 3, "round": 3, "fullRoundText": "Winners Round 3", "completedAt": 1756684684, "winnerId": 21126805, "slots": [{"id": "93361694-0", "entrant": {"id": 21126719, "name": "Iso.Dgaf", "participants": [{"id": 19432428, "gamerTag": "Iso.Dgaf", "prefix": null, "user": {"location": {"city": "Acworth", "state": "GA", "country": "United States"}}, "player": {"id": 4285541, "gamerTag": "Iso.Dgaf", "prefix": null, "user": {"location": {"city": "Acworth", "state": "GA", "country": "United States"}}}}]}, "standing": {"placement": 2, "stats": {"score": {"value": 0}}}}, {"id": "93361694-1", "entrant": {"id": 21126805, "name": "ToBeFrank | FF | SLAYlor Moon", "participants": [{"id": 19432500, "gamerTag": "SLAYlor Moon", "prefix": "ToBeFrank | FF", "user": {"location": {"city": "Atlanta", "state": "GA", "country": "United States"}}, "player": {"id": 267007, "gamerTag": "SLAYlor Moon", "prefix": "ToBeFrank | FF", "user": {"location": {"city": "Atlanta", "state": "GA", "country": "United States"}}}}]}, "standing": {"placement": 1, "stats": {"score": {"value": 2}}}}], "games": null}, {"id": 93361695, "state": 3, "round": 3, "fullRoundText": "Winners Round 3", "completedAt": 1756685231, "winnerId": 21093003, "slots": [{"id": "93361695-0", "entrant": {"id": 21093003, "name": "Pokchop", "participants": [{"id": 19402205, "gamerTag": "Pokchop", "prefix": "", "user": {"location": {"city": "Atlanta", "state": "GA", "country": "United States"}}, "player": {"id": 150402, "gamerTag": "Pokchop", "prefix": "", "user": {"location": {"city": "Atlanta", "state": "GA", "country": "United States"}}}}]}, "standing": {"placement": 1, "stats": {"score": {"value": 2}}}}, {"id": "93361695-1", "entrant": {"id": 21059692, "name": "Bitazeee", "participants": [{"id": 19371927, "gamerTag": "Bitazeee", "prefix": null, "user": {"location": {"city": "Charlotte", "state": "NC", "country": "United States"}}, "player": {"id": 3817099, "gamerTag": "Bitazeee", "prefix": null, "user": {"location": {"city": "Charlotte", "state": "NC", "country": "United States"}}}}]}, "standing": {"placement": 2, "stats": {"score": {"value": 0}}}}], "games": null}, {"id": 93361696, "state": 3, "round": 3, "fullRoundText": "Winners Round 3", "completedAt": 1756684492, "winnerId": 21065689, "slots": [{"id": "93361696-0", "entrant": {"id": 21065689, "name": "ofito95", "participants": [{"id": 19377312, "gamerTag": "ofito95", "prefix": null, "user": {"location": {"city": "Atlanta", "state": "NJ", "country": "United States"}}, "player": {"id": 490676, "gamerTag": "ofito95", "prefix": null, "user": {"location": {"city": "Atlanta", "state": "NJ", "country": "United States"}}}}]}, "standing": {"placement": 1, "stats": {"score": {"value": 2}}}}, {"id": "93361696-1", "entrant": {"id": 20738293, "name": "BOLT | Slash", "participants": [{"id": 19084598, "gamerTag": "Slash", "prefix": "BOLT", "user": {"location": {"city": "Grovetown", "state": "GA", "country": "United States"}}, "player": {"id": 4020750, "gamerTag": "Slash", "prefix": "BOLT", "user": {"location": {"city": "Grovetown", "state": "GA", "country": "United States"}}}}]}, "standing": {"placement": 2, "stats": {"score": {"value": 0}}}}], "games": null}, {"id": 93361697, "state": 3, "round": 3, "fullRoundText": "Winners Round 3", "completedAt": 1756685466, "winnerId": 21133259, "slots": [{"id": "93361697-0", "entrant": {"id": 21133259, "name": "O.N.2", "participants": [{"id": 19438478, "gamerTag": "O.N.2", "prefix": "", "user": {"location": {"city": "SNELLVILLE", "state": "GA", "country": "United States"}}, "player": {"id": 1042436, "gamerTag": "O.N.2", "prefix": "", "user": {"location": {"city": "SNELLVILLE", "state": "GA", "country": "United States"}}}}]}, "standing": {"placement": 1, "stats": {"score": {"value": 2}}}}, {"id": "93361697-1", "entrant": {"id": 21084462, "name": "MKWH | Paretk", "participants": [{"id": 19394562, "gamerTag": "Paretk", "prefix": "MKWH", "user": {"location": {"city": null, "state": null, "country": "Saudi Arabia"}}, "player": {"id": 4942649, "gamerTag": "Paretk", "prefix": "MKWH", "user": {"location": {"city": null, "state": null, "country": "Saudi Arabia"}}}}]}, "standing": {"placement": 2, "stats": {"score": {"value": 0}}}}], "games": null}]}}}