{"event": {"sets": {"pageInfo": {"totalPages": 2, "total": 22}, "nodes": [{"id": 92571659, "state": 3, "round": 5, "fullRoundText": "Grand Final", "completedAt": 1754963830, "winnerId": 20943521, "slots": [{"id": "92571659-0", "entrant": {"id": 20943521, "name": "GUMP2 | Eleven", "participants": [{"id": 19268891, "gamerTag": "Eleven", "prefix": "GUMP2", "user": {"location": {"city": null, "state": null, "country": null}}, "player": {"id": 2348605, "gamerTag": "Ryu from Streets", "prefix": "GUMP2", "user": {"location": {"city": null, "state": null, "country": null}}}}]}, "standing": {"placement": 1, "stats": {"score": {"value": 3}}}}, {"id": "92571659-1", "entrant": {"id": 20942721, "name": "KUMA| | EL MACHO", "participants": [{"id": 19268183, "gamerTag": "EL MACHO", "prefix": "KUMA|", "user": {"location": {"city": null, "state": null, "country": "United States"}}, "player": {"id": 997285, "gamerTag": "Steamedklams", "prefix": "KUMA|", "user": {"location": {"city": null, "state": null, "country": "United States"}}}}]}, "standing": {"placement": 2, "stats": {"score": {"value": 2}}}}], "games": null}, {"id": 92571658, "state": 3, "round": 4, "fullRoundText": "Winners Final", "completedAt": 1754959886, "winnerId": 20943521, "slots": [{"id": "92571658-0", "entrant": {"id": 20943521, "name": "GUMP2 | Eleven", "participants": [{"id": 19268891, "gamerTag": "Eleven", "prefix": "GUMP2", "user": {"location": {"city": null, "state": null, "country": null}}, "player": {"id": 2348605, "gamerTag": "Ryu from Streets", "prefix": "GUMP2", "user": {"location": {"city": null, "state": null, "country": null}}}}]}, "standing": {"placement": 1, "stats": {"score": {"value": 3}}}}, {"id": "92571658-1", "entrant": {"id": 20939844, "name": "Nikol", "participants": [{"id": 19265602, "gamerTag": "Nikol", "prefix": "", "user": {"location": {"city": "Stockbridge", "state": "GA", "country": "United States"}}, "player": {"id": 2152846, "gamerTag": "Nikol", "prefix": "", "user": {"location": {"city": "Stockbridge", "state": "GA", "country": "United States"}}}}]}, "standing": {"placement": 2, "stats": {"score": {"value": 0}}}}], "games": null}, {"id": 92571690, "state": 3, "round": -8, "fullRoundText": "Losers Final", "completedAt": 1754962696, "winnerId": 20942721, "slots": [{"id": "92571690-0", "entrant": {"id": 20939844, "name": "Nikol", "participants": [{"id": 19265602, "gamerTag": "Nikol", "prefix": "", "user": {"location": {"city": "Stockbridge", "state": "GA", "country": "United States"}}, "player": {"id": 2152846, "gamerTag": "Nikol", "prefix": "", "user": {"location": {"city": "Stockbridge", "state": "GA", "country": "United States"}}}}]}, "standing": {"placement": 2, "stats": {"score": {"value": 0}}}}, {"id": "92571690-1", "entrant": {"id": 20942721, "name": "KUMA| | EL MACHO", "participants": [{"id": 19268183, "gamerTag": "EL MACHO", "prefix": "KUMA|", "user": {"location": {"city": null, "state": null, "country": "United States"}}, "player": {"id": 997285, "gamerTag": "Steamedklams", "prefix": "KUMA|", "user": {"location": {"city": null, "state": null, "country": "United States"}}}}]}, "standing": {"placement": 1, "stats": {"score": {"value": 3}}}}], "games": null}, {"id": 92571689, "state": 3, "round": -7, "fullRoundText": "Losers Semi-Final", "completedAt": 1754961750, "winnerId": 20942721, "slots": [{"id": "92571689-0", "entrant": {"id": 20942721, "name": "KUMA| | EL MACHO", "participants": [{"id": 19268183, "gamerTag": "EL MACHO", "prefix": "KUMA|", "user": {"location": {"city": null, "state": null, "country": "United States"}}, "player": {"id": 997285, "gamerTag": "Steamedklams", "prefix": "KUMA|", "user": {"location": {"city": null, "state": null, "country": "United States"}}}}]}, "standing": {"placement": 1, "stats": {"score": {"value": 3}}}}, {"id": "92571689-1", "entrant": {"id": 20943151, "name": "Korok", "participants": [{"id": 19268558, "gamerTag": "Korok", "prefix": null, "user": {"location": {"city": "Decatur", "state": "GA", "country": "United States"}}, "player": {"id": 2697934, "gamerTag": "Korok", "prefix": "AO5", "user": {"location": {"city": "Decatur", "state": "GA", "country": "United States"}}}}]}, "standing": {"placement": 2, "stats": {"score": {"value": 2}}}}], "games": null}, {"id": 92571656, "state": 3, "round": 3, "fullRoundText": "Winners Semi-Final", "completedAt": 1754959194, "winnerId": 20943521, "slots": [{"id": "92571656-0", "entrant": {"id": 20943521, "name": "GUMP2 | Eleven", "participants": [{"id": 19268891, "gamerTag": "Eleven", "prefix": "GUMP2", "user": {"location": {"city": null, "state": null, "country": null}}, "player": {"id": 2348605, "gamerTag": "Ryu from Streets", "prefix": "GUMP2", "user": {"location": {"city": null, "state": null, "country": null}}}}]}, "standing": {"placement": 1, "stats": {"score": {"value": 3}}}}, {"id": "92571656-1", "entrant": {"id": 20939337, "name": "Heart", "participants": [{"id": 19265108, "gamerTag": "Heart", "prefix": "", "user": {"location": {"city": "Atlanta", "state": "GA", "country": "United States"}}, "player": {"id": 4287822, "gamerTag": "Heart", "prefix": "", "user": {"location": {"city": "Atlanta", "state": "GA", "country": "United States"}}}}]}, "standing": {"placement": 2, "stats": {"score": {"value": 0}}}}], "games": null}, {"id": 92571657, "state": 3, "round": 3, "fullRoundText": "Winners Semi-Final", "completedAt": 1754959190, "winnerId": 20939844, "slots": [{"id": "92571657-0", "entrant": {"id": 20942997, "name": "AO5 | 2ndWonder", "participants": [{"id": 19268425, "gamerTag": "2ndWonder", "prefix": "AO5", "user": {"location": {"city": "Atlanta", "state": "GA", "country": "United States"}}, "player": {"id": 3255312, "gamerTag": "2ndWonder", "prefix": "AO5", "user": {"location": {"city": "Atlanta", "state": "GA", "country": "United States"}}}}]}, "standing": {"placement": 2, "stats": {"score": {"value": 2}}}}, {"id": "92571657-1", "entrant": {"id": 20939844, "name": "Nikol", "participants": [{"id": 19265602, "gamerTag": "Nikol", "prefix": "", "user": {"location": {"city": "Stockbridge", "state": "GA", "country": "United States"}}, "player": {"id": 2152846, "gamerTag": "Nikol", "prefix": "", "user": {"location": {"city": "Stockbridge", "state": "GA", "country": "United States"}}}}]}, "standing": {"placement": 1, "stats": {"score": {"value": 3}}}}], "games": null}, {"id": 92571687, "state": 3, "round": -6, "fullRoundText": "Losers Quarter-Final", "completedAt": 1754960430, "winnerId": 20942721, "slots": [{"id": "92571687-0", "entrant": {"id": 20939337, "name": "Heart", "participants": [{"id": 19265108, "gamerTag": "Heart", "prefix": "", "user": {"location": {"city": "Atlanta", "state": "GA", "country": "United States"}}, "player": {"id": 4287822, "gamerTag": "Heart", "prefix": "", "user": {"location": {"city": "Atlanta", "state": "GA", "country": "United States"}}}}]}, "standing": {"placement": 2, "stats": {"score": {"value": 1}}}}, {"id": "92571687-1", "entrant": {"id": 20942721, "name": "KUMA| | EL MACHO", "participants": [{"id": 19268183, "gamerTag": "EL MACHO", "prefix": "KUMA|", "user": {"location": {"city": null, "state": null, "country": "United States"}}, "player": {"id": 997285, "gamerTag": "Steamedklams", "prefix": "KUMA|", "user": {"location": {"city": null, "state": null, "country": "United States"}}}}]}, "standing": {"placement": 1, "stats": {"score": {"value": 3}}}}], "games": null}, {"id": 92571688, "state": 3, "round": -6, "fullRoundText": "Losers Quarter-Final", "completedAt": 1754960238, "winnerId": 20943151, "slots": [{"id": "92571688-0", "entrant": {"id": 20942997, "name": "AO5 | 2ndWonder", "participants": [{"id": 19268425, "gamerTag": "2ndWonder", "prefix": "AO5", "user": {"location": {"city": "Atlanta", "state": "GA", "country": "United States"}}, "player": {"id": 3255312, "gamerTag": "2ndWonder", "prefix": "AO5", "user": {"location": {"city": "Atlanta", "state": "GA", "country": "United States"}}}}]}, "standing": {"placement": 2, "stats": {"score": {"value": 2}}}}, {"id": "92571688-1", "entrant": {"id": 20943151, "name": "Korok", "participants": [{"id": 19268558, "gamerTag": "Korok", "prefix": null, "user": {"location": {"city": "Decatur", "state": "GA", "country": "United States"}}, "player": {"id": 2697934, "gamerTag": "Korok", "prefix": "AO5", "user": {"location": {"city": "Decatur", "state": "GA", "country": "United States"}}}}]}, "standing": {"placement": 1, "stats": {"score": {"value": 3}}}}], "games": null}, {"id": 92571685, "state": 3, "round": -5, "fullRoundText": "Losers Round 2", "completedAt": 1754959082, "winnerId": 20942721, "slots": [{"id": "92571685-0", "entrant": {"id": 20942721, "name": "KUMA| | EL MACHO", "participants": [{"id": 19268183, "gamerTag": "EL MACHO", "prefix": "KUMA|", "user": {"location": {"city": null, "state": null, "country": "United States"}}, "player": {"id": 997285, "gamerTag": "Steamedklams", "prefix": "KUMA|", "user": {"location": {"city": null, "state": null, "country": "United States"}}}}]}, "standing": {"placement": 1, "stats": {"score": {"value": 2}}}}, {"id": "92571685-1", "entrant": {"id": 20938494, "name": "GUMP2 | RoKu", "participants": [{"id": 19264322, "gamerTag": "RoKu", "prefix": "GUMP2", "user": {"location": {"city": "Peachtree Corners", "state": "GA", "country": "United States"}}, "player": {"id": 1107285, "gamerTag": "RoKu", "prefix": "TFT", "user": {"location": {"city": "Peachtree Corners", "state": "GA", "country": "United States"}}}}]}, "standing": {"placement": 2, "stats": {"score": {"value": 0}}}}], "games": null}, {"id": 92571686, "state": 3, "round": -5, "fullRoundText": "Losers Round 2", "completedAt": 1754958770, "winnerId": 20943151, "slots": [{"id": "92571686-0", "entrant": {"id": 20941972, "name": "Bleh | Paniniosas", "participants": [{"id": 19267522, "gamerTag": "Paniniosas", "prefix": "Bleh", "user": {"location": {"city": "Norcross", "state": "GA", "country": "United States"}}, "player": {"id": 2904922, "gamerTag": "ROCKY", "prefix": null, "user": {"location": {"city": "Norcross", "state": "GA", "country": "United States"}}}}]}, "standing": {"placement": 2, "stats": {"score": {"value": 0}}}}, {"id": "92571686-1", "entrant": {"id": 20943151, "name": "Korok", "participants": [{"id": 19268558, "gamerTag": "Korok", "prefix": null, "user": {"location": {"city": "Decatur", "state": "GA", "country": "United States"}}, "player": {"id": 2697934, "gamerTag": "Korok", "prefix": "AO5", "user": {"location": {"city": "Decatur", "state": "GA", "country": "United States"}}}}]}, "standing": {"placement": 1, "stats": {"score": {"value": 2}}}}], "games": null}, {"id": 92571652, "state": 3, "round": 2, "fullRoundText": "Winners Quarter-Final", "completedAt": 1754957160, "winnerId": 20943521, "slots": [{"id": "92571652-0", "entrant": {"id": 20943521, "name": "GUMP2 | Eleven", "participants": [{"id": 19268891, "gamerTag": "Eleven", "prefix": "GUMP2", "user": {"location": {"city": null, "state": null, "country": null}}, "player": {"id": 2348605, "gamerTag": "Ryu from Streets", "prefix": "GUMP2", "user": {"location": {"city": null, "state": null, "country": null}}}}]}, "standing": {"placement": 1, "stats": {"score": {"value": 2}}}}, {"id": "92571652-1", "entrant": {"id": 20943151, "name": "Korok", "participants": [{"id": 19268558, "gamerTag": "Korok", "prefix": null, "user": {"location": {"city": "Decatur", "state": "GA", "country": "United States"}}, "player": {"id": 2697934, "gamerTag": "Korok", "prefix": "AO5", "user": {"location": {"city": "Decatur", "state": "GA", "country": "United States"}}}}]}, "standing": {"placement": 2, "stats": {"score": {"value": 0}}}}], "games": null}, {"id": 92571653, "state": 3, "round": 2, "fullRoundText": "Winners Quarter-Final", "completedAt": 1754957339, "winnerId": 20939337, "slots": [{"id": "92571653-0", "entrant": {"id": 20939337, "name": "Heart", "participants": [{"id": 19265108, "gamerTag": "Heart", "prefix": "", "user": {"location": {"city": "Atlanta", "state": "GA", "country": "United States"}}, "player": {"id": 4287822, "gamerTag": "Heart", "prefix": "", "user": {"location": {"city": "Atlanta", "state": "GA", "country": "United States"}}}}]}, "standing": {"placement": 1, "stats": {"score": {"value": 2}}}}, {"id": "92571653-1", "entrant": {"id": 20941972, "name": "Bleh | Paniniosas", "participants": [{"id": 19267522, "gamerTag": "Paniniosas", "prefix": "Bleh", "user": {"location": {"city": "Norcross", "state": "GA", "country": "United States"}}, "player": {"id": 2904922, "gamerTag": "ROCKY", "prefix": null, "user": {"location": {"city": "Norcross", "state": "GA", "country": "United States"}}}}]}, "standing": {"placement": 2, "stats": {"score": {"value": 0}}}}], "games": null}, {"id": 92571654, "state": 3, "round": 2, "fullRoundText": "Winners Quarter-Final", "completedAt": 1754956713, "winnerId": 20942997, "slots": [{"id": "92571654-0", "entrant": {"id": 20940538, "name": "GG | varunk", "participants": [{"id": 19266233, "gamerTag": "varunk", "prefix": "GG", "user": {"location": {"city": "Marietta", "state": "GA", "country": "United States"}}, "player": {"id": 1653684, "gamerTag": "varunk", "prefix": "GG", "user": {"location": {"city": "Marietta", "state": "GA", "country": "United States"}}}}]}, "standing": {"placement": 2, "stats": {"score": {"value": -1}}}}, {"id": "92571654-1", "entrant": {"id": 20942997, "name": "AO5 | 2ndWonder", "participants": [{"id": 19268425, "gamerTag": "2ndWonder", "prefix": "AO5", "user": {"location": {"city": "Atlanta", "state": "GA", "country": "United States"}}, "player": {"id": 3255312, "gamerTag": "2ndWonder", "prefix": "AO5", "user": {"location": {"city": "Atlanta", "state": "GA", "country": "United States"}}}}]}, "standing": {"placement": 1, "stats": {"score": {"value": null}}}}], "games": null}, {"id": 92571655, "state": 3, "round": 2, "fullRoundText": "Winners Quarter-Final", "completedAt": 1754957314, "winnerId": 20939844, "slots": [{"id": "92571655-0", "entrant": {"id": 20942721, "name": "KUMA| | EL MACHO", "participants": [{"id": 19268183, "gamerTag": "EL MACHO", "prefix": "KUMA|", "user": {"location": {"city": null, "state": null, "country": "United States"}}, "player": {"id": 997285, "gamerTag": "Steamedklams", "prefix": "KUMA|", "user": {"location": {"city": null, "state": null, "country": "United States"}}}}]}, "standing": {"placement": 2, "stats": {"score": {"value": 0}}}}, {"id": "92571655-1", "entrant": {"id": 20939844, "name": "Nikol", "participants": [{"id": 19265602, "gamerTag": "Nikol", "prefix": "", "user": {"location": {"city": "Stockbridge", "state": "GA", "country": "United States"}}, "player": {"id": 2152846, "gamerTag": "Nikol", "prefix": "", "user": {"location": {"city": "Stockbridge", "state": "GA", "country": "United States"}}}}]}, "standing": {"placement": 1, "stats": {"score": {"value": 2}}}}], "games": null}, {"id": 92571681, "state": 3, "round": -4, "fullRoundText": "Losers Round 1", "completedAt": 1754958169, "winnerId": 20942721, "slots": [{"id": "92571681-0", "entrant": {"id": 20942721, "name": "KUMA| | EL MACHO", "participants": [{"id": 19268183, "gamerTag": "EL MACHO", "prefix": "KUMA|", "user": {"location": {"city": null, "state": null, "country": "United States"}}, "player": {"id": 997285, "gamerTag": "Steamedklams", "prefix": "KUMA|", "user": {"location": {"city": null, "state": null, "country": "United States"}}}}]}, "standing": {"placement": 1, "stats": {"score": {"value": 2}}}}, {"id": "92571681-1", "entrant": {"id": 20940157, "name": "Kori", "participants": [{"id": 19265886, "gamerTag": "Kori", "prefix": "", "user": {"location": {"city": "", "state": "GA", "country": "United States"}}, "player": {"id": 2030915, "gamerTag": "Kori", "prefix": "", "user": {"location": {"city": "", "state": "GA", "country": "United States"}}}}]}, "standing": {"placement": 2, "stats": {"score": {"value": 0}}}}], "games": null}]}}}