{"event": {"sets": {"pageInfo": {"totalPages": 4, "total": 59}, "nodes": [{"id": 92278121, "state": 3, "round": 3, "fullRoundText": "Grand Final", "completedAt": 1754280679, "winnerId": 20822631, "slots": [{"id": "92278121-0", "entrant": {"id": 20875523, "name": "TnT | Sid", "participants": [{"id": 19208548, "gamerTag": "Sid", "prefix": "TnT", "user": {"location": {"city": "Powder Springs", "state": "GA", "country": "United States"}}, "player": {"id": 1229067, "gamerTag": "Sid", "prefix": "TnT", "user": {"location": {"city": "Powder Springs", "state": "GA", "country": "United States"}}}}]}, "standing": {"placement": 2, "stats": {"score": {"value": 1}}}}, {"id": "92278121-1", "entrant": {"id": 20822631, "name": "TFT | Frank", "participants": [{"id": 19161605, "gamerTag": "Frank", "prefix": "TFT", "user": {"location": {"city": "Doraville", "state": "GA", "country": "United States"}}, "player": {"id": 1227401, "gamerTag": "Terry Labonte", "prefix": "TFT", "user": {"location": {"city": "Doraville", "state": "GA", "country": "United States"}}}}]}, "standing": {"placement": 1, "stats": {"score": {"value": 3}}}}], "games": [{"id": 31706278, "orderNum": 1, "winnerId": 20822631, "entrant1Score": 0, "entrant2Score": 0, "stage": null, "selections": [{"id": 46693031, "selectionType": "CHARACTER", "selectionValue": 1282, "entrant": {"id": 20822631}, "character": {"id": 1282, "name": "Dr. Mario"}}, {"id": 46693032, "selectionType": "CHARACTER", "selectionValue": 1326, "entrant": {"id": 20875523}, "character": {"id": 1326, "name": "Roy"}}]}, {"id": 31706279, "orderNum": 2, "winnerId": 20875523, "entrant1Score": null, "entrant2Score": 0, "stage": null, "selections": [{"id": 46693033, "selectionType": "CHARACTER", "selectionValue": 1282, "entrant": {"id": 20822631}, "character": {"id": 1282, "name": "Dr. Mario"}}, {"id": 46693034, "selectionType": "CHARACTER", "selectionValue": 1441, "entrant": {"id": 20875523}, "character": {"id": 1441, "name": "Piranha Plant"}}]}, {"id": 31706280, "orderNum": 3, "winnerId": 20822631, "entrant1Score": 0, "entrant2Score": null, "stage": null, "selections": [{"id": 46693035, "selectionType": "CHARACTER", "selectionValue": 1282, "entrant": {"id": 20822631}, "character": {"id": 1282, "name": "Dr. Mario"}}, {"id": 46693036, "selectionType": "CHARACTER", "selectionValue": 1441, "entrant": {"id": 20875523}, "character": {"id": 1441, "name": "Piranha Plant"}}]}, {"id": 31706281, "orderNum": 4, "winnerId": 20822631, "entrant1Score": 0, "entrant2Score": null, "stage": null, "selections": [{"id": 46693037, "selectionType": "CHARACTER", "selectionValue": 1282, "entrant": {"id": 20822631}, "character": {"id": 1282, "name": "Dr. Mario"}}, {"id": 46693038, "selectionType": "CHARACTER", "selectionValue": 1441, "entrant": {"id": 20875523}, "character": {"id": 1441, "name": "Piranha Plant"}}]}]}, {"id": 92278122, "state": 3, "round": 3, "fullRoundText": "Grand Final Reset", "completedAt": 1754280713, "winnerId": 20822631, "slots": [{"id": "92278122-0", "entrant": {"id": 20822631, "name": "TFT | Frank", "participants": [{"id": 19161605, "gamerTag": "Frank", "prefix": "TFT", "user": {"location": {"city": "Doraville", "state": "GA", "country": "United States"}}, "player": {"id": 1227401, "gamerTag": "Terry Labonte", "prefix": "TFT", "user": {"location": {"city": "Doraville", "state": "GA", "country": "United States"}}}}]}, "standing": {"placement": 1, "stats": {"score": {"value": 3}}}}, {"id": "92278122-1", "entrant": {"id": 20875523, "name": "TnT | Sid", "participants": [{"id": 19208548, "gamerTag": "Sid", "prefix": "TnT", "user": {"location": {"city": "Powder Springs", "state": "GA", "country": "United States"}}, "player": {"id": 1229067, "gamerTag": "Sid", "prefix": "TnT", "user": {"location": {"city": "Powder Springs", "state": "GA", "country": "United States"}}}}]}, "standing": {"placement": 2, "stats": {"score": {"value": 2}}}}], "games": [{"id": 31706291, "orderNum": 1, "winnerId": 20822631, "entrant1Score": null, "entrant2Score": 0, "stage": null, "selections": [{"id": 46693057, "selectionType": "CHARACTER", "selectionValue": 1532, "entrant": {"id": 20822631}, "character": {"id": 1532, "name": "Terry"}}, {"id": 46693058, "selectionType": "CHARACTER", "selectionValue": 1275, "entrant": {"id": 20875523}, "character": {"id": 1275, "name": "Cloud"}}]}, {"id": 31706292, "orderNum": 2, "winnerId": 20875523, "entrant1Score": 0, "entrant2Score": 0, "stage": null, "selections": [{"id": 46693059, "selectionType": "CHARACTER", "selectionValue": 1532, "entrant": {"id": 20822631}, "character": {"id": 1532, "name": "Terry"}}, {"id": 46693060, "selectionType": "CHARACTER", "selectionValue": 1275, "entrant": {"id": 20875523}, "character": {"id": 1275, "name": "Cloud"}}]}, {"id": 31706293, "orderNum": 3, "winnerId": 20822631, "entrant1Score": null, "entrant2Score": 0, "stage": null, "selections": [{"id": 46693061, "selectionType": "CHARACTER", "selectionValue": 1532, "entrant": {"id": 20822631}, "character": {"id": 1532, "name": "Terry"}}, {"id": 46693062, "selectionType": "CHARACTER", "selectionValue": 1275, "entrant": {"id": 20875523}, "character": {"id": 1275, "name": "Cloud"}}]}, {"id": 31706294, "orderNum": 4, "winnerId": 20875523, "entrant1Score": 0, "entrant2Score": null, "stage": null, "selections": [{"id": 46693063, "selectionType": "CHARACTER", "selectionValue": 1532, "entrant": {"id": 20822631}, "character": {"id": 1532, "name": "Terry"}}, {"id": 46693064, "selectionType": "CHARACTER", "selectionValue": 1275, "entrant": {"id": 20875523}, "character": {"id": 1275, "name": "Cloud"}}]}, {"id": 31706295, "orderNum": 5, "winnerId": 20822631, "entrant1Score": null, "entrant2Score": 0, "stage": null, "selections": [{"id": 46693065, "selectionType": "CHARACTER", "selectionValue": 1532, "entrant": {"id": 20822631}, "character": {"id": 1532, "name": "Terry"}}, {"id": 46693066, "selectionType": "CHARACTER", "selectionValue": 1275, "entrant": {"id": 20875523}, "character": {"id": 1275, "name": "Cloud"}}]}]}, {"id": 92278083, "state": 3, "round": 3, "fullRoundText": "Winners Semi-Final", "completedAt": 1754271769, "winnerId": 20875523, "slots": [{"id": "92278083-0", "entrant": {"id": 20874193, "name": "Mrbray30", "participants": [{"id": 19207539, "gamerTag": "Mrbray30", "prefix": "", "user": {"location": {"city": "Atlanta", "state": "GA", "country": "United States"}}, "player": {"id": 4664413, "gamerTag": "Mrbray30", "prefix": "", "user": {"location": {"city": "Atlanta", "state": "GA", "country": "United States"}}}}]}, "standing": {"placement": 2, "stats": {"score": {"value": 1}}}}, {"id": "92278083-1", "entrant": {"id": 20875523, "name": "TnT | Sid", "participants": [{"id": 19208548, "gamerTag": "Sid", "prefix": "TnT", "user": {"location": {"city": "Powder Springs", "state": "GA", "country": "United States"}}, "player": {"id": 1229067, "gamerTag": "Sid", "prefix": "TnT", "user": {"location": {"city": "Powder Springs", "state": "GA", "country": "United States"}}}}]}, "standing": {"placement": 1, "stats": {"score": {"value": 2}}}}], "games": null}, {"id": 92278149, "state": 3, "round": 3, "fullRoundText": "Winners Semi-Final", "completedAt": 1754272862, "winnerId": 20875638, "slots": [{"id": "92278149-0", "entrant": {"id": 20875642, "name": "MTM | Bob Weiner", "participants": [{"id": 19208653, "gamerTag": "Bob Weiner", "prefix": "MTM", "user": {"location": {"city": "Kennesaw", "state": "GA", "country": "United States"}}, "player": {"id": 2142601, "gamerTag": "Bob Weiner", "prefix": "MTM", "user": {"location": {"city": "Kennesaw", "state": "GA", "country": "United States"}}}}]}, "standing": {"placement": 2, "stats": {"score": {"value": 1}}}}, {"id": "92278149-1", "entrant": {"id": 20875638, "name": "RAMS | RussianJesus", "participants": [{"id": 19208650, "gamerTag": "RussianJesus", "prefix": "RAMS", "user": {"location": {"city": "Atlanta", "state": "GA", "country": "United States"}}, "player": {"id": 1140567, "gamerTag": "RussianJesus", "prefix": "RAMS", "user": {"location": {"city": "Atlanta", "state": "GA", "country": "United States"}}}}]}, "standing": {"placement": 1, "stats": {"score": {"value": 2}}}}], "games": [{"id": 31704775, "orderNum": 1, "winnerId": 20875638, "entrant1Score": 0, "entrant2Score": null, "stage": null, "selections": [{"id": 46690324, "selectionType": "CHARACTER", "selectionValue": 1328, "entrant": {"id": 20875638}, "character": {"id": 1328, "name": "Samus"}}, {"id": 46690325, "selectionType": "CHARACTER", "selectionValue": 1293, "entrant": {"id": 20875642}, "character": {"id": 1293, "name": "Jigglypuff"}}]}, {"id": 31704776, "orderNum": 2, "winnerId": 20875642, "entrant1Score": null, "entrant2Score": 0, "stage": null, "selections": [{"id": 46690326, "selectionType": "CHARACTER", "selectionValue": 1328, "entrant": {"id": 20875638}, "character": {"id": 1328, "name": "Samus"}}, {"id": 46690327, "selectionType": "CHARACTER", "selectionValue": 1293, "entrant": {"id": 20875642}, "character": {"id": 1293, "name": "Jigglypuff"}}]}, {"id": 31704777, "orderNum": 3, "winnerId": 20875638, "entrant1Score": 0, "entrant2Score": null, "stage": null, "selections": [{"id": 46690328, "selectionType": "CHARACTER", "selectionValue": 1328, "entrant": {"id": 20875638}, "character": {"id": 1328, "name": "Samus"}}, {"id": 46690329, "selectionType": "CHARACTER", "selectionValue": 1293, "entrant": {"id": 20875642}, "character": {"id": 1293, "name": "Jigglypuff"}}]}]}, {"id": 92278084, "state": 3, "round": 3, "fullRoundText": "Winners Semi-Final", "completedAt": 1754273676, "winnerId": 20874724, "slots": [{"id": "92278084-0", "entrant": {"id": 20822631, "name": "TFT | Frank", "participants": [{"id": 19161605, "gamerTag": "Frank", "prefix": "TFT", "user": {"location": {"city": "Doraville", "state": "GA", "country": "United States"}}, "player": {"id": 1227401, "gamerTag": "Terry Labonte", "prefix": "TFT", "user": {"location": {"city": "Doraville", "state": "GA", "country": "United States"}}}}]}, "standing": {"placement": 2, "stats": {"score": {"value": 1}}}}, {"id": "92278084-1", "entrant": {"id": 20874724, "name": "TnT | Damp\u00e9", "participants": [{"id": 19208058, "gamerTag": "Damp\u00e9", "prefix": "TnT", "user": {"location": {"city": "Atlanta", "state": "GA", "country": "United States"}}, "player": {"id": 1170738, "gamerTag": "Damp\u00e9", "prefix": "TnT", "user": {"location": {"city": "Atlanta", "state": "GA", "country": "United States"}}}}]}, "standing": {"placement": 1, "stats": {"score": {"value": 2}}}}], "games": null}, {"id": 92278150, "state": 3, "round": 3, "fullRoundText": "Winners Semi-Final", "completedAt": 1754271865, "winnerId": 20875607, "slots": [{"id": "92278150-0", "entrant": {"id": 20875429, "name": "TnT | Monologgue", "participants": [{"id": 19208439, "gamerTag": "Monologgue", "prefix": "TnT", "user": {"location": {"city": "Atlanta", "state": "GA", "country": "United States"}}, "player": {"id": 1135679, "gamerTag": "Monologgue", "prefix": "TnT", "user": {"location": {"city": "Atlanta", "state": "GA", "country": "United States"}}}}]}, "standing": {"placement": 2, "stats": {"score": {"value": 0}}}}, {"id": "92278150-1", "entrant": {"id": 20875607, "name": "WFF | Olive", "participants": [{"id": 19208623, "gamerTag": "Olive", "prefix": "WFF", "user": {"location": {"city": "Atlanta", "state": "GA", "country": "United States"}}, "player": {"id": 1810274, "gamerTag": "Planet Of Da", "prefix": "WeFarmFrank", "user": {"location": {"city": "Atlanta", "state": "GA", "country": "United States"}}}}]}, "standing": {"placement": 1, "stats": {"score": {"value": 2}}}}], "games": null}, {"id": 92278115, "state": 3, "round": -6, "fullRoundText": "Losers Quarter-Final", "completedAt": 1754274343, "winnerId": 20822631, "slots": [{"id": "92278115-0", "entrant": {"id": 20822631, "name": "TFT | Frank", "participants": [{"id": 19161605, "gamerTag": "Frank", "prefix": "TFT", "user": {"location": {"city": "Doraville", "state": "GA", "country": "United States"}}, "player": {"id": 1227401, "gamerTag": "Terry Labonte", "prefix": "TFT", "user": {"location": {"city": "Doraville", "state": "GA", "country": "United States"}}}}]}, "standing": {"placement": 1, "stats": {"score": {"value": 2}}}}, {"id": "92278115-1", "entrant": {"id": 20874905, "name": "TFT | Handsome Squidward", "participants": [{"id": 19208208, "gamerTag": "Handsome Squidward", "prefix": "TFT", "user": {"location": {"city": "Calhoun", "state": "GA", "country": "United States"}}, "player": {"id": 2241471, "gamerTag": "lil munch", "prefix": "TFT", "user": {"location": {"city": "Calhoun", "state": "GA", "country": "United States"}}}}]}, "standing": {"placement": 2, "stats": {"score": {"value": 0}}}}], "games": null}, {"id": 92278181, "state": 3, "round": -6, "fullRoundText": "Losers Quarter-Final", "completedAt": 1754273528, "winnerId": 20875429, "slots": [{"id": "92278181-0", "entrant": {"id": 20875429, "name": "TnT | Monologgue", "participants": [{"id": 19208439, "gamerTag": "Monologgue", "prefix": "TnT", "user": {"location": {"city": "Atlanta", "state": "GA", "country": "United States"}}, "player": {"id": 1135679, "gamerTag": "Monologgue", "prefix": "TnT", "user": {"location": {"city": "Atlanta", "state": "GA", "country": "United States"}}}}]}, "standing": {"placement": 1, "stats": {"score": {"value": 2}}}}, {"id": "92278181-1", "entrant": {"id": 20875438, "name": "Heart", "participants": [{"id": 19208446, "gamerTag": "Heart", "prefix": "", "user": {"location": {"city": "Atlanta", "state": "GA", "country": "United States"}}, "player": {"id": 4287822, "gamerTag": "Heart", "prefix": "", "user": {"location": {"city": "Atlanta", "state": "GA", "country": "United States"}}}}]}, "standing": {"placement": 2, "stats": {"score": {"value": 0}}}}], "games": null}, {"id": 92278114, "state": 3, "round": -6, "fullRoundText": "Losers Quarter-Final", "completedAt": 1754275287, "winnerId": 20874193, "slots": [{"id": "92278114-0", "entrant": {"id": 20874193, "name": "Mrbray30", "participants": [{"id": 19207539, "gamerTag": "Mrbray30", "prefix": "", "user": {"location": {"city": "Atlanta", "state": "GA", "country": "United States"}}, "player": {"id": 4664413, "gamerTag": "Mrbray30", "prefix": "", "user": {"location": {"city": "Atlanta", "state": "GA", "country": "United States"}}}}]}, "standing": {"placement": 1, "stats": {"score": {"value": 2}}}}, {"id": "92278114-1", "entrant": {"id": 20875667, "name": "RAMS | Bragmuffin", "participants": [{"id": 19208672, "gamerTag": "Bragmuffin", "prefix": "RAMS", "user": {"location": {"city": "Alpharetta", "state": "GA", "country": "United States"}}, "player": {"id": 2354073, "gamerTag": "Bragmuffin", "prefix": "RAMS", "user": {"location": {"city": "Alpharetta", "state": "GA", "country": "United States"}}}}]}, "standing": {"placement": 2, "stats": {"score": {"value": 0}}}}], "games": null}, {"id": 92278180, "state": 3, "round": -6, "fullRoundText": "Losers Quarter-Final", "completedAt": 1754274189, "winnerId": 20875642, "slots": [{"id": "92278180-0", "entrant": {"id": 20875642, "name": "MTM | Bob Weiner", "participants": [{"id": 19208653, "gamerTag": "Bob Weiner", "prefix": "MTM", "user": {"location": {"city": "Kennesaw", "state": "GA", "country": "United States"}}, "player": {"id": 2142601, "gamerTag": "Bob Weiner", "prefix": "MTM", "user": {"location": {"city": "Kennesaw", "state": "GA", "country": "United States"}}}}]}, "standing": {"placement": 1, "stats": {"score": {"value": 2}}}}, {"id": "92278180-1", "entrant": {"id": 20875621, "name": "Mickeydeez", "participants": [{"id": 19208633, "gamerTag": "Mickeydeez", "prefix": "", "user": {"location": {"city": "Atlanta", "state": "GA", "country": "United States"}}, "player": {"id": 4825580, "gamerTag": "Mickeydeez", "prefix": "", "user": {"location": {"city": "Atlanta", "state": "GA", "country": "United States"}}}}]}, "standing": {"placement": 2, "stats": {"score": {"value": 1}}}}], "games": null}, {"id": 92278178, "state": 3, "round": -5, "fullRoundText": "Losers Round 3", "completedAt": 1754272416, "winnerId": 20875621, "slots": [{"id": "92278178-0", "entrant": {"id": 20875621, "name": "Mickeydeez", "participants": [{"id": 19208633, "gamerTag": "Mickeydeez", "prefix": "", "user": {"location": {"city": "Atlanta", "state": "GA", "country": "United States"}}, "player": {"id": 4825580, "gamerTag": "Mickeydeez", "prefix": "", "user": {"location": {"city": "Atlanta", "state": "GA", "country": "United States"}}}}]}, "standing": {"placement": 1, "stats": {"score": {"value": 2}}}}, {"id": "92278178-1", "entrant": {"id": 20875665, "name": "GUMP2 | RoKu", "participants": [{"id": 19208670, "gamerTag": "RoKu", "prefix": "GUMP2", "user": {"location": {"city": "Peachtree Corners", "state": "GA", "country": "United States"}}, "player": {"id": 1107285, "gamerTag": "RoKu", "prefix": "TFT", "user": {"location": {"city": "Peachtree Corners", "state": "GA", "country": "United States"}}}}]}, "standing": {"placement": 2, "stats": {"score": {"value": 0}}}}], "games": null}, {"id": 92278112, "state": 3, "round": -5, "fullRoundText": "Losers Round 3", "completedAt": 1754274535, "winnerId": 20875667, "slots": [{"id": "92278112-0", "entrant": {"id": 20873197, "name": "Jahku$ha", "participants": [{"id": 19206676, "gamerTag": "Jahku$ha", "prefix": "", "user": {"location": {"city": "Atlanta", "state": "GA", "country": "United States"}}, "player": {"id": 4559746, "gamerTag": "Jahku$ha", "prefix": "", "user": {"location": {"city": "Atlanta", "state": "GA", "country": "United States"}}}}]}, "standing": {"placement": 2, "stats": {"score": {"value": 1}}}}, {"id": "92278112-1", "entrant": {"id": 20875667, "name": "RAMS | Bragmuffin", "participants": [{"id": 19208672, "gamerTag": "Bragmuffin", "prefix": "RAMS", "user": {"location": {"city": "Alpharetta", "state": "GA", "country": "United States"}}, "player": {"id": 2354073, "gamerTag": "Bragmuffin", "prefix": "RAMS", "user": {"location": {"city": "Alpharetta", "state": "GA", "country": "United States"}}}}]}, "standing": {"placement": 1, "stats": {"score": {"value": 2}}}}], "games": null}, {"id": 92278179, "state": 3, "round": -5, "fullRoundText": "Losers Round 3", "completedAt": 1754272703, "winnerId": 20875438, "slots": [{"id": "92278179-0", "entrant": {"id": 20849099, "name": "TFT | TFT - Guillotine", "participants": [{"id": 19185339, "gamerTag": "TFT - Guillotine", "prefix": "TFT", "user": {"location": {"city": "Atlanta", "state": "GA", "country": "United States"}}, "player": {"id": 4263821, "gamerTag": "TFT - Guillotine", "prefix": "TFT", "user": {"location": {"city": "Atlanta", "state": "GA", "country": "United States"}}}}]}, "standing": {"placement": 2, "stats": {"score": {"value": 1}}}}, {"id": "92278179-1", "entrant": {"id": 20875438, "name": "Heart", "participants": [{"id": 19208446, "gamerTag": "Heart", "prefix": "", "user": {"location": {"city": "Atlanta", "state": "GA", "country": "United States"}}, "player": {"id": 4287822, "gamerTag": "Heart", "prefix": "", "user": {"location": {"city": "Atlanta", "state": "GA", "country": "United States"}}}}]}, "standing": {"placement": 1, "stats": {"score": {"value": 2}}}}], "games": null}, {"id": 92278113, "state": 3, "round": -5, "fullRoundText": "Losers Round 3", "completedAt": 1754272357, "winnerId": 20874905, "slots": [{"id": "92278113-0", "entrant": {"id": 20874905, "name": "TFT | Handsome Squidward", "participants": [{"id": 19208208, "gamerTag": "Handsome Squidward", "prefix": "TFT", "user": {"location": {"city": "Calhoun", "state": "GA", "country": "United States"}}, "player": {"id": 2241471, "gamerTag": "lil munch", "prefix": "TFT", "user": {"location": {"city": "Calhoun", "state": "GA", "country": "United States"}}}}]}, "standing": {"placement": 1, "stats": {"score": {"value": 2}}}}, {"id": "92278113-1", "entrant": {"id": 20871402, "name": "ALLEYCAT", "participants": [{"id": 19205016, "gamerTag": "ALLEYCAT", "prefix": null, "user": {"location": {"city": "Atlanta", "state": "GA", "country": "United States"}}, "player": {"id": 1940654, "gamerTag": "ALLEYCAT", "prefix": "TFT", "user": {"location": {"city": "Atlanta", "state": "GA", "country": "United States"}}}}]}, "standing": {"placement": 2, "stats": {"score": {"value": 1}}}}], "games": null}, {"id": 92278120, "state": 3, "round": 2, "fullRoundText": "Winners Final", "completedAt": 1754277253, "winnerId": 20875523, "slots": [{"id": "92278120-0", "entrant": {"id": 20875638, "name": "RAMS | RussianJesus", "participants": [{"id": 19208650, "gamerTag": "RussianJesus", "prefix": "RAMS", "user": {"location": {"city": "Atlanta", "state": "GA", "country": "United States"}}, "player": {"id": 1140567, "gamerTag": "RussianJesus", "prefix": "RAMS", "user": {"location": {"city": "Atlanta", "state": "GA", "country": "United States"}}}}]}, "standing": {"placement": 2, "stats": {"score": {"value": 1}}}}, {"id": "92278120-1", "entrant": {"id": 20875523, "name": "TnT | Sid", "participants": [{"id": 19208548, "gamerTag": "Sid", "prefix": "TnT", "user": {"location": {"city": "Powder Springs", "state": "GA", "country": "United States"}}, "player": {"id": 1229067, "gamerTag": "Sid", "prefix": "TnT", "user": {"location": {"city": "Powder Springs", "state": "GA", "country": "United States"}}}}]}, "standing": {"placement": 1, "stats": {"score": {"value": 3}}}}], "games": null}]}}}