{"event": {"sets": {"pageInfo": {"totalPages": 6, "total": 85}, "nodes": [{"id": 92668269, "state": 3, "round": 3, "fullRoundText": "Winners Round 3", "completedAt": 1755221615, "winnerId": 20952845, "slots": [{"id": "92668269-0", "entrant": {"id": 20965429, "name": "GUMP2 | ToxiC", "participants": [{"id": 19287515, "gamerTag": "ToxiC", "prefix": "GUMP2", "user": {"location": {"city": "Marietta", "state": "GA", "country": "United States"}}, "player": {"id": 2585804, "gamerTag": "ToxiC", "prefix": "GUMP2", "user": {"location": {"city": "Marietta", "state": "GA", "country": "United States"}}}}]}, "standing": {"placement": 2, "stats": {"score": {"value": 1}}}}, {"id": "92668269-1", "entrant": {"id": 20952845, "name": "GUMP2 | $Mark$", "participants": [{"id": 19276986, "gamerTag": "$Mark$", "prefix": "GUMP2", "user": {"location": {"city": null, "state": "GA", "country": "United States"}}, "player": {"id": 1850701, "gamerTag": "$Mark$", "prefix": "GUMP2", "user": {"location": {"city": null, "state": "GA", "country": "United States"}}}}]}, "standing": {"placement": 1, "stats": {"score": {"value": 2}}}}], "games": null}, {"id": 92668383, "state": 3, "round": -6, "fullRoundText": "Losers Round 3", "completedAt": 1755223602, "winnerId": 20971632, "slots": [{"id": "92668383-0", "entrant": {"id": 20971632, "name": "MilesisBae", "participants": [{"id": 19293194, "gamerTag": "MilesisBae", "prefix": "", "user": {"location": {"city": "Richmond", "state": "VA", "country": "United States"}}, "player": {"id": 1218383, "gamerTag": "MilesisBae", "prefix": "", "user": {"location": {"city": "Richmond", "state": "VA", "country": "United States"}}}}]}, "standing": {"placement": 1, "stats": {"score": {"value": 2}}}}, {"id": "92668383-1", "entrant": {"id": 20970217, "name": "UTO | Whaley", "participants": [{"id": 19291906, "gamerTag": "Whaley", "prefix": "UTO", "user": {"location": {"city": "Stone Mountain", "state": "GA", "country": "United States"}}, "player": {"id": 2016149, "gamerTag": "Whaley", "prefix": "KSU|UTO|BLZE", "user": {"location": {"city": "Stone Mountain", "state": "GA", "country": "United States"}}}}]}, "standing": {"placement": 2, "stats": {"score": {"value": 0}}}}], "games": null}, {"id": 92668384, "state": 3, "round": -6, "fullRoundText": "Losers Round 3", "completedAt": 1755221645, "winnerId": 20951790, "slots": [{"id": "92668384-0", "entrant": {"id": 20951790, "name": "EVC | N8borsclub", "participants": [{"id": 19276081, "gamerTag": "N8borsclub", "prefix": "EVC", "user": {"location": {"city": "Smyrna", "state": "GA", "country": "United States"}}, "player": {"id": 1137803, "gamerTag": "N8borsclub", "prefix": "EVC", "user": {"location": {"city": "Smyrna", "state": "GA", "country": "United States"}}}}]}, "standing": {"placement": 1, "stats": {"score": {"value": 2}}}}, {"id": "92668384-1", "entrant": {"id": 20970877, "name": "promamamia", "participants": [{"id": 19292514, "gamerTag": "promamamia", "prefix": "", "user": {"location": {"city": "Alpharetta", "state": "GA", "country": "United States"}}, "player": {"id": 3548468, "gamerTag": "promamamia", "prefix": "", "user": {"location": {"city": "Alpharetta", "state": "GA", "country": "United States"}}}}]}, "standing": {"placement": 2, "stats": {"score": {"value": 1}}}}], "games": [{"id": 31910501, "orderNum": 1, "winnerId": 20951790, "entrant1Score": null, "entrant2Score": 0, "stage": null, "selections": [{"id": 47003249, "selectionType": "CHARACTER", "selectionValue": 1275, "entrant": {"id": 20951790}, "character": {"id": 1275, "name": "Cloud"}}, {"id": 47003250, "selectionType": "CHARACTER", "selectionValue": 1326, "entrant": {"id": 20970877}, "character": {"id": 1326, "name": "Roy"}}]}, {"id": 31910502, "orderNum": 2, "winnerId": 20970877, "entrant1Score": 0, "entrant2Score": null, "stage": null, "selections": [{"id": 47003251, "selectionType": "CHARACTER", "selectionValue": 1275, "entrant": {"id": 20951790}, "character": {"id": 1275, "name": "Cloud"}}, {"id": 47003252, "selectionType": "CHARACTER", "selectionValue": 1326, "entrant": {"id": 20970877}, "character": {"id": 1326, "name": "Roy"}}]}, {"id": 31910503, "orderNum": 3, "winnerId": 20951790, "entrant1Score": null, "entrant2Score": 0, "stage": null, "selections": [{"id": 47003253, "selectionType": "CHARACTER", "selectionValue": 1275, "entrant": {"id": 20951790}, "character": {"id": 1275, "name": "Cloud"}}, {"id": 47003254, "selectionType": "CHARACTER", "selectionValue": 1326, "entrant": {"id": 20970877}, "character": {"id": 1326, "name": "Roy"}}]}]}, {"id": 92668385, "state": 3, "round": -6, "fullRoundText": "Losers Round 3", "completedAt": 1755222892, "winnerId": 20970555, "slots": [{"id": "92668385-0", "entrant": {"id": 20970555, "name": "Barbashop", "participants": [{"id": 19292216, "gamerTag": "Barbashop", "prefix": "", "user": {"location": {"city": null, "state": null, "country": null}}, "player": {"id": 2537853, "gamerTag": "Barbashop", "prefix": "", "user": {"location": {"city": null, "state": null, "country": null}}}}]}, "standing": {"placement": 1, "stats": {"score": {"value": 2}}}}, {"id": "92668385-1", "entrant": {"id": 20970858, "name": "carlop", "participants": [{"id": 19292496, "gamerTag": "carlop", "prefix": null, "user": {"location": {"city": "Johns Creek", "state": "GA", "country": "United States"}}, "player": {"id": 3431919, "gamerTag": "carlop", "prefix": null, "user": {"location": {"city": "Johns Creek", "state": "GA", "country": "United States"}}}}]}, "standing": {"placement": 2, "stats": {"score": {"value": 0}}}}], "games": null}, {"id": 92668386, "state": 3, "round": -6, "fullRoundText": "Losers Round 3", "completedAt": 1755221896, "winnerId": 20968107, "slots": [{"id": "92668386-0", "entrant": {"id": 20970651, "name": "red dot", "participants": [{"id": 19292301, "gamerTag": "red dot", "prefix": "", "user": {"location": {"city": "Milton", "state": "GA", "country": "United States"}}, "player": {"id": 1812177, "gamerTag": "red dot", "prefix": "", "user": {"location": {"city": "Milton", "state": "GA", "country": "United States"}}}}]}, "standing": {"placement": 2, "stats": {"score": {"value": 1}}}}, {"id": "92668386-1", "entrant": {"id": 20968107, "name": "Plaid", "participants": [{"id": 19289960, "gamerTag": "Plaid", "prefix": "", "user": {"location": {"city": null, "state": null, "country": null}}, "player": {"id": 1452882, "gamerTag": "Plaid", "prefix": "", "user": {"location": {"city": null, "state": null, "country": null}}}}]}, "standing": {"placement": 1, "stats": {"score": {"value": 2}}}}], "games": null}, {"id": 92668387, "state": 3, "round": -6, "fullRoundText": "Losers Round 3", "completedAt": 1755222243, "winnerId": 20965429, "slots": [{"id": "92668387-0", "entrant": {"id": 20965429, "name": "GUMP2 | ToxiC", "participants": [{"id": 19287515, "gamerTag": "ToxiC", "prefix": "GUMP2", "user": {"location": {"city": "Marietta", "state": "GA", "country": "United States"}}, "player": {"id": 2585804, "gamerTag": "ToxiC", "prefix": "GUMP2", "user": {"location": {"city": "Marietta", "state": "GA", "country": "United States"}}}}]}, "standing": {"placement": 1, "stats": {"score": {"value": 2}}}}, {"id": "92668387-1", "entrant": {"id": 20969940, "name": "Heart", "participants": [{"id": 19291653, "gamerTag": "Heart", "prefix": "", "user": {"location": {"city": "Atlanta", "state": "GA", "country": "United States"}}, "player": {"id": 4287822, "gamerTag": "Heart", "prefix": "", "user": {"location": {"city": "Atlanta", "state": "GA", "country": "United States"}}}}]}, "standing": {"placement": 2, "stats": {"score": {"value": 0}}}}], "games": null}, {"id": 92668388, "state": 3, "round": -6, "fullRoundText": "Losers Round 3", "completedAt": 1755222353, "winnerId": 20968359, "slots": [{"id": "92668388-0", "entrant": {"id": 20970683, "name": "Nhiem", "participants": [{"id": 19292333, "gamerTag": "Nhiem", "prefix": "", "user": {"location": {"city": "Atlanta", "state": "GA", "country": "United States"}}, "player": {"id": 1429448, "gamerTag": "Nhiem", "prefix": "", "user": {"location": {"city": "Atlanta", "state": "GA", "country": "United States"}}}}]}, "standing": {"placement": 2, "stats": {"score": {"value": 0}}}}, {"id": "92668388-1", "entrant": {"id": 20968359, "name": "Rain~", "participants": [{"id": 19290206, "gamerTag": "Rain~", "prefix": null, "user": {"location": {"city": "Atlanta", "state": "GA", "country": "United States"}}, "player": {"id": 4240164, "gamerTag": "Rain~", "prefix": null, "user": {"location": {"city": "Atlanta", "state": "GA", "country": "United States"}}}}]}, "standing": {"placement": 1, "stats": {"score": {"value": 2}}}}], "games": null}, {"id": 92668389, "state": 3, "round": -6, "fullRoundText": "Losers Round 3", "completedAt": 1755222032, "winnerId": 20971592, "slots": [{"id": "92668389-0", "entrant": {"id": 20971592, "name": "GUMP2 | Spider", "participants": [{"id": 19293156, "gamerTag": "Spider", "prefix": "GUMP2", "user": {"location": {"city": "Atlanta", "state": "GA", "country": "United States"}}, "player": {"id": 691176, "gamerTag": "Spider", "prefix": "GUMP2", "user": {"location": {"city": "Atlanta", "state": "GA", "country": "United States"}}}}]}, "standing": {"placement": 1, "stats": {"score": {"value": 2}}}}, {"id": "92668389-1", "entrant": {"id": 20971168, "name": "Bagel", "participants": [{"id": 19292769, "gamerTag": "Bagel", "prefix": null, "user": {"location": {"city": "Atlanta", "state": "GA", "country": "United States"}}, "player": {"id": 1794753, "gamerTag": "Bagel", "prefix": "", "user": {"location": {"city": "Atlanta", "state": "GA", "country": "United States"}}}}]}, "standing": {"placement": 2, "stats": {"score": {"value": 0}}}}], "games": null}, {"id": 92668390, "state": 3, "round": -6, "fullRoundText": "Losers Round 3", "completedAt": 1755221925, "winnerId": 20966590, "slots": [{"id": "92668390-0", "entrant": {"id": 20966590, "name": "Tohsaka", "participants": [{"id": 19288577, "gamerTag": "Tohsaka", "prefix": null, "user": {"location": {"city": null, "state": null, "country": null}}, "player": {"id": 2933372, "gamerTag": "Tohsaka", "prefix": null, "user": {"location": {"city": null, "state": null, "country": null}}}}]}, "standing": {"placement": 1, "stats": {"score": {"value": 2}}}}, {"id": "92668390-1", "entrant": {"id": 20971774, "name": "SamRice", "participants": [{"id": 19293320, "gamerTag": "SamRice", "prefix": "", "user": {"location": {"city": "Norcross", "state": "GA", "country": "United States"}}, "player": {"id": 2387403, "gamerTag": "SamRice", "prefix": "", "user": {"location": {"city": "Norcross", "state": "GA", "country": "United States"}}}}]}, "standing": {"placement": 2, "stats": {"score": {"value": 0}}}}], "games": null}, {"id": 92668375, "state": 3, "round": -5, "fullRoundText": "Losers Round 2", "completedAt": 1755220918, "winnerId": 20970217, "slots": [{"id": "92668375-0", "entrant": {"id": 20970217, "name": "UTO | Whaley", "participants": [{"id": 19291906, "gamerTag": "Whaley", "prefix": "UTO", "user": {"location": {"city": "Stone Mountain", "state": "GA", "country": "United States"}}, "player": {"id": 2016149, "gamerTag": "Whaley", "prefix": "KSU|UTO|BLZE", "user": {"location": {"city": "Stone Mountain", "state": "GA", "country": "United States"}}}}]}, "standing": {"placement": 1, "stats": {"score": {"value": 2}}}}, {"id": "92668375-1", "entrant": {"id": 20971772, "name": "Zarek", "participants": [{"id": 19293318, "gamerTag": "Zarek", "prefix": "", "user": {"location": {"city": "Atlanta", "state": "GA", "country": "United States"}}, "player": {"id": 405682, "gamerTag": "Zarek", "prefix": "", "user": {"location": {"city": "Atlanta", "state": "GA", "country": "United States"}}}}]}, "standing": {"placement": 2, "stats": {"score": {"value": 0}}}}], "games": [{"id": 31909988, "orderNum": 1, "winnerId": 20970217, "entrant1Score": 0, "entrant2Score": 0, "stage": {"id": 378, "name": "Pok\u00e9mon Stadium 2"}, "selections": [{"id": 47002496, "selectionType": "CHARACTER", "selectionValue": 1294, "entrant": {"id": 20970217}, "character": {"id": 1294, "name": "King Dedede"}}, {"id": 47002497, "selectionType": "CHARACTER", "selectionValue": 1338, "entrant": {"id": 20971772}, "character": {"id": 1338, "name": "Yoshi"}}]}, {"id": 31909989, "orderNum": 2, "winnerId": 20970217, "entrant1Score": null, "entrant2Score": 0, "stage": {"id": 513, "name": "Hollow Bastion"}, "selections": [{"id": 47002498, "selectionType": "CHARACTER", "selectionValue": 1294, "entrant": {"id": 20970217}, "character": {"id": 1294, "name": "King Dedede"}}, {"id": 47002499, "selectionType": "CHARACTER", "selectionValue": 1338, "entrant": {"id": 20971772}, "character": {"id": 1338, "name": "Yoshi"}}]}]}, {"id": 92668376, "state": 3, "round": -5, "fullRoundText": "Losers Round 2", "completedAt": 1755220000, "winnerId": 20970877, "slots": [{"id": "92668376-0", "entrant": {"id": 20966190, "name": "Xcite!", "participants": [{"id": 19288216, "gamerTag": "Xcite!", "prefix": "", "user": {"location": {"city": "Atlanta", "state": "GA", "country": "United States"}}, "player": {"id": 4368183, "gamerTag": "Xcite!", "prefix": "", "user": {"location": {"city": "Atlanta", "state": "GA", "country": "United States"}}}}]}, "standing": {"placement": 2, "stats": {"score": {"value": 0}}}}, {"id": "92668376-1", "entrant": {"id": 20970877, "name": "promamamia", "participants": [{"id": 19292514, "gamerTag": "promamamia", "prefix": "", "user": {"location": {"city": "Alpharetta", "state": "GA", "country": "United States"}}, "player": {"id": 3548468, "gamerTag": "promamamia", "prefix": "", "user": {"location": {"city": "Alpharetta", "state": "GA", "country": "United States"}}}}]}, "standing": {"placement": 1, "stats": {"score": {"value": 2}}}}], "games": null}, {"id": 92668377, "state": 3, "round": -5, "fullRoundText": "Losers Round 2", "completedAt": 1755222276, "winnerId": 20970858, "slots": [{"id": "92668377-0", "entrant": {"id": 20970858, "name": "carlop", "participants": [{"id": 19292496, "gamerTag": "carlop", "prefix": null, "user": {"location": {"city": "Johns Creek", "state": "GA", "country": "United States"}}, "player": {"id": 3431919, "gamerTag": "carlop", "prefix": null, "user": {"location": {"city": "Johns Creek", "state": "GA", "country": "United States"}}}}]}, "standing": {"placement": 1, "stats": {"score": {"value": 2}}}}, {"id": "92668377-1", "entrant": {"id": 20970300, "name": "KSU | colorful\u029a\u025e", "participants": [{"id": 19291988, "gamerTag": "colorful\u029a\u025e", "prefix": "KSU", "user": {"location": {"city": "Kennesaw", "state": "GA", "country": "United States"}}, "player": {"id": 1783074, "gamerTag": "colorful\u029a\u025e", "prefix": "KSU | RM", "user": {"location": {"city": "Kennesaw", "state": "GA", "country": "United States"}}}}]}, "standing": {"placement": 2, "stats": {"score": {"value": 1}}}}], "games": null}, {"id": 92668378, "state": 3, "round": -5, "fullRoundText": "Losers Round 2", "completedAt": 1755221110, "winnerId": 20968107, "slots": [{"id": "92668378-0", "entrant": {"id": 20968107, "name": "Plaid", "participants": [{"id": 19289960, "gamerTag": "Plaid", "prefix": "", "user": {"location": {"city": null, "state": null, "country": null}}, "player": {"id": 1452882, "gamerTag": "Plaid", "prefix": "", "user": {"location": {"city": null, "state": null, "country": null}}}}]}, "standing": {"placement": 1, "stats": {"score": {"value": 2}}}}, {"id": "92668378-1", "entrant": {"id": 20970402, "name": "Pleeploploop", "participants": [{"id": 19292081, "gamerTag": "Pleeploploop", "prefix": "", "user": {"location": {"city": "Snellville", "state": null, "country": "United States"}}, "player": {"id": 1739676, "gamerTag": "Pleeploploop", "prefix": "", "user": {"location": {"city": "Snellville", "state": null, "country": "United States"}}}}]}, "standing": {"placement": 2, "stats": {"score": {"value": 0}}}}], "games": null}, {"id": 92668379, "state": 3, "round": -5, "fullRoundText": "Losers Round 2", "completedAt": 1755220782, "winnerId": 20969940, "slots": [{"id": "92668379-0", "entrant": {"id": 20969940, "name": "Heart", "participants": [{"id": 19291653, "gamerTag": "Heart", "prefix": "", "user": {"location": {"city": "Atlanta", "state": "GA", "country": "United States"}}, "player": {"id": 4287822, "gamerTag": "Heart", "prefix": "", "user": {"location": {"city": "Atlanta", "state": "GA", "country": "United States"}}}}]}, "standing": {"placement": 1, "stats": {"score": {"value": 2}}}}, {"id": "92668379-1", "entrant": {"id": 20971425, "name": "SaggyMilkJug", "participants": [{"id": 19293004, "gamerTag": "SaggyMilkJug", "prefix": "", "user": {"location": {"city": "Atlanta", "state": "GA", "country": "United States"}}, "player": {"id": 4651404, "gamerTag": "SaggyMilkJug", "prefix": "", "user": {"location": {"city": "Atlanta", "state": "GA", "country": "United States"}}}}]}, "standing": {"placement": 2, "stats": {"score": {"value": 0}}}}], "games": [{"id": 31909849, "orderNum": 1, "winnerId": 20969940, "entrant1Score": 0, "entrant2Score": 0, "stage": null, "selections": [{"id": 47002256, "selectionType": "CHARACTER", "selectionValue": 1317, "entrant": {"id": 20969940}, "character": {"id": 1317, "name": "Peach"}}, {"id": 47002257, "selectionType": "CHARACTER", "selectionValue": 1297, "entrant": {"id": 20971425}, "character": {"id": 1297, "name": "Little Mac"}}]}, {"id": 31909850, "orderNum": 2, "winnerId": 20969940, "entrant1Score": null, "entrant2Score": 0, "stage": null, "selections": [{"id": 47002258, "selectionType": "CHARACTER", "selectionValue": 1317, "entrant": {"id": 20969940}, "character": {"id": 1317, "name": "Peach"}}, {"id": 47002259, "selectionType": "CHARACTER", "selectionValue": 1297, "entrant": {"id": 20971425}, "character": {"id": 1297, "name": "Little Mac"}}]}]}, {"id": 92668380, "state": 3, "round": -5, "fullRoundText": "Losers Round 2", "completedAt": 1755221089, "winnerId": 20968359, "slots": [{"id": "92668380-0", "entrant": {"id": 20968359, "name": "Rain~", "participants": [{"id": 19290206, "gamerTag": "Rain~", "prefix": null, "user": {"location": {"city": "Atlanta", "state": "GA", "country": "United States"}}, "player": {"id": 4240164, "gamerTag": "Rain~", "prefix": null, "user": {"location": {"city": "Atlanta", "state": "GA", "country": "United States"}}}}]}, "standing": {"placement": 1, "stats": {"score": {"value": 2}}}}, {"id": "92668380-1", "entrant": {"id": 20969908, "name": "SIR | vivor", "participants": [{"id": 19291628, "gamerTag": "vivor", "prefix": "SIR", "user": {"location": {"city": "Atlanta", "state": "GA", "country": "United States"}}, "player": {"id": 3373990, "gamerTag": "vivor", "prefix": "SIR", "user": {"location": {"city": "Atlanta", "state": "GA", "country": "United States"}}}}]}, "standing": {"placement": 2, "stats": {"score": {"value": 0}}}}], "games": null}]}}}