{"event": {"sets": {"pageInfo": {"totalPages": 4, "total": 57}, "nodes": [{"id": 94145874, "state": 3, "round": -6, "fullRoundText": "Losers Round 4", "completedAt": 1758412515, "winnerId": 21332235, "slots": [{"id": "94145874-0", "entrant": {"id": 21318768, "name": "Hands", "participants": [{"id": 19598832, "gamerTag": "Hands", "prefix": "", "user": {"location": {"city": "Ellenwood", "state": "GA", "country": "United States"}}, "player": {"id": 625905, "gamerTag": "Hands", "prefix": "", "user": {"location": {"city": "Ellenwood", "state": "GA", "country": "United States"}}}}]}, "standing": {"placement": 2, "stats": {"score": {"value": 1}}}}, {"id": "94145874-1", "entrant": {"id": 21332235, "name": "4o4 | blitz", "participants": [{"id": 19610633, "gamerTag": "blitz", "prefix": "4o4", "user": {"location": {"city": "Lawrenceville", "state": "GA", "country": "United States"}}, "player": {"id": 2228539, "gamerTag": "blitz", "prefix": "4o4", "user": {"location": {"city": "Lawrenceville", "state": "GA", "country": "United States"}}}}]}, "standing": {"placement": 1, "stats": {"score": {"value": 2}}}}], "games": null}, {"id": 94145875, "state": 3, "round": -6, "fullRoundText": "Losers Round 4", "completedAt": 1758412508, "winnerId": 21302139, "slots": [{"id": "94145875-0", "entrant": {"id": 21302139, "name": "GCH | slaughterwall", "participants": [{"id": 19584154, "gamerTag": "slaughterwall", "prefix": "GCH", "user": {"location": {"city": "Atlanta", "state": "GA", "country": "United States"}}, "player": {"id": 1104452, "gamerTag": "slaughterwall", "prefix": "GCH", "user": {"location": {"city": "Atlanta", "state": "GA", "country": "United States"}}}}]}, "standing": {"placement": 1, "stats": {"score": {"value": 2}}}}, {"id": "94145875-1", "entrant": {"id": 21330482, "name": "ToBeFrank | FF | SLAYlor Moon", "participants": [{"id": 19609169, "gamerTag": "SLAYlor Moon", "prefix": "ToBeFrank | FF", "user": {"location": {"city": "Atlanta", "state": "GA", "country": "United States"}}, "player": {"id": 267007, "gamerTag": "SLAYlor Moon", "prefix": "ToBeFrank | FF", "user": {"location": {"city": "Atlanta", "state": "GA", "country": "United States"}}}}]}, "standing": {"placement": 2, "stats": {"score": {"value": 1}}}}], "games": null}, {"id": 94145876, "state": 3, "round": -6, "fullRoundText": "Losers Round 4", "completedAt": 1758411885, "winnerId": 21332678, "slots": [{"id": "94145876-0", "entrant": {"id": 21332678, "name": "Armanisaint", "participants": [{"id": 19610948, "gamerTag": "Armanisaint", "prefix": null, "user": {"location": {"city": "Roswell", "state": "GA", "country": "United States"}}, "player": {"id": 3943806, "gamerTag": "Armanisaint", "prefix": null, "user": {"location": {"city": "Roswell", "state": "GA", "country": "United States"}}}}]}, "standing": {"placement": 1, "stats": {"score": {"value": 2}}}}, {"id": "94145876-1", "entrant": {"id": 21297492, "name": "evosel", "participants": [{"id": 19580199, "gamerTag": "evosel", "prefix": "", "user": {"location": {"city": "Lithonia", "state": "GA", "country": "United States"}}, "player": {"id": 2926943, "gamerTag": "evosel", "prefix": "", "user": {"location": {"city": "Lithonia", "state": "GA", "country": "United States"}}}}]}, "standing": {"placement": 2, "stats": {"score": {"value": 0}}}}], "games": null}, {"id": 94145877, "state": 3, "round": -6, "fullRoundText": "Losers Round 4", "completedAt": 1758412220, "winnerId": 21332492, "slots": [{"id": "94145877-0", "entrant": {"id": 21332492, "name": "Shvmir", "participants": [{"id": 19610816, "gamerTag": "Shvmir", "prefix": null, "user": {"location": {"city": "Atlanta", "state": "GA", "country": "United States"}}, "player": {"id": 320361, "gamerTag": "Shvmir", "prefix": null, "user": {"location": {"city": "Atlanta", "state": "GA", "country": "United States"}}}}]}, "standing": {"placement": 1, "stats": {"score": {"value": 2}}}}, {"id": "94145877-1", "entrant": {"id": 21332376, "name": "HEAVENER", "participants": [{"id": 19610737, "gamerTag": "HEAVENER", "prefix": "", "user": {"location": {"city": "Marietta", "state": "GA", "country": "United States"}}, "player": {"id": 1829744, "gamerTag": "HEAVENER", "prefix": "", "user": {"location": {"city": "Marietta", "state": "GA", "country": "United States"}}}}]}, "standing": {"placement": 2, "stats": {"score": {"value": 0}}}}], "games": null}, {"id": 94145870, "state": 3, "round": -5, "fullRoundText": "Losers Round 3", "completedAt": 1758411652, "winnerId": 21332235, "slots": [{"id": "94145870-0", "entrant": {"id": 21332288, "name": "Jet Midder", "participants": [{"id": 19610676, "gamerTag": "Jet Midder", "prefix": null, "user": {"location": {"city": null, "state": null, "country": null}}, "player": {"id": 2363656, "gamerTag": "Jet Dayo", "prefix": null, "user": {"location": {"city": null, "state": null, "country": null}}}}]}, "standing": {"placement": 2, "stats": {"score": {"value": 0}}}}, {"id": "94145870-1", "entrant": {"id": 21332235, "name": "4o4 | blitz", "participants": [{"id": 19610633, "gamerTag": "blitz", "prefix": "4o4", "user": {"location": {"city": "Lawrenceville", "state": "GA", "country": "United States"}}, "player": {"id": 2228539, "gamerTag": "blitz", "prefix": "4o4", "user": {"location": {"city": "Lawrenceville", "state": "GA", "country": "United States"}}}}]}, "standing": {"placement": 1, "stats": {"score": {"value": 2}}}}], "games": null}, {"id": 94145871, "state": 3, "round": -5, "fullRoundText": "Losers Round 3", "completedAt": 1758411562, "winnerId": 21330482, "slots": [{"id": "94145871-0", "entrant": {"id": 21332732, "name": "Iso.Dgaf", "participants": [{"id": 19610990, "gamerTag": "Iso.Dgaf", "prefix": null, "user": {"location": {"city": "Acworth", "state": "GA", "country": "United States"}}, "player": {"id": 4285541, "gamerTag": "Iso.Dgaf", "prefix": null, "user": {"location": {"city": "Acworth", "state": "GA", "country": "United States"}}}}]}, "standing": {"placement": 2, "stats": {"score": {"value": 1}}}}, {"id": "94145871-1", "entrant": {"id": 21330482, "name": "ToBeFrank | FF | SLAYlor Moon", "participants": [{"id": 19609169, "gamerTag": "SLAYlor Moon", "prefix": "ToBeFrank | FF", "user": {"location": {"city": "Atlanta", "state": "GA", "country": "United States"}}, "player": {"id": 267007, "gamerTag": "SLAYlor Moon", "prefix": "ToBeFrank | FF", "user": {"location": {"city": "Atlanta", "state": "GA", "country": "United States"}}}}]}, "standing": {"placement": 1, "stats": {"score": {"value": 2}}}}], "games": null}, {"id": 94145872, "state": 3, "round": -5, "fullRoundText": "Losers Round 3", "completedAt": 1758411222, "winnerId": 21297492, "slots": [{"id": "94145872-0", "entrant": {"id": 21329165, "name": "UHH | Perculitis", "participants": [{"id": 19607777, "gamerTag": "Perculitis", "prefix": "UHH", "user": {"location": {"city": "Aiken", "state": "SC", "country": "United States"}}, "player": {"id": 2633223, "gamerTag": "Perculitis", "prefix": "UHH", "user": {"location": {"city": "Aiken", "state": "SC", "country": "United States"}}}}]}, "standing": {"placement": 2, "stats": {"score": {"value": 0}}}}, {"id": "94145872-1", "entrant": {"id": 21297492, "name": "evosel", "participants": [{"id": 19580199, "gamerTag": "evosel", "prefix": "", "user": {"location": {"city": "Lithonia", "state": "GA", "country": "United States"}}, "player": {"id": 2926943, "gamerTag": "evosel", "prefix": "", "user": {"location": {"city": "Lithonia", "state": "GA", "country": "United States"}}}}]}, "standing": {"placement": 1, "stats": {"score": {"value": 2}}}}], "games": null}, {"id": 94145873, "state": 3, "round": -5, "fullRoundText": "Losers Round 3", "completedAt": 1758411272, "winnerId": 21332376, "slots": [{"id": "94145873-0", "entrant": {"id": 21332376, "name": "HEAVENER", "participants": [{"id": 19610737, "gamerTag": "HEAVENER", "prefix": "", "user": {"location": {"city": "Marietta", "state": "GA", "country": "United States"}}, "player": {"id": 1829744, "gamerTag": "HEAVENER", "prefix": "", "user": {"location": {"city": "Marietta", "state": "GA", "country": "United States"}}}}]}, "standing": {"placement": 1, "stats": {"score": {"value": 2}}}}, {"id": "94145873-1", "entrant": {"id": 21328256, "name": "SomeLikeItRedHot", "participants": [{"id": 19606983, "gamerTag": "SomeLikeItRedHot", "prefix": "", "user": {"location": {"city": "Atlanta", "state": "GA", "country": "United States"}}, "player": {"id": 223776, "gamerTag": "REMY", "prefix": "", "user": {"location": {"city": "Atlanta", "state": "GA", "country": "United States"}}}}]}, "standing": {"placement": 2, "stats": {"score": {"value": 0}}}}], "games": null}, {"id": 94145805, "state": 3, "round": 2, "fullRoundText": "Winners Round 2", "completedAt": 1758409693, "winnerId": 21332108, "slots": [{"id": "94145805-0", "entrant": {"id": 21332108, "name": "JJBREEZE", "participants": [{"id": 19610529, "gamerTag": "JJBREEZE", "prefix": "", "user": {"location": {"city": "Atlanta", "state": "GA", "country": "United States"}}, "player": {"id": 688460, "gamerTag": "JJBREEZE", "prefix": "", "user": {"location": {"city": "Atlanta", "state": "GA", "country": "United States"}}}}]}, "standing": {"placement": 1, "stats": {"score": {"value": 2}}}}, {"id": "94145805-1", "entrant": {"id": 21328256, "name": "SomeLikeItRedHot", "participants": [{"id": 19606983, "gamerTag": "SomeLikeItRedHot", "prefix": "", "user": {"location": {"city": "Atlanta", "state": "GA", "country": "United States"}}, "player": {"id": 223776, "gamerTag": "REMY", "prefix": "", "user": {"location": {"city": "Atlanta", "state": "GA", "country": "United States"}}}}]}, "standing": {"placement": 2, "stats": {"score": {"value": 0}}}}], "games": null}, {"id": 94145806, "state": 3, "round": 2, "fullRoundText": "Winners Round 2", "completedAt": 1758409840, "winnerId": 21302139, "slots": [{"id": "94145806-0", "entrant": {"id": 21302139, "name": "GCH | slaughterwall", "participants": [{"id": 19584154, "gamerTag": "slaughterwall", "prefix": "GCH", "user": {"location": {"city": "Atlanta", "state": "GA", "country": "United States"}}, "player": {"id": 1104452, "gamerTag": "slaughterwall", "prefix": "GCH", "user": {"location": {"city": "Atlanta", "state": "GA", "country": "United States"}}}}]}, "standing": {"placement": 1, "stats": {"score": {"value": 2}}}}, {"id": "94145806-1", "entrant": {"id": 21332376, "name": "HEAVENER", "participants": [{"id": 19610737, "gamerTag": "HEAVENER", "prefix": "", "user": {"location": {"city": "Marietta", "state": "GA", "country": "United States"}}, "player": {"id": 1829744, "gamerTag": "HEAVENER", "prefix": "", "user": {"location": {"city": "Marietta", "state": "GA", "country": "United States"}}}}]}, "standing": {"placement": 2, "stats": {"score": {"value": 1}}}}], "games": null}, {"id": 94145807, "state": 3, "round": 2, "fullRoundText": "Winners Round 2", "completedAt": 1758409797, "winnerId": 21318768, "slots": [{"id": "94145807-0", "entrant": {"id": 21318768, "name": "Hands", "participants": [{"id": 19598832, "gamerTag": "Hands", "prefix": "", "user": {"location": {"city": "Ellenwood", "state": "GA", "country": "United States"}}, "player": {"id": 625905, "gamerTag": "Hands", "prefix": "", "user": {"location": {"city": "Ellenwood", "state": "GA", "country": "United States"}}}}]}, "standing": {"placement": 1, "stats": {"score": {"value": 2}}}}, {"id": "94145807-1", "entrant": {"id": 21297492, "name": "evosel", "participants": [{"id": 19580199, "gamerTag": "evosel", "prefix": "", "user": {"location": {"city": "Lithonia", "state": "GA", "country": "United States"}}, "player": {"id": 2926943, "gamerTag": "evosel", "prefix": "", "user": {"location": {"city": "Lithonia", "state": "GA", "country": "United States"}}}}]}, "standing": {"placement": 2, "stats": {"score": {"value": 0}}}}], "games": null}, {"id": 94145808, "state": 3, "round": 2, "fullRoundText": "Winners Round 2", "completedAt": 1758409722, "winnerId": 21317048, "slots": [{"id": "94145808-0", "entrant": {"id": 21317048, "name": "UHH | longlivnando", "participants": [{"id": 19597230, "gamerTag": "longlivnando", "prefix": "UHH", "user": {"location": {"city": "Warrenville", "state": "SC", "country": "United States"}}, "player": {"id": 3746165, "gamerTag": "longlivnando", "prefix": "UHH", "user": {"location": {"city": "Warrenville", "state": "SC", "country": "United States"}}}}]}, "standing": {"placement": 1, "stats": {"score": {"value": 2}}}}, {"id": "94145808-1", "entrant": {"id": 21329165, "name": "UHH | Perculitis", "participants": [{"id": 19607777, "gamerTag": "Perculitis", "prefix": "UHH", "user": {"location": {"city": "Aiken", "state": "SC", "country": "United States"}}, "player": {"id": 2633223, "gamerTag": "Perculitis", "prefix": "UHH", "user": {"location": {"city": "Aiken", "state": "SC", "country": "United States"}}}}]}, "standing": {"placement": 2, "stats": {"score": {"value": 0}}}}], "games": null}, {"id": 94145809, "state": 3, "round": 2, "fullRoundText": "Winners Round 2", "completedAt": 1758409507, "winnerId": 21296463, "slots": [{"id": "94145809-0", "entrant": {"id": 21296463, "name": "Sativicaa", "participants": [{"id": 19579220, "gamerTag": "Sativicaa", "prefix": "", "user": {"location": {"city": "Atlanta", "state": null, "country": "United States"}}, "player": {"id": 1706244, "gamerTag": "Sativicaa", "prefix": "", "user": {"location": {"city": "Atlanta", "state": null, "country": "United States"}}}}]}, "standing": {"placement": 1, "stats": {"score": {"value": 2}}}}, {"id": "94145809-1", "entrant": {"id": 21332255, "name": "Fiji | 100 Latinas", "participants": [{"id": 19610650, "gamerTag": "100 Latinas", "prefix": "Fiji", "user": {"location": {"city": "Lithonia", "state": "GA", "country": "United States"}}, "player": {"id": 1890427, "gamerTag": "100 Latinas", "prefix": "Fiji", "user": {"location": {"city": "Lithonia", "state": "GA", "country": "United States"}}}}]}, "standing": {"placement": 2, "stats": {"score": {"value": 0}}}}], "games": null}, {"id": 94145810, "state": 3, "round": 2, "fullRoundText": "Winners Round 2", "completedAt": 1758410309, "winnerId": 21332492, "slots": [{"id": "94145810-0", "entrant": {"id": 21332732, "name": "Iso.Dgaf", "participants": [{"id": 19610990, "gamerTag": "Iso.Dgaf", "prefix": null, "user": {"location": {"city": "Acworth", "state": "GA", "country": "United States"}}, "player": {"id": 4285541, "gamerTag": "Iso.Dgaf", "prefix": null, "user": {"location": {"city": "Acworth", "state": "GA", "country": "United States"}}}}]}, "standing": {"placement": 2, "stats": {"score": {"value": 1}}}}, {"id": "94145810-1", "entrant": {"id": 21332492, "name": "Shvmir", "participants": [{"id": 19610816, "gamerTag": "Shvmir", "prefix": null, "user": {"location": {"city": "Atlanta", "state": "GA", "country": "United States"}}, "player": {"id": 320361, "gamerTag": "Shvmir", "prefix": null, "user": {"location": {"city": "Atlanta", "state": "GA", "country": "United States"}}}}]}, "standing": {"placement": 1, "stats": {"score": {"value": 2}}}}], "games": null}, {"id": 94145811, "state": 3, "round": 2, "fullRoundText": "Winners Round 2", "completedAt": 1758410669, "winnerId": 21329189, "slots": [{"id": "94145811-0", "entrant": {"id": 21329189, "name": "BOLT | KhalRhaego", "participants": [{"id": 19607798, "gamerTag": "KhalRhaego", "prefix": "BOLT", "user": {"location": {"city": "Jonesboro", "state": "GA", "country": "United States"}}, "player": {"id": 4076327, "gamerTag": "KhalRhaego", "prefix": "BOLT", "user": {"location": {"city": "Jonesboro", "state": "GA", "country": "United States"}}}}]}, "standing": {"placement": 1, "stats": {"score": {"value": 2}}}}, {"id": "94145811-1", "entrant": {"id": 21332235, "name": "4o4 | blitz", "participants": [{"id": 19610633, "gamerTag": "blitz", "prefix": "4o4", "user": {"location": {"city": "Lawrenceville", "state": "GA", "country": "United States"}}, "player": {"id": 2228539, "gamerTag": "blitz", "prefix": "4o4", "user": {"location": {"city": "Lawrenceville", "state": "GA", "country": "United States"}}}}]}, "standing": {"placement": 2, "stats": {"score": {"value": 1}}}}], "games": null}]}}}