{"event": {"sets": {"pageInfo": {"totalPages": 2, "total": 22}, "nodes": [{"id": 93967158, "state": 3, "round": -4, "fullRoundText": "Losers Round 1", "completedAt": 1758071937, "winnerId": 21292324, "slots": [{"id": "93967158-0", "entrant": {"id": 21291721, "name": "Dead Generals | Nagato", "participants": [{"id": 19575061, "gamerTag": "Nagato", "prefix": "Dead Generals", "user": {"location": {"city": "Suwanee", "state": "AL", "country": "United States"}}, "player": {"id": 143468, "gamerTag": "Nagato", "prefix": "Dead Generals", "user": {"location": {"city": "Suwanee", "state": "AL", "country": "United States"}}}}]}, "standing": {"placement": 2, "stats": {"score": {"value": 2}}}}, {"id": "93967158-1", "entrant": {"id": 21292324, "name": "4o4 | chrisymandias", "participants": [{"id": 19575578, "gamerTag": "chrisymandias", "prefix": "4o4", "user": {"location": {"city": "Dacula", "state": "GA", "country": "United States"}}, "player": {"id": 258173, "gamerTag": "chrisymandias", "prefix": "4o4", "user": {"location": {"city": "Dacula", "state": "GA", "country": "United States"}}}}]}, "standing": {"placement": 1, "stats": {"score": {"value": 3}}}}], "games": null}, {"id": 93967159, "state": 3, "round": -4, "fullRoundText": "Losers Round 1", "completedAt": 1758071351, "winnerId": 21285414, "slots": [{"id": "93967159-0", "entrant": {"id": 21285414, "name": "Noodle", "participants": [{"id": 19570116, "gamerTag": "Noodle", "prefix": "", "user": {"location": {"city": "McDonough", "state": "GA", "country": "United States"}}, "player": {"id": 3029288, "gamerTag": "Noodle", "prefix": "", "user": {"location": {"city": "McDonough", "state": "GA", "country": "United States"}}}}]}, "standing": {"placement": 1, "stats": {"score": {"value": 3}}}}, {"id": "93967159-1", "entrant": {"id": 21291683, "name": "The Scary Door", "participants": [{"id": 19575027, "gamerTag": "The Scary Door", "prefix": "", "user": {"location": {"city": "Atlanta", "state": "GA", "country": "United States"}}, "player": {"id": 4944131, "gamerTag": "The Scary Door", "prefix": "", "user": {"location": {"city": "Atlanta", "state": "GA", "country": "United States"}}}}]}, "standing": {"placement": 2, "stats": {"score": {"value": 1}}}}], "games": null}, {"id": 93967160, "state": 3, "round": -4, "fullRoundText": "Losers Round 1", "completedAt": 1758072095, "winnerId": 21291636, "slots": [{"id": "93967160-0", "entrant": {"id": 21291636, "name": "4o4 | MessatsuIM", "participants": [{"id": 19574988, "gamerTag": "MessatsuIM", "prefix": "4o4", "user": {"location": {"city": "Kennesaw", "state": "GA", "country": "United States"}}, "player": {"id": 3564235, "gamerTag": "MessatsuIM", "prefix": "4o4", "user": {"location": {"city": "Kennesaw", "state": "GA", "country": "United States"}}}}]}, "standing": {"placement": 1, "stats": {"score": {"value": 3}}}}, {"id": "93967160-1", "entrant": {"id": 21291841, "name": "ToBeFrank | FF | SLAYlor Moon", "participants": [{"id": 19575176, "gamerTag": "SLAYlor Moon", "prefix": "ToBeFrank | FF", "user": {"location": {"city": "Atlanta", "state": "GA", "country": "United States"}}, "player": {"id": 267007, "gamerTag": "SLAYlor Moon", "prefix": "ToBeFrank | FF", "user": {"location": {"city": "Atlanta", "state": "GA", "country": "United States"}}}}]}, "standing": {"placement": 2, "stats": {"score": {"value": 1}}}}], "games": null}, {"id": 93967121, "state": 3, "round": 1, "fullRoundText": "Winners Round 1", "completedAt": 1758070574, "winnerId": 21291735, "slots": [{"id": "93967121-0", "entrant": {"id": 21291735, "name": "4H Tim", "participants": [{"id": 19575075, "gamerTag": "4H Tim", "prefix": "", "user": {"location": {"city": "phenix city", "state": "AL", "country": "United States"}}, "player": {"id": 61089, "gamerTag": "4H Tim", "prefix": "", "user": {"location": {"city": "phenix city", "state": "AL", "country": "United States"}}}}]}, "standing": {"placement": 1, "stats": {"score": {"value": 3}}}}, {"id": "93967121-1", "entrant": {"id": 21288116, "name": "Pazure", "participants": [{"id": 19572550, "gamerTag": "Pazure", "prefix": null, "user": {"location": {"city": null, "state": null, "country": "United States"}}, "player": {"id": 72218, "gamerTag": "Pazure", "prefix": null, "user": {"location": {"city": null, "state": null, "country": "United States"}}}}]}, "standing": {"placement": 2, "stats": {"score": {"value": 0}}}}], "games": null}, {"id": 93967123, "state": 3, "round": 1, "fullRoundText": "Winners Round 1", "completedAt": 1758068871, "winnerId": 21291999, "slots": [{"id": "93967123-0", "entrant": {"id": 21292324, "name": "4o4 | chrisymandias", "participants": [{"id": 19575578, "gamerTag": "chrisymandias", "prefix": "4o4", "user": {"location": {"city": "Dacula", "state": "GA", "country": "United States"}}, "player": {"id": 258173, "gamerTag": "chrisymandias", "prefix": "4o4", "user": {"location": {"city": "Dacula", "state": "GA", "country": "United States"}}}}]}, "standing": {"placement": 2, "stats": {"score": {"value": 2}}}}, {"id": "93967123-1", "entrant": {"id": 21291999, "name": "Enn Vee", "participants": [{"id": 19575318, "gamerTag": "Enn Vee", "prefix": "", "user": {"location": {"city": "Atlanta", "state": "GA", "country": "United States"}}, "player": {"id": 3854597, "gamerTag": "Enn Vee", "prefix": "", "user": {"location": {"city": "Atlanta", "state": "GA", "country": "United States"}}}}]}, "standing": {"placement": 1, "stats": {"score": {"value": 3}}}}], "games": null}, {"id": 93967125, "state": 3, "round": 1, "fullRoundText": "Winners Round 1", "completedAt": 1758068884, "winnerId": 21291721, "slots": [{"id": "93967125-0", "entrant": {"id": 21291721, "name": "Dead Generals | Nagato", "participants": [{"id": 19575061, "gamerTag": "Nagato", "prefix": "Dead Generals", "user": {"location": {"city": "Suwanee", "state": "AL", "country": "United States"}}, "player": {"id": 143468, "gamerTag": "Nagato", "prefix": "Dead Generals", "user": {"location": {"city": "Suwanee", "state": "AL", "country": "United States"}}}}]}, "standing": {"placement": 1, "stats": {"score": {"value": 3}}}}, {"id": "93967125-1", "entrant": {"id": 21291683, "name": "The Scary Door", "participants": [{"id": 19575027, "gamerTag": "The Scary Door", "prefix": "", "user": {"location": {"city": "Atlanta", "state": "GA", "country": "United States"}}, "player": {"id": 4944131, "gamerTag": "The Scary Door", "prefix": "", "user": {"location": {"city": "Atlanta", "state": "GA", "country": "United States"}}}}]}, "standing": {"placement": 2, "stats": {"score": {"value": 0}}}}], "games": null}, {"id": 93967127, "state": 3, "round": 1, "fullRoundText": "Winners Round 1", "completedAt": 1758068499, "winnerId": 21291644, "slots": [{"id": "93967127-0", "entrant": {"id": 21291644, "name": "4o4 | byronic zero", "participants": [{"id": 19574993, "gamerTag": "byronic zero", "prefix": "4o4", "user": {"location": {"city": "Atlanta", "state": "GA", "country": "United States"}}, "player": {"id": 3577590, "gamerTag": "byronic zero", "prefix": "4o4", "user": {"location": {"city": "Atlanta", "state": "GA", "country": "United States"}}}}]}, "standing": {"placement": 1, "stats": {"score": {"value": 3}}}}, {"id": "93967127-1", "entrant": {"id": 21291841, "name": "ToBeFrank | FF | SLAYlor Moon", "participants": [{"id": 19575176, "gamerTag": "SLAYlor Moon", "prefix": "ToBeFrank | FF", "user": {"location": {"city": "Atlanta", "state": "GA", "country": "United States"}}, "player": {"id": 267007, "gamerTag": "SLAYlor Moon", "prefix": "ToBeFrank | FF", "user": {"location": {"city": "Atlanta", "state": "GA", "country": "United States"}}}}]}, "standing": {"placement": 2, "stats": {"score": {"value": 0}}}}], "games": null}]}}}