{"phase": {"seeds": {"pageInfo": {"totalPages": 1, "total": 12}, "nodes": [{"id": 36416581, "seedNum": 11, "entrant": {"id": 21133268, "name": "Zenith", "participants": [{"id": 19438487, "gamerTag": "Zenith", "prefix": null, "user": {"location": {"city": null, "state": null, "country": null}}, "player": {"id": 4341204, "gamerTag": "Zenith", "prefix": null, "user": {"location": {"city": null, "state": null, "country": null}}}}]}}, {"id": 36399081, "seedNum": 1, "entrant": {"id": 21120098, "name": "BE/JLE | CaptainMilkMan", "participants": [{"id": 19426462, "gamerTag": "CaptainMilkMan", "prefix": "BE/JLE", "user": {"location": {"city": "Albany", "state": "GA", "country": "United States"}}, "player": {"id": 1101654, "gamerTag": "CaptainMilkMan", "prefix": "BE/JLE", "user": {"location": {"city": "Albany", "state": "GA", "country": "United States"}}}}]}}, {"id": 36413172, "seedNum": 5, "entrant": {"id": 21130559, "name": "KageGato", "participants": [{"id": 19436170, "gamerTag": "KageGato", "prefix": "", "user": {"location": {"city": "Valdosta", "state": "GA", "country": "United States"}}, "player": {"id": 1392649, "gamerTag": "KageGato", "prefix": "", "user": {"location": {"city": "Valdosta", "state": "GA", "country": "United States"}}}}]}}, {"id": 36046848, "seedNum": 6, "entrant": {"id": 20896146, "name": "EISEN", "participants": [{"id": 19226607, "gamerTag": "EISEN", "prefix": "", "user": {"location": {"city": null, "state": null, "country": "United States"}}, "player": {"id": 3483274, "gamerTag": "EISEN", "prefix": "", "user": {"location": {"city": null, "state": null, "country": "United States"}}}}]}}, {"id": 36023611, "seedNum": 3, "entrant": {"id": 20879579, "name": "FNG | S0URCEC0DE", "participants": [{"id": 19212370, "gamerTag": "S0URCEC0DE", "prefix": "FNG", "user": {"location": {"city": "Macon", "state": "GA", "country": "United States"}}, "player": {"id": 2699776, "gamerTag": "S0URCEC0DE", "prefix": "FNG", "user": {"location": {"city": "Macon", "state": "GA", "country": "United States"}}}}]}}, {"id": 36027079, "seedNum": 10, "entrant": {"id": 20882406, "name": "Joyblossom", "participants": [{"id": 19215007, "gamerTag": "Joyblossom", "prefix": null, "user": {"location": {"city": "Macon", "state": "GA", "country": "United States"}}, "player": {"id": 4675246, "gamerTag": "Joyblossom", "prefix": null, "user": {"location": {"city": "Macon", "state": "GA", "country": "United States"}}}}]}}, {"id": 36399406, "seedNum": 4, "entrant": {"id": 21120383, "name": "Chongo", "participants": [{"id": 19426711, "gamerTag": "Chongo", "prefix": null, "user": {"location": {"city": null, "state": "GA", "country": "United States"}}, "player": {"id": 4948173, "gamerTag": "Chongo", "prefix": null, "user": {"location": {"city": null, "state": "GA", "country": "United States"}}}}]}}, {"id": 36416585, "seedNum": 12, "entrant": {"id": 21133272, "name": "forvr | forevertrent", "participants": [{"id": 19438490, "gamerTag": "forevertrent", "prefix": "forvr", "user": {"location": {"city": "Macon", "state": "GA", "country": "United States"}}, "player": {"id": 4276309, "gamerTag": "forevertrent", "prefix": "forvr", "user": {"location": {"city": "Macon", "state": "GA", "country": "United States"}}}}]}}, {"id": 36048781, "seedNum": 2, "entrant": {"id": 20897730, "name": "FNG | I hate Krool", "participants": [{"id": 19228081, "gamerTag": "I hate Krool", "prefix": "FNG", "user": {"location": {"city": "Macon", "state": "GA", "country": "United States"}}, "player": {"id": 3328447, "gamerTag": "I hate Krool", "prefix": "FNG", "user": {"location": {"city": "Macon", "state": "GA", "country": "United States"}}}}]}}, {"id": 36025395, "seedNum": 7, "entrant": {"id": 20881111, "name": "MGA | BEANMAN", "participants": [{"id": 19213822, "gamerTag": "BEANMAN", "prefix": "MGA", "user": {"location": {"city": null, "state": null, "country": "United States"}}, "player": {"id": 3024601, "gamerTag": "BEANMAN", "prefix": "FNG", "user": {"location": {"city": null, "state": null, "country": "United States"}}}}]}}, {"id": 36310389, "seedNum": 8, "entrant": {"id": 21061391, "name": "Typo | Sol", "participants": [{"id": 19373570, "gamerTag": "Sol", "prefix": "Typo", "user": {"location": {"city": null, "state": null, "country": "United States"}}, "player": {"id": 4767038, "gamerTag": "Sol", "prefix": "Typo", "user": {"location": {"city": null, "state": null, "country": "United States"}}}}]}}, {"id": 36025104, "seedNum": 9, "entrant": {"id": 20880872, "name": "FNG | SHB", "participants": [{"id": 19213584, "gamerTag": "SHB", "prefix": "FNG", "user": {"location": {"city": null, "state": null, "country": "United States"}}, "player": {"id": 3194253, "gamerTag": "SHB", "prefix": "FNG", "user": {"location": {"city": null, "state": null, "country": "United States"}}}}]}}]}}}