{"phase": {"seeds": {"pageInfo": {"totalPages": 1, "total": 13}, "nodes": [{"id": 36975605, "seedNum": 2, "entrant": {"id": 21518277, "name": "Chato", "participants": [{"id": 19773674, "gamerTag": "Chato", "prefix": null, "user": {"location": {"city": null, "state": null, "country": null}}, "player": {"id": 657291, "gamerTag": "Chato", "prefix": null, "user": {"location": {"city": null, "state": null, "country": null}}}}]}}, {"id": 36986429, "seedNum": 3, "entrant": {"id": 21525751, "name": "EDLN | D3King", "participants": [{"id": 19779896, "gamerTag": "D3King", "prefix": "EDLN", "user": {"location": {"city": "Macon", "state": "GA", "country": "United States"}}, "player": {"id": 213861, "gamerTag": "D3King", "prefix": "YHWH", "user": {"location": {"city": "Macon", "state": "GA", "country": "United States"}}}}]}}, {"id": 36989155, "seedNum": 1, "entrant": {"id": 21527833, "name": "blendoben", "participants": [{"id": 19781783, "gamerTag": "blendoben", "prefix": null, "user": {"location": {"city": "Perry", "state": "GA", "country": "United States"}}, "player": {"id": 140048, "gamerTag": "blendoben", "prefix": null, "user": {"location": {"city": "Perry", "state": "GA", "country": "United States"}}}}]}}, {"id": 36948975, "seedNum": 10, "entrant": {"id": 21498178, "name": "JazzMo", "participants": [{"id": 19755884, "gamerTag": "JazzMo", "prefix": null, "user": {"location": {"city": "Macon", "state": "GA", "country": "United States"}}, "player": {"id": 2369252, "gamerTag": "JazzMo", "prefix": null, "user": {"location": {"city": "Macon", "state": "GA", "country": "United States"}}}}]}}, {"id": 36988850, "seedNum": 5, "entrant": {"id": 21527590, "name": "Astroh", "participants": [{"id": 19781527, "gamerTag": "Astroh", "prefix": null, "user": {"location": {"city": "Byron", "state": "GA", "country": "United States"}}, "player": {"id": 1329801, "gamerTag": "Astroh", "prefix": null, "user": {"location": {"city": "Byron", "state": "GA", "country": "United States"}}}}]}}, {"id": 36928529, "seedNum": 13, "entrant": {"id": 21483142, "name": "MrMixtape", "participants": [{"id": 19742553, "gamerTag": "MrMixtape", "prefix": null, "user": {"location": {"city": null, "state": null, "country": null}}, "player": {"id": 3930310, "gamerTag": "MrMixtape", "prefix": null, "user": {"location": {"city": null, "state": null, "country": null}}}}]}}, {"id": 36964870, "seedNum": 6, "entrant": {"id": 21510860, "name": "BlazingFox", "participants": [{"id": 19767193, "gamerTag": "BlazingFox", "prefix": "", "user": {"location": {"city": "Byron", "state": null, "country": "United States"}}, "player": {"id": 592139, "gamerTag": "BlazingFox", "prefix": "", "user": {"location": {"city": "Byron", "state": null, "country": "United States"}}}}]}}, {"id": 36969250, "seedNum": 11, "entrant": {"id": 21513586, "name": "Evernight", "participants": [{"id": 19769514, "gamerTag": "Evernight", "prefix": null, "user": {"location": {"city": "Macon", "state": "GA", "country": "United States"}}, "player": {"id": 548064, "gamerTag": "Evernight", "prefix": null, "user": {"location": {"city": "Macon", "state": "GA", "country": "United States"}}}}]}}, {"id": 36969739, "seedNum": 4, "entrant": {"id": 21513914, "name": "AfterKast", "participants": [{"id": 19769818, "gamerTag": "AfterKast", "prefix": null, "user": {"location": {"city": "Macon", "state": "GA", "country": "United States"}}, "player": {"id": 3467624, "gamerTag": "AfterKast", "prefix": null, "user": {"location": {"city": "Macon", "state": "GA", "country": "United States"}}}}]}}, {"id": 36959869, "seedNum": 7, "entrant": {"id": 21506861, "name": "BOLT | KhalRhaego", "participants": [{"id": 19763543, "gamerTag": "KhalRhaego", "prefix": "BOLT", "user": {"location": {"city": "Jonesboro", "state": "GA", "country": "United States"}}, "player": {"id": 4076327, "gamerTag": "KhalRhaego", "prefix": "BOLT", "user": {"location": {"city": "Jonesboro", "state": "GA", "country": "United States"}}}}]}}, {"id": 36989276, "seedNum": 8, "entrant": {"id": 21527952, "name": "pveezy", "participants": [{"id": 19781878, "gamerTag": "pveezy", "prefix": null, "user": {"location": {"city": "Perry", "state": "GA", "country": "United States"}}, "player": {"id": 5014873, "gamerTag": "pveezy", "prefix": null, "user": {"location": {"city": "Perry", "state": "GA", "country": "United States"}}}}]}}, {"id": 36020698, "seedNum": 9, "entrant": {"id": 20877640, "name": "Demon of the Mist", "participants": [{"id": 19210495, "gamerTag": "Demon of the Mist", "prefix": "", "user": {"location": {"city": "Moultrie", "state": "GA", "country": "United States"}}, "player": {"id": 253938, "gamerTag": "Demon of the Mist", "prefix": "", "user": {"location": {"city": "Moultrie", "state": "GA", "country": "United States"}}}}]}}, {"id": 36646897, "seedNum": 12, "entrant": {"id": 21289060, "name": "SE UNI | Shuri", "participants": [{"id": 19573113, "gamerTag": "Shuri", "prefix": "SE UNI", "user": {"location": {"city": "Bonaire", "state": "GA", "country": "United States"}}, "player": {"id": 183894, "gamerTag": "Shuri", "prefix": "SE UNI", "user": {"location": {"city": "Bonaire", "state": "GA", "country": "United States"}}}}]}}]}}}