{"event": {"sets": {"pageInfo": {"totalPages": 2, "total": 22}, "nodes": [{"id": 92174716, "state": 3, "round": 5, "fullRoundText": "Grand Final", "completedAt": 1754107749, "winnerId": 20855912, "slots": [{"id": "92174716-0", "entrant": {"id": 20855912, "name": "vivesthesia", "participants": [{"id": 19191474, "gamerTag": "vivesthesia", "prefix": null, "user": {"location": {"city": "Atlanta", "state": "GA", "country": "United States"}}, "player": {"id": 4395171, "gamerTag": "vivesthesia", "prefix": null, "user": {"location": {"city": "Atlanta", "state": "GA", "country": "United States"}}}}]}, "standing": {"placement": 1, "stats": {"score": {"value": 3}}}}, {"id": "92174716-1", "entrant": {"id": 20861687, "name": "natebug01", "participants": [{"id": 19196768, "gamerTag": "natebug01", "prefix": null, "user": {"location": {"city": "atl", "state": "GA", "country": "United States"}}, "player": {"id": 69973, "gamerTag": "natebug01", "prefix": null, "user": {"location": {"city": "atl", "state": "GA", "country": "United States"}}}}]}, "standing": {"placement": 2, "stats": {"score": {"value": 2}}}}], "games": null}, {"id": 92174715, "state": 3, "round": 4, "fullRoundText": "Winners Final", "completedAt": 1754105424, "winnerId": 20855912, "slots": [{"id": "92174715-0", "entrant": {"id": 20855966, "name": "audrey", "participants": [{"id": 19191524, "gamerTag": "audrey", "prefix": null, "user": {"location": {"city": "Dunwoody", "state": "GA", "country": "United States"}}, "player": {"id": 1335864, "gamerTag": "audrey", "prefix": null, "user": {"location": {"city": "Dunwoody", "state": "GA", "country": "United States"}}}}]}, "standing": {"placement": 2, "stats": {"score": {"value": 1}}}}, {"id": "92174715-1", "entrant": {"id": 20855912, "name": "vivesthesia", "participants": [{"id": 19191474, "gamerTag": "vivesthesia", "prefix": null, "user": {"location": {"city": "Atlanta", "state": "GA", "country": "United States"}}, "player": {"id": 4395171, "gamerTag": "vivesthesia", "prefix": null, "user": {"location": {"city": "Atlanta", "state": "GA", "country": "United States"}}}}]}, "standing": {"placement": 1, "stats": {"score": {"value": 3}}}}], "games": null}, {"id": 92174747, "state": 3, "round": -8, "fullRoundText": "Losers Final", "completedAt": 1754106565, "winnerId": 20861687, "slots": [{"id": "92174747-0", "entrant": {"id": 20855966, "name": "audrey", "participants": [{"id": 19191524, "gamerTag": "audrey", "prefix": null, "user": {"location": {"city": "Dunwoody", "state": "GA", "country": "United States"}}, "player": {"id": 1335864, "gamerTag": "audrey", "prefix": null, "user": {"location": {"city": "Dunwoody", "state": "GA", "country": "United States"}}}}]}, "standing": {"placement": 2, "stats": {"score": {"value": 2}}}}, {"id": "92174747-1", "entrant": {"id": 20861687, "name": "natebug01", "participants": [{"id": 19196768, "gamerTag": "natebug01", "prefix": null, "user": {"location": {"city": "atl", "state": "GA", "country": "United States"}}, "player": {"id": 69973, "gamerTag": "natebug01", "prefix": null, "user": {"location": {"city": "atl", "state": "GA", "country": "United States"}}}}]}, "standing": {"placement": 1, "stats": {"score": {"value": 3}}}}], "games": null}, {"id": 92174746, "state": 3, "round": -7, "fullRoundText": "Losers Semi-Final", "completedAt": 1754105088, "winnerId": 20861687, "slots": [{"id": "92174746-0", "entrant": {"id": 20862014, "name": "skyguy | jetBBL", "participants": [{"id": 19196572, "gamerTag": "jetBBL", "prefix": "skyguy", "user": {"location": {"city": "Warner Robins", "state": "GA", "country": "United States"}}, "player": {"id": 679572, "gamerTag": "jetBBL", "prefix": "skyguy", "user": {"location": {"city": "Warner Robins", "state": "GA", "country": "United States"}}}}]}, "standing": {"placement": 2, "stats": {"score": {"value": 1}}}}, {"id": "92174746-1", "entrant": {"id": 20861687, "name": "natebug01", "participants": [{"id": 19196768, "gamerTag": "natebug01", "prefix": null, "user": {"location": {"city": "atl", "state": "GA", "country": "United States"}}, "player": {"id": 69973, "gamerTag": "natebug01", "prefix": null, "user": {"location": {"city": "atl", "state": "GA", "country": "United States"}}}}]}, "standing": {"placement": 1, "stats": {"score": {"value": 3}}}}], "games": null}, {"id": 92174713, "state": 3, "round": 3, "fullRoundText": "Winners Semi-Final", "completedAt": 1754102094, "winnerId": 20855966, "slots": [{"id": "92174713-0", "entrant": {"id": 20855966, "name": "audrey", "participants": [{"id": 19191524, "gamerTag": "audrey", "prefix": null, "user": {"location": {"city": "Dunwoody", "state": "GA", "country": "United States"}}, "player": {"id": 1335864, "gamerTag": "audrey", "prefix": null, "user": {"location": {"city": "Dunwoody", "state": "GA", "country": "United States"}}}}]}, "standing": {"placement": 1, "stats": {"score": {"value": 3}}}}, {"id": "92174713-1", "entrant": {"id": 20862014, "name": "skyguy | jetBBL", "participants": [{"id": 19196572, "gamerTag": "jetBBL", "prefix": "skyguy", "user": {"location": {"city": "Warner Robins", "state": "GA", "country": "United States"}}, "player": {"id": 679572, "gamerTag": "jetBBL", "prefix": "skyguy", "user": {"location": {"city": "Warner Robins", "state": "GA", "country": "United States"}}}}]}, "standing": {"placement": 2, "stats": {"score": {"value": 0}}}}], "games": null}, {"id": 92174714, "state": 3, "round": 3, "fullRoundText": "Winners Semi-Final", "completedAt": 1754102881, "winnerId": 20855912, "slots": [{"id": "92174714-0", "entrant": {"id": 20855912, "name": "vivesthesia", "participants": [{"id": 19191474, "gamerTag": "vivesthesia", "prefix": null, "user": {"location": {"city": "Atlanta", "state": "GA", "country": "United States"}}, "player": {"id": 4395171, "gamerTag": "vivesthesia", "prefix": null, "user": {"location": {"city": "Atlanta", "state": "GA", "country": "United States"}}}}]}, "standing": {"placement": 1, "stats": {"score": {"value": 3}}}}, {"id": "92174714-1", "entrant": {"id": 20861687, "name": "natebug01", "participants": [{"id": 19196768, "gamerTag": "natebug01", "prefix": null, "user": {"location": {"city": "atl", "state": "GA", "country": "United States"}}, "player": {"id": 69973, "gamerTag": "natebug01", "prefix": null, "user": {"location": {"city": "atl", "state": "GA", "country": "United States"}}}}]}, "standing": {"placement": 2, "stats": {"score": {"value": 1}}}}], "games": null}, {"id": 92174744, "state": 3, "round": -6, "fullRoundText": "Losers Quarter-Final", "completedAt": 1754104074, "winnerId": 20862014, "slots": [{"id": "92174744-0", "entrant": {"id": 20862014, "name": "skyguy | jetBBL", "participants": [{"id": 19196572, "gamerTag": "jetBBL", "prefix": "skyguy", "user": {"location": {"city": "Warner Robins", "state": "GA", "country": "United States"}}, "player": {"id": 679572, "gamerTag": "jetBBL", "prefix": "skyguy", "user": {"location": {"city": "Warner Robins", "state": "GA", "country": "United States"}}}}]}, "standing": {"placement": 1, "stats": {"score": {"value": 3}}}}, {"id": "92174744-1", "entrant": {"id": 20861925, "name": "napkino jr", "participants": [{"id": 19196942, "gamerTag": "napkino jr", "prefix": "", "user": null, "player": {"id": 4905271, "gamerTag": "napkino jr", "prefix": "", "user": null}}]}, "standing": {"placement": 2, "stats": {"score": {"value": 0}}}}], "games": null}, {"id": 92174745, "state": 3, "round": -6, "fullRoundText": "Losers Quarter-Final", "completedAt": 1754104508, "winnerId": 20861687, "slots": [{"id": "92174745-0", "entrant": {"id": 20861687, "name": "natebug01", "participants": [{"id": 19196768, "gamerTag": "natebug01", "prefix": null, "user": {"location": {"city": "atl", "state": "GA", "country": "United States"}}, "player": {"id": 69973, "gamerTag": "natebug01", "prefix": null, "user": {"location": {"city": "atl", "state": "GA", "country": "United States"}}}}]}, "standing": {"placement": 1, "stats": {"score": {"value": 3}}}}, {"id": "92174745-1", "entrant": {"id": 20859810, "name": "tomguy", "participants": [{"id": 19195086, "gamerTag": "tomguy", "prefix": "", "user": {"location": {"city": "Atlanta", "state": "GA", "country": "United States"}}, "player": {"id": 147458, "gamerTag": "tomguy", "prefix": "", "user": {"location": {"city": "Atlanta", "state": "GA", "country": "United States"}}}}]}, "standing": {"placement": 2, "stats": {"score": {"value": 1}}}}], "games": null}, {"id": 92174742, "state": 3, "round": -5, "fullRoundText": "Losers Round 2", "completedAt": 1754103229, "winnerId": 20861925, "slots": [{"id": "92174742-0", "entrant": {"id": 20862016, "name": "skyguy | Lover", "participants": [{"id": 19196571, "gamerTag": "Lover", "prefix": "skyguy", "user": {"location": {"city": "Atlanta", "state": "GA", "country": "United States"}}, "player": {"id": 53805, "gamerTag": "Lover", "prefix": "skyguy", "user": {"location": {"city": "Atlanta", "state": "GA", "country": "United States"}}}}]}, "standing": {"placement": 2, "stats": {"score": {"value": 0}}}}, {"id": "92174742-1", "entrant": {"id": 20861925, "name": "napkino jr", "participants": [{"id": 19196942, "gamerTag": "napkino jr", "prefix": "", "user": null, "player": {"id": 4905271, "gamerTag": "napkino jr", "prefix": "", "user": null}}]}, "standing": {"placement": 1, "stats": {"score": {"value": 3}}}}], "games": null}, {"id": 92174743, "state": 3, "round": -5, "fullRoundText": "Losers Round 2", "completedAt": 1754104086, "winnerId": 20859810, "slots": [{"id": "92174743-0", "entrant": {"id": 20861660, "name": "Erran", "participants": [{"id": 19196749, "gamerTag": "Erran", "prefix": "", "user": {"location": {"city": "Atlanta", "state": "GA", "country": "United States"}}, "player": {"id": 36706, "gamerTag": "Erran", "prefix": "", "user": {"location": {"city": "Atlanta", "state": "GA", "country": "United States"}}}}]}, "standing": {"placement": 2, "stats": {"score": {"value": 1}}}}, {"id": "92174743-1", "entrant": {"id": 20859810, "name": "tomguy", "participants": [{"id": 19195086, "gamerTag": "tomguy", "prefix": "", "user": {"location": {"city": "Atlanta", "state": "GA", "country": "United States"}}, "player": {"id": 147458, "gamerTag": "tomguy", "prefix": "", "user": {"location": {"city": "Atlanta", "state": "GA", "country": "United States"}}}}]}, "standing": {"placement": 1, "stats": {"score": {"value": 3}}}}], "games": null}, {"id": 92174709, "state": 3, "round": 2, "fullRoundText": "Winners Quarter-Final", "completedAt": 1754101329, "winnerId": 20855966, "slots": [{"id": "92174709-0", "entrant": {"id": 20855966, "name": "audrey", "participants": [{"id": 19191524, "gamerTag": "audrey", "prefix": null, "user": {"location": {"city": "Dunwoody", "state": "GA", "country": "United States"}}, "player": {"id": 1335864, "gamerTag": "audrey", "prefix": null, "user": {"location": {"city": "Dunwoody", "state": "GA", "country": "United States"}}}}]}, "standing": {"placement": 1, "stats": {"score": {"value": 3}}}}, {"id": "92174709-1", "entrant": {"id": 20859810, "name": "tomguy", "participants": [{"id": 19195086, "gamerTag": "tomguy", "prefix": "", "user": {"location": {"city": "Atlanta", "state": "GA", "country": "United States"}}, "player": {"id": 147458, "gamerTag": "tomguy", "prefix": "", "user": {"location": {"city": "Atlanta", "state": "GA", "country": "United States"}}}}]}, "standing": {"placement": 2, "stats": {"score": {"value": 0}}}}], "games": null}, {"id": 92174710, "state": 3, "round": 2, "fullRoundText": "Winners Quarter-Final", "completedAt": 1754100564, "winnerId": 20862014, "slots": [{"id": "92174710-0", "entrant": {"id": 20862014, "name": "skyguy | jetBBL", "participants": [{"id": 19196572, "gamerTag": "jetBBL", "prefix": "skyguy", "user": {"location": {"city": "Warner Robins", "state": "GA", "country": "United States"}}, "player": {"id": 679572, "gamerTag": "jetBBL", "prefix": "skyguy", "user": {"location": {"city": "Warner Robins", "state": "GA", "country": "United States"}}}}]}, "standing": {"placement": 1, "stats": {"score": {"value": 3}}}}, {"id": "92174710-1", "entrant": {"id": 20861660, "name": "Erran", "participants": [{"id": 19196749, "gamerTag": "Erran", "prefix": "", "user": {"location": {"city": "Atlanta", "state": "GA", "country": "United States"}}, "player": {"id": 36706, "gamerTag": "Erran", "prefix": "", "user": {"location": {"city": "Atlanta", "state": "GA", "country": "United States"}}}}]}, "standing": {"placement": 2, "stats": {"score": {"value": 2}}}}], "games": null}, {"id": 92174711, "state": 3, "round": 2, "fullRoundText": "Winners Quarter-Final", "completedAt": 1754101298, "winnerId": 20855912, "slots": [{"id": "92174711-0", "entrant": {"id": 20855912, "name": "vivesthesia", "participants": [{"id": 19191474, "gamerTag": "vivesthesia", "prefix": null, "user": {"location": {"city": "Atlanta", "state": "GA", "country": "United States"}}, "player": {"id": 4395171, "gamerTag": "vivesthesia", "prefix": null, "user": {"location": {"city": "Atlanta", "state": "GA", "country": "United States"}}}}]}, "standing": {"placement": 1, "stats": {"score": {"value": 3}}}}, {"id": "92174711-1", "entrant": {"id": 20861925, "name": "napkino jr", "participants": [{"id": 19196942, "gamerTag": "napkino jr", "prefix": "", "user": null, "player": {"id": 4905271, "gamerTag": "napkino jr", "prefix": "", "user": null}}]}, "standing": {"placement": 2, "stats": {"score": {"value": 0}}}}], "games": null}, {"id": 92174712, "state": 3, "round": 2, "fullRoundText": "Winners Quarter-Final", "completedAt": 1754101313, "winnerId": 20861687, "slots": [{"id": "92174712-0", "entrant": {"id": 20861687, "name": "natebug01", "participants": [{"id": 19196768, "gamerTag": "natebug01", "prefix": null, "user": {"location": {"city": "atl", "state": "GA", "country": "United States"}}, "player": {"id": 69973, "gamerTag": "natebug01", "prefix": null, "user": {"location": {"city": "atl", "state": "GA", "country": "United States"}}}}]}, "standing": {"placement": 1, "stats": {"score": {"value": 3}}}}, {"id": "92174712-1", "entrant": {"id": 20862016, "name": "skyguy | Lover", "participants": [{"id": 19196571, "gamerTag": "Lover", "prefix": "skyguy", "user": {"location": {"city": "Atlanta", "state": "GA", "country": "United States"}}, "player": {"id": 53805, "gamerTag": "Lover", "prefix": "skyguy", "user": {"location": {"city": "Atlanta", "state": "GA", "country": "United States"}}}}]}, "standing": {"placement": 2, "stats": {"score": {"value": 1}}}}], "games": null}, {"id": 92174738, "state": 3, "round": -4, "fullRoundText": "Losers Round 1", "completedAt": 1754101837, "winnerId": 20862016, "slots": [{"id": "92174738-0", "entrant": {"id": 20862016, "name": "skyguy | Lover", "participants": [{"id": 19196571, "gamerTag": "Lover", "prefix": "skyguy", "user": {"location": {"city": "Atlanta", "state": "GA", "country": "United States"}}, "player": {"id": 53805, "gamerTag": "Lover", "prefix": "skyguy", "user": {"location": {"city": "Atlanta", "state": "GA", "country": "United States"}}}}]}, "standing": {"placement": 1, "stats": {"score": {"value": 3}}}}, {"id": "92174738-1", "entrant": {"id": 20862044, "name": "Rail Tracer", "participants": [{"id": 19197028, "gamerTag": "Rail Tracer", "prefix": "", "user": null, "player": {"id": 4905282, "gamerTag": "Rail Tracer", "prefix": "", "user": null}}]}, "standing": {"placement": 2, "stats": {"score": {"value": 0}}}}], "games": null}]}}}