{"phase": {"seeds": {"pageInfo": {"totalPages": 1, "total": 6}, "nodes": [{"id": 36927592, "seedNum": 5, "entrant": {"id": 21480098, "name": "Bj", "participants": [{"id": 19739782, "gamerTag": "Bj", "prefix": "", "user": {"location": {"city": null, "state": null, "country": "United States"}}, "player": {"id": 5008037, "gamerTag": "Bj", "prefix": "", "user": {"location": {"city": null, "state": null, "country": "United States"}}}}]}}, {"id": 36927589, "seedNum": 2, "entrant": {"id": 21479119, "name": "4o4 | CoNavySeal", "participants": [{"id": 19738880, "gamerTag": "CoNavySeal", "prefix": "4o4", "user": {"location": {"city": "Alpharetta", "state": "GA", "country": "United States"}}, "player": {"id": 3818891, "gamerTag": "CoNavySeal", "prefix": "4o4", "user": {"location": {"city": "Alpharetta", "state": "GA", "country": "United States"}}}}]}}, {"id": 36927588, "seedNum": 1, "entrant": {"id": 21480914, "name": "Deez/Nutz | SaintK", "participants": [{"id": 19740544, "gamerTag": "SaintK", "prefix": "Deez/Nutz", "user": {"location": {"city": "Atlanta", "state": "GA", "country": "United States"}}, "player": {"id": 4963363, "gamerTag": "SaintK", "prefix": "", "user": {"location": {"city": "Atlanta", "state": "GA", "country": "United States"}}}}]}}, {"id": 36927593, "seedNum": 6, "entrant": {"id": 21479120, "name": "United", "participants": [{"id": 19738881, "gamerTag": "United", "prefix": null, "user": {"location": {"city": "Atlanta", "state": "GA", "country": "United States"}}, "player": {"id": 4416768, "gamerTag": "United", "prefix": null, "user": {"location": {"city": "Atlanta", "state": "GA", "country": "United States"}}}}]}}, {"id": 36927590, "seedNum": 3, "entrant": {"id": 21481816, "name": "MTM | Bob Weiner", "participants": [{"id": 19741255, "gamerTag": "Bob Weiner", "prefix": "MTM", "user": {"location": {"city": "Kennesaw", "state": "GA", "country": "United States"}}, "player": {"id": 2142601, "gamerTag": "Bob Weiner", "prefix": "MTM", "user": {"location": {"city": "Kennesaw", "state": "GA", "country": "United States"}}}}]}}, {"id": 36927591, "seedNum": 4, "entrant": {"id": 21480133, "name": "Starsmash", "participants": [{"id": 19739809, "gamerTag": "Starsmash", "prefix": null, "user": {"location": {"city": null, "state": "GA", "country": "United States"}}, "player": {"id": 4978465, "gamerTag": "Starsmash", "prefix": null, "user": {"location": {"city": null, "state": "GA", "country": "United States"}}}}]}}]}}}