{"phase": {"seeds": {"pageInfo": {"totalPages": 1, "total": 7}, "nodes": [{"id": 36820376, "seedNum": 1, "entrant": {"id": 21407607, "name": "IriZA", "participants": [{"id": 19677138, "gamerTag": "IriZA", "prefix": "", "user": {"location": {"city": "Savannah", "state": "TX", "country": "United States"}}, "player": {"id": 3784092, "gamerTag": "IriZA", "prefix": "", "user": {"location": {"city": "Savannah", "state": "TX", "country": "United States"}}}}]}}, {"id": 36819957, "seedNum": 2, "entrant": {"id": 21407280, "name": "Aloe", "participants": [{"id": 19676840, "gamerTag": "Aloe", "prefix": null, "user": {"location": {"city": "Savannah", "state": "WI", "country": "United States"}}, "player": {"id": 2656903, "gamerTag": "Aloe", "prefix": null, "user": {"location": {"city": "Savannah", "state": "WI", "country": "United States"}}}}]}}, {"id": 36819836, "seedNum": 5, "entrant": {"id": 21407172, "name": "SQ1 | Drokifam", "participants": [{"id": 19676740, "gamerTag": "Drokifam", "prefix": "SQ1", "user": {"location": {"city": "Hardeeville", "state": "SC", "country": "United States"}}, "player": {"id": 2801389, "gamerTag": "Drokifam", "prefix": "SQ1", "user": {"location": {"city": "Hardeeville", "state": "SC", "country": "United States"}}}}]}}, {"id": 36819923, "seedNum": 4, "entrant": {"id": 21407243, "name": "otherzenith", "participants": [{"id": 19676814, "gamerTag": "otherzenith", "prefix": "", "user": {"location": {"city": "Kennesaw", "state": null, "country": "United States"}}, "player": {"id": 3827458, "gamerTag": "otherzenith", "prefix": "", "user": {"location": {"city": "Kennesaw", "state": null, "country": "United States"}}}}]}}, {"id": 36819015, "seedNum": 3, "entrant": {"id": 21406568, "name": "KnifeHand", "participants": [{"id": 19676201, "gamerTag": "KnifeHand", "prefix": null, "user": {"location": {"city": "Boise", "state": "ID", "country": "United States"}}, "player": {"id": 1980212, "gamerTag": "KnifeHand", "prefix": null, "user": {"location": {"city": "Boise", "state": "ID", "country": "United States"}}}}]}}, {"id": 36820102, "seedNum": 7, "entrant": {"id": 21407397, "name": "SQ1 | TheFamilyPanda", "participants": [{"id": 19676948, "gamerTag": "TheFamilyPanda", "prefix": "SQ1", "user": {"location": {"city": "Savannah", "state": "GA", "country": "United States"}}, "player": {"id": 2228673, "gamerTag": "TheFamilyPanda", "prefix": "SQ1", "user": {"location": {"city": "Savannah", "state": "GA", "country": "United States"}}}}]}}, {"id": 36820135, "seedNum": 6, "entrant": {"id": 21407431, "name": "Drowsy", "participants": [{"id": 19676983, "gamerTag": "Drowsy", "prefix": "", "user": {"location": {"city": null, "state": null, "country": null}}, "player": {"id": 1600842, "gamerTag": "Drowsy", "prefix": "", "user": {"location": {"city": null, "state": null, "country": null}}}}]}}]}}}