{"phase": {"seeds": {"pageInfo": {"totalPages": 1, "total": 23}, "nodes": [{"id": 36717638, "seedNum": 1, "entrant": {"id": 21335636, "name": "DDee", "participants": [{"id": 19613452, "gamerTag": "DDee", "prefix": null, "user": {"location": {"city": "Dacula", "state": "GA", "country": "United States"}}, "player": {"id": 1480393, "gamerTag": "DDee", "prefix": "SS", "user": {"location": {"city": "Dacula", "state": "GA", "country": "United States"}}}}]}}, {"id": 36704372, "seedNum": 2, "entrant": {"id": 21329182, "name": "Cobalt", "participants": [{"id": 19607792, "gamerTag": "Cobalt", "prefix": null, "user": {"location": {"city": "Gainesville", "state": "GA", "country": "United States"}}, "player": {"id": 181792, "gamerTag": "Cobalt", "prefix": null, "user": {"location": {"city": "Gainesville", "state": "GA", "country": "United States"}}}}]}}, {"id": 36719416, "seedNum": 3, "entrant": {"id": 21337320, "name": "GUMP2 | JankTrees!", "participants": [{"id": 19614906, "gamerTag": "JankTrees!", "prefix": "GUMP2", "user": {"location": {"city": "Cartersville", "state": "GA", "country": "United States"}}, "player": {"id": 35695, "gamerTag": "JankTrees!", "prefix": "GUMP2", "user": {"location": {"city": "Cartersville", "state": "GA", "country": "United States"}}}}]}}, {"id": 36720207, "seedNum": 4, "entrant": {"id": 21337959, "name": "417 | Impluvio", "participants": [{"id": 19615503, "gamerTag": "Impluvio", "prefix": "417", "user": {"location": {"city": null, "state": null, "country": null}}, "player": {"id": 2175953, "gamerTag": "Impluvio", "prefix": "417", "user": {"location": {"city": null, "state": null, "country": null}}}}]}}, {"id": 36677406, "seedNum": 7, "entrant": {"id": 21311323, "name": "UGA | Akamos", "participants": [{"id": 19591959, "gamerTag": "Akamos", "prefix": "UGA", "user": {"location": {"city": "Kennesaw", "state": "GA", "country": "United States"}}, "player": {"id": 2233683, "gamerTag": "Akamos", "prefix": "UGA", "user": {"location": {"city": "Kennesaw", "state": "GA", "country": "United States"}}}}]}}, {"id": 36677829, "seedNum": 11, "entrant": {"id": 21311693, "name": "Sol | Spruce", "participants": [{"id": 19592289, "gamerTag": "Spruce", "prefix": "Sol", "user": {"location": {"city": null, "state": null, "country": "United States"}}, "player": {"id": 1100077, "gamerTag": "Spruce", "prefix": "Sol", "user": {"location": {"city": null, "state": null, "country": "United States"}}}}]}}, {"id": 36703842, "seedNum": 6, "entrant": {"id": 21328759, "name": "417 | Copper", "participants": [{"id": 19607446, "gamerTag": "Copper", "prefix": "417", "user": {"location": {"city": "Athens", "state": "GA", "country": "United States"}}, "player": {"id": 1288306, "gamerTag": "Copper", "prefix": "417", "user": {"location": {"city": "Athens", "state": "GA", "country": "United States"}}}}]}}, {"id": 36710372, "seedNum": 10, "entrant": {"id": 21331320, "name": "The | Restof87", "participants": [{"id": 19609945, "gamerTag": "Restof87", "prefix": "The", "user": {"location": {"city": "Athens", "state": "GA", "country": "United States"}}, "player": {"id": 4301990, "gamerTag": "Restof87", "prefix": "The", "user": {"location": {"city": "Athens", "state": "GA", "country": "United States"}}}}]}}, {"id": 36677516, "seedNum": 5, "entrant": {"id": 21311416, "name": "Nia", "participants": [{"id": 19592050, "gamerTag": "Nia", "prefix": null, "user": {"location": {"city": "Buford", "state": "GA", "country": "United States"}}, "player": {"id": 428070, "gamerTag": "Nia", "prefix": null, "user": {"location": {"city": "Buford", "state": "GA", "country": "United States"}}}}]}}, {"id": 36677433, "seedNum": 8, "entrant": {"id": 21311343, "name": "417 | Krishna", "participants": [{"id": 19591974, "gamerTag": "Krishna", "prefix": "417", "user": {"location": {"city": null, "state": null, "country": "United States"}}, "player": {"id": 2282949, "gamerTag": "Krishna", "prefix": "417", "user": {"location": {"city": null, "state": null, "country": "United States"}}}}]}}, {"id": 36677757, "seedNum": 9, "entrant": {"id": 21311628, "name": "LBE | CC | Savant", "participants": [{"id": 19592230, "gamerTag": "Savant", "prefix": "LBE | CC", "user": {"location": {"city": "Athens", "state": "GA", "country": "United States"}}, "player": {"id": 1944044, "gamerTag": "Savant", "prefix": "LBE | CC", "user": {"location": {"city": "Athens", "state": "GA", "country": "United States"}}}}]}}, {"id": 36720064, "seedNum": 12, "entrant": {"id": 21337827, "name": "DeDeDeadly", "participants": [{"id": 19615375, "gamerTag": "DeDeDeadly", "prefix": "", "user": {"location": {"city": null, "state": null, "country": "United States"}}, "player": {"id": 2267772, "gamerTag": "DeDeDeadly", "prefix": "", "user": {"location": {"city": null, "state": null, "country": "United States"}}}}]}}, {"id": 36708726, "seedNum": 13, "entrant": {"id": 21329969, "name": "GRW | Gooey", "participants": [{"id": 19608694, "gamerTag": "Gooey", "prefix": "GRW", "user": {"location": {"city": "Athens", "state": "GA", "country": "United States"}}, "player": {"id": 1071181, "gamerTag": "Gooey", "prefix": "GRW", "user": {"location": {"city": "Athens", "state": "GA", "country": "United States"}}}}]}}, {"id": 36720576, "seedNum": 14, "entrant": {"id": 21338263, "name": "GRW | Shad", "participants": [{"id": 19615788, "gamerTag": "Shad", "prefix": "GRW", "user": {"location": {"city": null, "state": null, "country": "United States"}}, "player": {"id": 4332389, "gamerTag": "Shad", "prefix": "GRW", "user": {"location": {"city": null, "state": null, "country": "United States"}}}}]}}, {"id": 36719425, "seedNum": 15, "entrant": {"id": 21337329, "name": "jack | jazzman", "participants": [{"id": 19614912, "gamerTag": "jazzman", "prefix": "jack", "user": {"location": {"city": "Athens", "state": "GA", "country": "United States"}}, "player": {"id": 3883272, "gamerTag": "jazzman", "prefix": "jack", "user": {"location": {"city": "Athens", "state": "GA", "country": "United States"}}}}]}}, {"id": 36678071, "seedNum": 17, "entrant": {"id": 21311888, "name": "UGA | LaJohn", "participants": [{"id": 19592469, "gamerTag": "LaJohn", "prefix": "UGA", "user": {"location": {"city": "Suwanee", "state": "GA", "country": "United States"}}, "player": {"id": 1742867, "gamerTag": "LaJohn", "prefix": "UGA", "user": {"location": {"city": "Suwanee", "state": "GA", "country": "United States"}}}}]}}, {"id": 36678208, "seedNum": 16, "entrant": {"id": 21312019, "name": "UGA | | samtwo", "participants": [{"id": 19592586, "gamerTag": "samtwo", "prefix": "UGA |", "user": {"location": {"city": "Athens", "state": "GA", "country": "United States"}}, "player": {"id": 1246662, "gamerTag": "samtwo", "prefix": "UGA |", "user": {"location": {"city": "Athens", "state": "GA", "country": "United States"}}}}]}}, {"id": 36717637, "seedNum": 18, "entrant": {"id": 21335635, "name": "Bany05", "participants": [{"id": 19613451, "gamerTag": "Bany05", "prefix": null, "user": {"location": {"city": null, "state": null, "country": null}}, "player": {"id": 2637493, "gamerTag": "Bany05", "prefix": null, "user": {"location": {"city": null, "state": null, "country": null}}}}]}}, {"id": 36677438, "seedNum": 19, "entrant": {"id": 21311348, "name": "ThePromisedHat", "participants": [{"id": 19591980, "gamerTag": "ThePromisedHat", "prefix": null, "user": {"location": {"city": "Bishop", "state": "GA", "country": "United States"}}, "player": {"id": 4261821, "gamerTag": "ThePromisedHat", "prefix": null, "user": {"location": {"city": "Bishop", "state": "GA", "country": "United States"}}}}]}}, {"id": 36677437, "seedNum": 20, "entrant": {"id": 21311347, "name": "CC | Vertebrae", "participants": [{"id": 19591978, "gamerTag": "Vertebrae", "prefix": "CC", "user": {"location": {"city": "Athens", "state": "GA", "country": "United States"}}, "player": {"id": 1583946, "gamerTag": "Vertebrae", "prefix": "CC", "user": {"location": {"city": "Athens", "state": "GA", "country": "United States"}}}}]}}, {"id": 36677808, "seedNum": 21, "entrant": {"id": 21311671, "name": "Infinite_Radiance", "participants": [{"id": 19592267, "gamerTag": "Infinite_Radiance", "prefix": "", "user": {"location": {"city": null, "state": "GA", "country": "United States"}}, "player": {"id": 4926508, "gamerTag": "Infinite_Radiance", "prefix": "CC UGA", "user": {"location": {"city": null, "state": "GA", "country": "United States"}}}}]}}, {"id": 36718953, "seedNum": 22, "entrant": {"id": 21336880, "name": "LBE | Lumin!", "participants": [{"id": 19614525, "gamerTag": "Lumin!", "prefix": "LBE", "user": {"location": {"city": "Athens", "state": "GA", "country": "United States"}}, "player": {"id": 2737569, "gamerTag": "Lumin!", "prefix": "LBE", "user": {"location": {"city": "Athens", "state": "GA", "country": "United States"}}}}]}}, {"id": 36720986, "seedNum": 23, "entrant": {"id": 21338656, "name": "CheddrTV", "participants": [{"id": 19616160, "gamerTag": "CheddrTV", "prefix": "", "user": {"location": {"city": null, "state": "GA", "country": "United States"}}, "player": {"id": 4629852, "gamerTag": "CheddrTV", "prefix": "", "user": {"location": {"city": null, "state": "GA", "country": "United States"}}}}]}}]}}}