{"phase": {"seeds": {"pageInfo": {"totalPages": 1, "total": 11}, "nodes": [{"id": 36874101, "seedNum": 1, "entrant": {"id": 21444243, "name": "IriZA", "participants": [{"id": 19708948, "gamerTag": "IriZA", "prefix": "", "user": {"location": {"city": "Savannah", "state": "TX", "country": "United States"}}, "player": {"id": 3784092, "gamerTag": "IriZA", "prefix": "", "user": {"location": {"city": "Savannah", "state": "TX", "country": "United States"}}}}]}}, {"id": 36879261, "seedNum": 11, "entrant": {"id": 21447452, "name": "Cotteneyes", "participants": [{"id": 19711858, "gamerTag": "Cotteneyes", "prefix": null, "user": {"location": {"city": null, "state": null, "country": null}}, "player": {"id": 1008934, "gamerTag": "Cotteneyes", "prefix": null, "user": {"location": {"city": null, "state": null, "country": null}}}}]}}, {"id": 36875755, "seedNum": 2, "entrant": {"id": 21445402, "name": "Aloe", "participants": [{"id": 19709944, "gamerTag": "Aloe", "prefix": null, "user": {"location": {"city": "Savannah", "state": "WI", "country": "United States"}}, "player": {"id": 2656903, "gamerTag": "Aloe", "prefix": null, "user": {"location": {"city": "Savannah", "state": "WI", "country": "United States"}}}}]}}, {"id": 36877351, "seedNum": 3, "entrant": {"id": 21446353, "name": "SQ1 | Luff", "participants": [{"id": 19710855, "gamerTag": "Luff", "prefix": "SQ1", "user": {"location": {"city": "Savannah", "state": "GA", "country": "United States"}}, "player": {"id": 4102348, "gamerTag": "Luff", "prefix": "SQ1", "user": {"location": {"city": "Savannah", "state": "GA", "country": "United States"}}}}]}}, {"id": 36876913, "seedNum": 4, "entrant": {"id": 21446133, "name": "CH1R1NO", "participants": [{"id": 19710644, "gamerTag": "CH1R1NO", "prefix": null, "user": {"location": {"city": null, "state": null, "country": null}}, "player": {"id": 5003255, "gamerTag": "CH1R1NO", "prefix": null, "user": {"location": {"city": null, "state": null, "country": null}}}}]}}, {"id": 36878070, "seedNum": 5, "entrant": {"id": 21446766, "name": "SQ1 | Drokifam", "participants": [{"id": 19711239, "gamerTag": "Drokifam", "prefix": "SQ1", "user": {"location": {"city": "Hardeeville", "state": "SC", "country": "United States"}}, "player": {"id": 2801389, "gamerTag": "Drokifam", "prefix": "SQ1", "user": {"location": {"city": "Hardeeville", "state": "SC", "country": "United States"}}}}]}}, {"id": 36879108, "seedNum": 6, "entrant": {"id": 21447329, "name": "Armor Jeff", "participants": [{"id": 19711756, "gamerTag": "Armor Jeff", "prefix": "", "user": {"location": {"city": "Savannah", "state": "GA", "country": "United States"}}, "player": {"id": 3937751, "gamerTag": "Armor Jeff", "prefix": "", "user": {"location": {"city": "Savannah", "state": "GA", "country": "United States"}}}}]}}, {"id": 36872903, "seedNum": 7, "entrant": {"id": 21443431, "name": "otherzenith", "participants": [{"id": 19708120, "gamerTag": "otherzenith", "prefix": "", "user": {"location": {"city": "Kennesaw", "state": null, "country": "United States"}}, "player": {"id": 3827458, "gamerTag": "otherzenith", "prefix": "", "user": {"location": {"city": "Kennesaw", "state": null, "country": "United States"}}}}]}}, {"id": 36877338, "seedNum": 8, "entrant": {"id": 21446348, "name": "Budokai", "participants": [{"id": 19710850, "gamerTag": "Budokai", "prefix": "", "user": {"location": {"city": null, "state": null, "country": "United States"}}, "player": {"id": 5003318, "gamerTag": "Budokai", "prefix": "", "user": {"location": {"city": null, "state": null, "country": "United States"}}}}]}}, {"id": 36874319, "seedNum": 9, "entrant": {"id": 21444381, "name": "SQ1 | TheFamilyPanda", "participants": [{"id": 19709073, "gamerTag": "TheFamilyPanda", "prefix": "SQ1", "user": {"location": {"city": "Savannah", "state": "GA", "country": "United States"}}, "player": {"id": 2228673, "gamerTag": "TheFamilyPanda", "prefix": "SQ1", "user": {"location": {"city": "Savannah", "state": "GA", "country": "United States"}}}}]}}, {"id": 36875758, "seedNum": 10, "entrant": {"id": 21445406, "name": "Drowsy", "participants": [{"id": 19709947, "gamerTag": "Drowsy", "prefix": null, "user": {"location": {"city": null, "state": null, "country": null}}, "player": {"id": 1600842, "gamerTag": "Drowsy", "prefix": "", "user": {"location": {"city": null, "state": null, "country": null}}}}]}}]}}}