{"event": {"sets": {"pageInfo": {"totalPages": 6, "total": 88}, "nodes": [{"id": 93317450, "state": 3, "round": 2, "fullRoundText": "Winners Round 2", "completedAt": 1756601404, "winnerId": 21070660, "slots": [{"id": "93317450-0", "entrant": {"id": 21038666, "name": "Xangief", "participants": [{"id": 19353145, "gamerTag": "Xangief", "prefix": null, "user": {"location": {"city": "Atlanta", "state": "GA", "country": "United States"}}, "player": {"id": 135082, "gamerTag": "Xangief", "prefix": null, "user": {"location": {"city": "Atlanta", "state": "GA", "country": "United States"}}}}]}, "standing": {"placement": 2, "stats": {"score": {"value": 0}}}}, {"id": "93317450-1", "entrant": {"id": 21070660, "name": "EvilDED2", "participants": [{"id": 19382027, "gamerTag": "EvilDED2", "prefix": null, "user": {"location": {"city": "ATLANTA", "state": "GA", "country": "United States"}}, "player": {"id": 3002216, "gamerTag": "EvilDED2", "prefix": null, "user": {"location": {"city": "ATLANTA", "state": "GA", "country": "United States"}}}}]}, "standing": {"placement": 1, "stats": {"score": {"value": 2}}}}], "games": null}, {"id": 93317451, "state": 3, "round": 2, "fullRoundText": "Winners Round 2", "completedAt": 1756601111, "winnerId": 21027734, "slots": [{"id": "93317451-0", "entrant": {"id": 21027734, "name": "Magneto_1080p", "participants": [{"id": 19343075, "gamerTag": "Magneto_1080p", "prefix": null, "user": {"location": {"city": "Austin", "state": "TX", "country": "United States"}}, "player": {"id": 131810, "gamerTag": "Magneto_1080p", "prefix": null, "user": {"location": {"city": "Austin", "state": "TX", "country": "United States"}}}}]}, "standing": {"placement": 1, "stats": {"score": {"value": 2}}}}, {"id": "93317451-1", "entrant": {"id": 21108949, "name": "Circuit", "participants": [{"id": 19416602, "gamerTag": "Circuit", "prefix": null, "user": {"location": {"city": "Gainesville", "state": "GA", "country": "United States"}}, "player": {"id": 1318584, "gamerTag": "Circuit", "prefix": "", "user": {"location": {"city": "Gainesville", "state": "GA", "country": "United States"}}}}]}, "standing": {"placement": 2, "stats": {"score": {"value": 0}}}}], "games": null}, {"id": 93317552, "state": 3, "round": -4, "fullRoundText": "Losers Round 1", "completedAt": 1756601731, "winnerId": 21104811, "slots": [{"id": "93317552-0", "entrant": {"id": 21104811, "name": "WFG | ChaosDunk", "participants": [{"id": 19412853, "gamerTag": "ChaosDunk", "prefix": "WFG", "user": {"location": {"city": "Woodstock", "state": "GA", "country": "United States"}}, "player": {"id": 24721, "gamerTag": "ChaosDunk", "prefix": "WFG", "user": {"location": {"city": "Woodstock", "state": "GA", "country": "United States"}}}}]}, "standing": {"placement": 1, "stats": {"score": {"value": null}}}}, {"id": "93317552-1", "entrant": {"id": 21108081, "name": "hazywoods", "participants": [{"id": 19415758, "gamerTag": "hazywoods", "prefix": "", "user": {"location": {"city": null, "state": null, "country": null}}, "player": {"id": 855372, "gamerTag": "hazywoods", "prefix": "", "user": {"location": {"city": null, "state": null, "country": null}}}}]}, "standing": {"placement": 2, "stats": {"score": {"value": -1}}}}], "games": null}, {"id": 93317554, "state": 3, "round": -4, "fullRoundText": "Losers Round 1", "completedAt": 1756601546, "winnerId": 20755230, "slots": [{"id": "93317554-0", "entrant": {"id": 20755230, "name": "ShadowWork", "participants": [{"id": 19100876, "gamerTag": "ShadowWork", "prefix": "", "user": {"location": {"city": "Decatur", "state": "GA", "country": "United States"}}, "player": {"id": 3584711, "gamerTag": "ShadowWork", "prefix": "", "user": {"location": {"city": "Decatur", "state": "GA", "country": "United States"}}}}]}, "standing": {"placement": 1, "stats": {"score": {"value": null}}}}, {"id": "93317554-1", "entrant": {"id": 21116054, "name": "goostain", "participants": [{"id": 19422888, "gamerTag": "goostain", "prefix": null, "user": {"location": {"city": "Huntersville", "state": "NC", "country": "United States"}}, "player": {"id": 3365655, "gamerTag": "goostain", "prefix": "", "user": {"location": {"city": "Huntersville", "state": "NC", "country": "United States"}}}}]}, "standing": {"placement": 2, "stats": {"score": {"value": -1}}}}], "games": null}, {"id": 93317555, "state": 3, "round": -4, "fullRoundText": "Losers Round 1", "completedAt": 1756602278, "winnerId": 21119146, "slots": [{"id": "93317555-0", "entrant": {"id": 21108949, "name": "Circuit", "participants": [{"id": 19416602, "gamerTag": "Circuit", "prefix": null, "user": {"location": {"city": "Gainesville", "state": "GA", "country": "United States"}}, "player": {"id": 1318584, "gamerTag": "Circuit", "prefix": "", "user": {"location": {"city": "Gainesville", "state": "GA", "country": "United States"}}}}]}, "standing": {"placement": 2, "stats": {"score": {"value": 0}}}}, {"id": "93317555-1", "entrant": {"id": 21119146, "name": "Manhattan205", "participants": [{"id": 19425717, "gamerTag": "Manhattan205", "prefix": null, "user": {"location": {"city": null, "state": null, "country": null}}, "player": {"id": 3873973, "gamerTag": "Manhattan205", "prefix": null, "user": {"location": {"city": null, "state": null, "country": null}}}}]}, "standing": {"placement": 1, "stats": {"score": {"value": 2}}}}], "games": null}, {"id": 93317556, "state": 3, "round": -4, "fullRoundText": "Losers Round 1", "completedAt": 1756602227, "winnerId": 21038666, "slots": [{"id": "93317556-0", "entrant": {"id": 21038666, "name": "Xangief", "participants": [{"id": 19353145, "gamerTag": "Xangief", "prefix": null, "user": {"location": {"city": "Atlanta", "state": "GA", "country": "United States"}}, "player": {"id": 135082, "gamerTag": "Xangief", "prefix": null, "user": {"location": {"city": "Atlanta", "state": "GA", "country": "United States"}}}}]}, "standing": {"placement": 1, "stats": {"score": {"value": 2}}}}, {"id": "93317556-1", "entrant": {"id": 21114341, "name": "Saikyo-Ryu Dojo | Dan Hibiki", "participants": [{"id": 19421506, "gamerTag": "Dan Hibiki", "prefix": "Saikyo-Ryu Dojo", "user": {"location": {"city": "Palm Beach", "state": "FL", "country": "United States"}}, "player": {"id": 4946846, "gamerTag": "Dan Hibiki", "prefix": "Saikyo-Ryu Dojo", "user": {"location": {"city": "Palm Beach", "state": "FL", "country": "United States"}}}}]}, "standing": {"placement": 2, "stats": {"score": {"value": 0}}}}], "games": null}, {"id": 93317557, "state": 3, "round": -4, "fullRoundText": "Losers Round 1", "completedAt": 1756601863, "winnerId": 21088530, "slots": [{"id": "93317557-0", "entrant": {"id": 21088530, "name": "Fl0wchart", "participants": [{"id": 19398080, "gamerTag": "Fl0wchart", "prefix": null, "user": {"location": {"city": "Burnsville", "state": null, "country": null}}, "player": {"id": 864596, "gamerTag": "Fl0wchart", "prefix": null, "user": {"location": {"city": "Burnsville", "state": null, "country": null}}}}]}, "standing": {"placement": 1, "stats": {"score": {"value": null}}}}, {"id": "93317557-1", "entrant": {"id": 21025926, "name": "CT | PacGod", "participants": [{"id": 19341592, "gamerTag": "PacGod", "prefix": "CT", "user": {"location": {"city": "Conyers", "state": "GA", "country": "United States"}}, "player": {"id": 346216, "gamerTag": "PacGod", "prefix": "CT", "user": {"location": {"city": "Conyers", "state": "GA", "country": "United States"}}}}]}, "standing": {"placement": 2, "stats": {"score": {"value": -1}}}}], "games": null}, {"id": 93317558, "state": 3, "round": -4, "fullRoundText": "Losers Round 1", "completedAt": 1756602403, "winnerId": 21114781, "slots": [{"id": "93317558-0", "entrant": {"id": 20777910, "name": "Qualken", "participants": [{"id": 19122024, "gamerTag": "Qualken", "prefix": null, "user": {"location": {"city": "Vicksburg", "state": "MS", "country": "United States"}}, "player": {"id": 4585302, "gamerTag": "Qualken", "prefix": null, "user": {"location": {"city": "Vicksburg", "state": "MS", "country": "United States"}}}}]}, "standing": {"placement": 2, "stats": {"score": {"value": 0}}}}, {"id": "93317558-1", "entrant": {"id": 21114781, "name": "AKTN | P1kaso", "participants": [{"id": 19421855, "gamerTag": "P1kaso", "prefix": "AKTN", "user": {"location": {"city": null, "state": null, "country": null}}, "player": {"id": 561673, "gamerTag": "P1kaso", "prefix": "AKTN", "user": {"location": {"city": null, "state": null, "country": null}}}}]}, "standing": {"placement": 1, "stats": {"score": {"value": 2}}}}], "games": null}, {"id": 93317559, "state": 3, "round": -4, "fullRoundText": "Losers Round 1", "completedAt": 1756602551, "winnerId": 21100717, "slots": [{"id": "93317559-0", "entrant": {"id": 21100717, "name": "CHINGU | Bahamut", "participants": [{"id": 19409109, "gamerTag": "Bahamut", "prefix": "CHINGU", "user": {"location": {"city": "Atlanta", "state": "GA", "country": "United States"}}, "player": {"id": 3598331, "gamerTag": "Bahamut", "prefix": "", "user": {"location": {"city": "Atlanta", "state": "GA", "country": "United States"}}}}]}, "standing": {"placement": 1, "stats": {"score": {"value": 2}}}}, {"id": "93317559-1", "entrant": {"id": 21123799, "name": "Sweem", "participants": [{"id": 19429472, "gamerTag": "Sweem", "prefix": null, "user": {"location": {"city": "Columbus", "state": "OH", "country": "United States"}}, "player": {"id": 4948871, "gamerTag": "Sweem", "prefix": "", "user": {"location": {"city": "Columbus", "state": "OH", "country": "United States"}}}}]}, "standing": {"placement": 2, "stats": {"score": {"value": 1}}}}], "games": null}, {"id": 93317560, "state": 3, "round": -4, "fullRoundText": "Losers Round 1", "completedAt": 1756603901, "winnerId": 21050481, "slots": [{"id": "93317560-0", "entrant": {"id": 21050481, "name": "Vincenzo", "participants": [{"id": 19363924, "gamerTag": "Vincenzo", "prefix": "", "user": {"location": {"city": "Raleigh", "state": "NC", "country": "United States"}}, "player": {"id": 4381443, "gamerTag": "SirBacon", "prefix": null, "user": {"location": {"city": "Raleigh", "state": "NC", "country": "United States"}}}}]}, "standing": {"placement": 1, "stats": {"score": {"value": 2}}}}, {"id": "93317560-1", "entrant": {"id": 21108899, "name": "Scottythepreparedartist", "participants": [{"id": 19416558, "gamerTag": "Scottythepreparedartist", "prefix": "", "user": {"location": {"city": "Newnan", "state": "GA", "country": "United States"}}, "player": {"id": 4757730, "gamerTag": "Thepreparedartist", "prefix": "", "user": {"location": {"city": "Newnan", "state": "GA", "country": "United States"}}}}]}, "standing": {"placement": 2, "stats": {"score": {"value": 0}}}}], "games": null}, {"id": 93317562, "state": 3, "round": -4, "fullRoundText": "Losers Round 1", "completedAt": 1756602018, "winnerId": 20750467, "slots": [{"id": "93317562-0", "entrant": {"id": 20750467, "name": "ARK | Foxloaf", "participants": [{"id": 19095956, "gamerTag": "Foxloaf", "prefix": "ARK", "user": {"location": {"city": "Batesville", "state": "AR", "country": "United States"}}, "player": {"id": 2729162, "gamerTag": "Foxloaf", "prefix": null, "user": {"location": {"city": "Batesville", "state": "AR", "country": "United States"}}}}]}, "standing": {"placement": 1, "stats": {"score": {"value": null}}}}, {"id": "93317562-1", "entrant": {"id": 21116050, "name": "Juicewithme", "participants": [{"id": 19422883, "gamerTag": "Juicewithme", "prefix": "", "user": {"location": {"city": "Greenville", "state": "SC", "country": "United States"}}, "player": {"id": 3365670, "gamerTag": "Juicewithme", "prefix": "", "user": {"location": {"city": "Greenville", "state": "SC", "country": "United States"}}}}]}, "standing": {"placement": 2, "stats": {"score": {"value": -1}}}}], "games": null}, {"id": 93317563, "state": 3, "round": -4, "fullRoundText": "Losers Round 1", "completedAt": 1756602425, "winnerId": 21096752, "slots": [{"id": "93317563-0", "entrant": {"id": 21096752, "name": "The Scary Door", "participants": [{"id": 19405341, "gamerTag": "The Scary Door", "prefix": "", "user": {"location": {"city": "Atlanta", "state": "GA", "country": "United States"}}, "player": {"id": 4944131, "gamerTag": "The Scary Door", "prefix": "", "user": {"location": {"city": "Atlanta", "state": "GA", "country": "United States"}}}}]}, "standing": {"placement": 1, "stats": {"score": {"value": 2}}}}, {"id": "93317563-1", "entrant": {"id": 21120916, "name": "HC | Crame Splendor", "participants": [{"id": 19427211, "gamerTag": "Crame Splendor", "prefix": "HC", "user": {"location": {"city": "Atlanta", "state": "GA", "country": "United States"}}, "player": {"id": 4292285, "gamerTag": "Crame Splendor", "prefix": "HC", "user": {"location": {"city": "Atlanta", "state": "GA", "country": "United States"}}}}]}, "standing": {"placement": 2, "stats": {"score": {"value": 0}}}}], "games": null}, {"id": 93317564, "state": 3, "round": -4, "fullRoundText": "Losers Round 1", "completedAt": 1756602634, "winnerId": 21073424, "slots": [{"id": "93317564-0", "entrant": {"id": 21073424, "name": "aScells", "participants": [{"id": 19384555, "gamerTag": "aScells", "prefix": null, "user": {"location": {"city": "Atlanta", "state": "GA", "country": "United States"}}, "player": {"id": 3775729, "gamerTag": "aScells", "prefix": null, "user": {"location": {"city": "Atlanta", "state": "GA", "country": "United States"}}}}]}, "standing": {"placement": 1, "stats": {"score": {"value": 2}}}}, {"id": "93317564-1", "entrant": {"id": 21098484, "name": "taebyoung", "participants": [{"id": 19406942, "gamerTag": "taebyoung", "prefix": null, "user": {"location": {"city": "Troy", "state": "OH", "country": "United States"}}, "player": {"id": 1646770, "gamerTag": "taebyoung", "prefix": null, "user": {"location": {"city": "Troy", "state": "OH", "country": "United States"}}}}]}, "standing": {"placement": 2, "stats": {"score": {"value": 0}}}}], "games": null}, {"id": 93317566, "state": 3, "round": -4, "fullRoundText": "Losers Round 1", "completedAt": 1756602643, "winnerId": 21094160, "slots": [{"id": "93317566-0", "entrant": {"id": 20914722, "name": "Halcyon", "participants": [{"id": 19243374, "gamerTag": "Halcyon", "prefix": "", "user": {"location": {"city": "Woodstock", "state": "GA", "country": "United States"}}, "player": {"id": 4914733, "gamerTag": "Halcyon", "prefix": "", "user": {"location": {"city": "Woodstock", "state": "GA", "country": "United States"}}}}]}, "standing": {"placement": 2, "stats": {"score": {"value": 0}}}}, {"id": "93317566-1", "entrant": {"id": 21094160, "name": "1STPAI", "participants": [{"id": 19403243, "gamerTag": "1STPAI", "prefix": "", "user": {"location": {"city": "Atlanta", "state": "GA", "country": "United States"}}, "player": {"id": 2355717, "gamerTag": "1STPAI", "prefix": "", "user": {"location": {"city": "Atlanta", "state": "GA", "country": "United States"}}}}]}, "standing": {"placement": 1, "stats": {"score": {"value": 2}}}}], "games": null}, {"id": 93317567, "state": 3, "round": -4, "fullRoundText": "Losers Round 1", "completedAt": 1756602319, "winnerId": 21122590, "slots": [{"id": "93317567-0", "entrant": {"id": 21119527, "name": "Ursus Major", "participants": [{"id": 19426000, "gamerTag": "Ursus Major", "prefix": "", "user": {"location": {"city": "Marietta", "state": "GA", "country": "United States"}}, "player": {"id": 746367, "gamerTag": "Ursus Major", "prefix": "", "user": {"location": {"city": "Marietta", "state": "GA", "country": "United States"}}}}]}, "standing": {"placement": 2, "stats": {"score": {"value": -1}}}}, {"id": "93317567-1", "entrant": {"id": 21122590, "name": "darkarcanine14", "participants": [{"id": 19428643, "gamerTag": "darkarcanine14", "prefix": null, "user": {"location": {"city": "Allen", "state": "TX", "country": "Mexico"}}, "player": {"id": 3755672, "gamerTag": "darkarcanine14", "prefix": null, "user": {"location": {"city": "Allen", "state": "TX", "country": "Mexico"}}}}]}, "standing": {"placement": 1, "stats": {"score": {"value": null}}}}], "games": null}]}}}