{"event": {"sets": {"pageInfo": {"totalPages": 6, "total": 76}, "nodes": [{"id": 93440126, "state": 3, "round": 2, "fullRoundText": "Winners Round 2", "completedAt": 1756947570, "winnerId": 21162780, "slots": [{"id": "93440126-0", "entrant": {"id": 21161523, "name": "Pokchop", "participants": [{"id": 19463419, "gamerTag": "Pokchop", "prefix": "", "user": {"location": {"city": "Atlanta", "state": "GA", "country": "United States"}}, "player": {"id": 150402, "gamerTag": "Pokchop", "prefix": "", "user": {"location": {"city": "Atlanta", "state": "GA", "country": "United States"}}}}]}, "standing": {"placement": 2, "stats": {"score": {"value": 0}}}}, {"id": "93440126-1", "entrant": {"id": 21162780, "name": "LogieBear", "participants": [{"id": 19464507, "gamerTag": "LogieBear", "prefix": "", "user": {"location": {"city": "Snellville", "state": "GA", "country": "United States"}}, "player": {"id": 3809706, "gamerTag": "LogieBear", "prefix": "", "user": {"location": {"city": "Snellville", "state": "GA", "country": "United States"}}}}]}, "standing": {"placement": 1, "stats": {"score": {"value": 2}}}}], "games": null}, {"id": 93440127, "state": 3, "round": 2, "fullRoundText": "Winners Round 2", "completedAt": 1756946299, "winnerId": 21162001, "slots": [{"id": "93440127-0", "entrant": {"id": 21162001, "name": "GCH | slaughterwall", "participants": [{"id": 19463824, "gamerTag": "slaughterwall", "prefix": "GCH", "user": {"location": {"city": "Atlanta", "state": "GA", "country": "United States"}}, "player": {"id": 1104452, "gamerTag": "slaughterwall", "prefix": "GCH", "user": {"location": {"city": "Atlanta", "state": "GA", "country": "United States"}}}}]}, "standing": {"placement": 1, "stats": {"score": {"value": 2}}}}, {"id": "93440127-1", "entrant": {"id": 21157724, "name": "evosel", "participants": [{"id": 19459948, "gamerTag": "evosel", "prefix": "", "user": {"location": {"city": "Lithonia", "state": "GA", "country": "United States"}}, "player": {"id": 2926943, "gamerTag": "evosel", "prefix": "", "user": {"location": {"city": "Lithonia", "state": "GA", "country": "United States"}}}}]}, "standing": {"placement": 2, "stats": {"score": {"value": 1}}}}], "games": null}, {"id": 93440225, "state": 3, "round": -4, "fullRoundText": "Losers Round 1", "completedAt": 1756947072, "winnerId": 21157724, "slots": [{"id": "93440225-0", "entrant": {"id": 21157724, "name": "evosel", "participants": [{"id": 19459948, "gamerTag": "evosel", "prefix": "", "user": {"location": {"city": "Lithonia", "state": "GA", "country": "United States"}}, "player": {"id": 2926943, "gamerTag": "evosel", "prefix": "", "user": {"location": {"city": "Lithonia", "state": "GA", "country": "United States"}}}}]}, "standing": {"placement": 1, "stats": {"score": {"value": 2}}}}, {"id": "93440225-1", "entrant": {"id": 21162175, "name": "Hipster Lion", "participants": [{"id": 19463972, "gamerTag": "Hipster Lion", "prefix": "", "user": {"location": {"city": "College Park", "state": "GA", "country": "United States"}}, "player": {"id": 897409, "gamerTag": "Hipster Lion", "prefix": "", "user": {"location": {"city": "College Park", "state": "GA", "country": "United States"}}}}]}, "standing": {"placement": 2, "stats": {"score": {"value": 0}}}}], "games": null}, {"id": 93440229, "state": 3, "round": -4, "fullRoundText": "Losers Round 1", "completedAt": 1756946907, "winnerId": 21158952, "slots": [{"id": "93440229-0", "entrant": {"id": 21158952, "name": "Momokins", "participants": [{"id": 19461101, "gamerTag": "Momokins", "prefix": "", "user": {"location": {"city": "Atlanta", "state": "GA", "country": "United States"}}, "player": {"id": 612216, "gamerTag": "Momokins", "prefix": "", "user": {"location": {"city": "Atlanta", "state": "GA", "country": "United States"}}}}]}, "standing": {"placement": 1, "stats": {"score": {"value": 2}}}}, {"id": "93440229-1", "entrant": {"id": 21162504, "name": "KingDeeDeeD", "participants": [{"id": 19464263, "gamerTag": "KingDeeDeeD", "prefix": "", "user": {"location": {"city": null, "state": null, "country": "United States"}}, "player": {"id": 4943818, "gamerTag": "KingDeeDeeD", "prefix": "", "user": {"location": {"city": null, "state": null, "country": "United States"}}}}]}, "standing": {"placement": 2, "stats": {"score": {"value": 0}}}}], "games": null}, {"id": 93440231, "state": 3, "round": -4, "fullRoundText": "Losers Round 1", "completedAt": 1756947300, "winnerId": 21160782, "slots": [{"id": "93440231-0", "entrant": {"id": 21160782, "name": "Greed", "participants": [{"id": 19462748, "gamerTag": "Greed", "prefix": "", "user": {"location": {"city": "Atlanta", "state": "GA", "country": "United States"}}, "player": {"id": 907329, "gamerTag": "Greed", "prefix": "", "user": {"location": {"city": "Atlanta", "state": "GA", "country": "United States"}}}}]}, "standing": {"placement": 1, "stats": {"score": {"value": 2}}}}, {"id": "93440231-1", "entrant": {"id": 21160227, "name": "Cesh", "participants": [{"id": 19462268, "gamerTag": "Cesh", "prefix": null, "user": {"location": {"city": null, "state": "GA", "country": "United States"}}, "player": {"id": 4956245, "gamerTag": "Cesh", "prefix": null, "user": {"location": {"city": null, "state": "GA", "country": "United States"}}}}]}, "standing": {"placement": 2, "stats": {"score": {"value": 0}}}}], "games": null}, {"id": 93440233, "state": 3, "round": -4, "fullRoundText": "Losers Round 1", "completedAt": 1756947438, "winnerId": 21162261, "slots": [{"id": "93440233-0", "entrant": {"id": 21153840, "name": "buns", "participants": [{"id": 19456640, "gamerTag": "buns", "prefix": "", "user": {"location": {"city": null, "state": null, "country": null}}, "player": {"id": 4530406, "gamerTag": "buns", "prefix": "", "user": {"location": {"city": null, "state": null, "country": null}}}}]}, "standing": {"placement": 2, "stats": {"score": {"value": 0}}}}, {"id": "93440233-1", "entrant": {"id": 21162261, "name": "Stiah", "participants": [{"id": 19464054, "gamerTag": "Stiah", "prefix": "", "user": {"location": {"city": "ATLANTA ZONE-6", "state": "GA", "country": "United States"}}, "player": {"id": 1563940, "gamerTag": "Stiah", "prefix": "", "user": {"location": {"city": "ATLANTA ZONE-6", "state": "GA", "country": "United States"}}}}]}, "standing": {"placement": 1, "stats": {"score": {"value": 2}}}}], "games": null}, {"id": 93440235, "state": 3, "round": -4, "fullRoundText": "Losers Round 1", "completedAt": 1756948953, "winnerId": 21159383, "slots": [{"id": "93440235-0", "entrant": {"id": 21153828, "name": "PAR | Romanova", "participants": [{"id": 19456630, "gamerTag": "Romanova", "prefix": "PAR", "user": {"location": {"city": "Atlanta", "state": "GA", "country": "United States"}}, "player": {"id": 228245, "gamerTag": "Romanova", "prefix": "PAR", "user": {"location": {"city": "Atlanta", "state": "GA", "country": "United States"}}}}]}, "standing": {"placement": 2, "stats": {"score": {"value": 1}}}}, {"id": "93440235-1", "entrant": {"id": 21159383, "name": "Macho_Franchise", "participants": [{"id": 19461509, "gamerTag": "Macho_Franchise", "prefix": null, "user": {"location": {"city": "Marietta", "state": "GA", "country": "United States"}}, "player": {"id": 874463, "gamerTag": "Macho_Franchise", "prefix": null, "user": {"location": {"city": "Marietta", "state": "GA", "country": "United States"}}}}]}, "standing": {"placement": 1, "stats": {"score": {"value": 2}}}}], "games": null}, {"id": 93440237, "state": 3, "round": -4, "fullRoundText": "Losers Round 1", "completedAt": 1756948095, "winnerId": 21159170, "slots": [{"id": "93440237-0", "entrant": {"id": 21159170, "name": "Azarlith", "participants": [{"id": 19461309, "gamerTag": "Azarlith", "prefix": "", "user": {"location": {"city": "Lawrenceville", "state": null, "country": "United States"}}, "player": {"id": 3444743, "gamerTag": "Azarlith", "prefix": "", "user": {"location": {"city": "Lawrenceville", "state": null, "country": "United States"}}}}]}, "standing": {"placement": 1, "stats": {"score": {"value": 2}}}}, {"id": "93440237-1", "entrant": {"id": 21160900, "name": "C-2", "participants": [{"id": 19462853, "gamerTag": "C-2", "prefix": "", "user": {"location": {"city": "Atlanta", "state": "GA", "country": "United States"}}, "player": {"id": 1228856, "gamerTag": "C-2", "prefix": "", "user": {"location": {"city": "Atlanta", "state": "GA", "country": "United States"}}}}]}, "standing": {"placement": 2, "stats": {"score": {"value": 0}}}}], "games": null}, {"id": 93440239, "state": 3, "round": -4, "fullRoundText": "Losers Round 1", "completedAt": 1756946790, "winnerId": 21161729, "slots": [{"id": "93440239-0", "entrant": {"id": 21161729, "name": "Owen Dos | BlackHeart", "participants": [{"id": 19463601, "gamerTag": "BlackHeart", "prefix": "Owen Dos", "user": {"location": {"city": "Buford", "state": "GA", "country": "United States"}}, "player": {"id": 2228433, "gamerTag": "BlackHeart", "prefix": "Owen Dos", "user": {"location": {"city": "Buford", "state": "GA", "country": "United States"}}}}]}, "standing": {"placement": 1, "stats": {"score": {"value": 2}}}}, {"id": "93440239-1", "entrant": {"id": 21159929, "name": "Fiji | 100 Latinas", "participants": [{"id": 19461991, "gamerTag": "100 Latinas", "prefix": "Fiji", "user": {"location": {"city": "Lithonia", "state": "GA", "country": "United States"}}, "player": {"id": 1890427, "gamerTag": "100 Latinas", "prefix": "Fiji", "user": {"location": {"city": "Lithonia", "state": "GA", "country": "United States"}}}}]}, "standing": {"placement": 2, "stats": {"score": {"value": 0}}}}], "games": null}, {"id": 93440081, "state": 3, "round": 1, "fullRoundText": "Winners Round 1", "completedAt": 1756946532, "winnerId": 21162214, "slots": [{"id": "93440081-0", "entrant": {"id": 21162175, "name": "Hipster Lion", "participants": [{"id": 19463972, "gamerTag": "Hipster Lion", "prefix": "", "user": {"location": {"city": "College Park", "state": "GA", "country": "United States"}}, "player": {"id": 897409, "gamerTag": "Hipster Lion", "prefix": "", "user": {"location": {"city": "College Park", "state": "GA", "country": "United States"}}}}]}, "standing": {"placement": 2, "stats": {"score": {"value": 0}}}}, {"id": "93440081-1", "entrant": {"id": 21162214, "name": "PrimeStone", "participants": [{"id": 19464010, "gamerTag": "PrimeStone", "prefix": null, "user": {"location": {"city": "Loganville", "state": "GA", "country": "United States"}}, "player": {"id": 1130909, "gamerTag": "PrimeStone", "prefix": null, "user": {"location": {"city": "Loganville", "state": "GA", "country": "United States"}}}}]}, "standing": {"placement": 1, "stats": {"score": {"value": 2}}}}], "games": null}, {"id": 93440089, "state": 3, "round": 1, "fullRoundText": "Winners Round 1", "completedAt": 1756945638, "winnerId": 21160635, "slots": [{"id": "93440089-0", "entrant": {"id": 21160635, "name": "Aneubys", "participants": [{"id": 19462631, "gamerTag": "Aneubys", "prefix": "", "user": {"location": {"city": "Smyrna", "state": "GA", "country": "United States"}}, "player": {"id": 3901259, "gamerTag": "Aneubys", "prefix": "", "user": {"location": {"city": "Smyrna", "state": "GA", "country": "United States"}}}}]}, "standing": {"placement": 1, "stats": {"score": {"value": 2}}}}, {"id": "93440089-1", "entrant": {"id": 21162504, "name": "KingDeeDeeD", "participants": [{"id": 19464263, "gamerTag": "KingDeeDeeD", "prefix": "", "user": {"location": {"city": null, "state": null, "country": "United States"}}, "player": {"id": 4943818, "gamerTag": "KingDeeDeeD", "prefix": "", "user": {"location": {"city": null, "state": null, "country": "United States"}}}}]}, "standing": {"placement": 2, "stats": {"score": {"value": 0}}}}], "games": null}, {"id": 93440093, "state": 3, "round": 1, "fullRoundText": "Winners Round 1", "completedAt": 1756946664, "winnerId": 21162697, "slots": [{"id": "93440093-0", "entrant": {"id": 21160227, "name": "Cesh", "participants": [{"id": 19462268, "gamerTag": "Cesh", "prefix": null, "user": {"location": {"city": null, "state": "GA", "country": "United States"}}, "player": {"id": 4956245, "gamerTag": "Cesh", "prefix": null, "user": {"location": {"city": null, "state": "GA", "country": "United States"}}}}]}, "standing": {"placement": 2, "stats": {"score": {"value": 0}}}}, {"id": "93440093-1", "entrant": {"id": 21162697, "name": "Cloud9Savage", "participants": [{"id": 19464435, "gamerTag": "Cloud9Savage", "prefix": null, "user": {"location": {"city": "McDonough", "state": "GA", "country": "United States"}}, "player": {"id": 4395697, "gamerTag": "Cloud9Savage", "prefix": null, "user": {"location": {"city": "McDonough", "state": "GA", "country": "United States"}}}}]}, "standing": {"placement": 1, "stats": {"score": {"value": 2}}}}], "games": null}, {"id": 93440097, "state": 3, "round": 1, "fullRoundText": "Winners Round 1", "completedAt": 1756945924, "winnerId": 21160990, "slots": [{"id": "93440097-0", "entrant": {"id": 21160990, "name": "Mirize", "participants": [{"id": 19462944, "gamerTag": "Mirize", "prefix": "", "user": {"location": {"city": "Atlanta", "state": "GA", "country": "United States"}}, "player": {"id": 893603, "gamerTag": "Mirize", "prefix": "", "user": {"location": {"city": "Atlanta", "state": "GA", "country": "United States"}}}}]}, "standing": {"placement": 1, "stats": {"score": {"value": 2}}}}, {"id": "93440097-1", "entrant": {"id": 21162261, "name": "Stiah", "participants": [{"id": 19464054, "gamerTag": "Stiah", "prefix": "", "user": {"location": {"city": "ATLANTA ZONE-6", "state": "GA", "country": "United States"}}, "player": {"id": 1563940, "gamerTag": "Stiah", "prefix": "", "user": {"location": {"city": "ATLANTA ZONE-6", "state": "GA", "country": "United States"}}}}]}, "standing": {"placement": 2, "stats": {"score": {"value": 0}}}}], "games": null}, {"id": 93440101, "state": 3, "round": 1, "fullRoundText": "Winners Round 1", "completedAt": 1756946055, "winnerId": 21162789, "slots": [{"id": "93440101-0", "entrant": {"id": 21159383, "name": "Macho_Franchise", "participants": [{"id": 19461509, "gamerTag": "Macho_Franchise", "prefix": null, "user": {"location": {"city": "Marietta", "state": "GA", "country": "United States"}}, "player": {"id": 874463, "gamerTag": "Macho_Franchise", "prefix": null, "user": {"location": {"city": "Marietta", "state": "GA", "country": "United States"}}}}]}, "standing": {"placement": 2, "stats": {"score": {"value": 1}}}}, {"id": "93440101-1", "entrant": {"id": 21162789, "name": "Globberman", "participants": [{"id": 19464512, "gamerTag": "Globberman", "prefix": null, "user": {"location": {"city": "Snellville", "state": "GA", "country": "United States"}}, "player": {"id": 3722235, "gamerTag": "Globberman", "prefix": null, "user": {"location": {"city": "Snellville", "state": "GA", "country": "United States"}}}}]}, "standing": {"placement": 1, "stats": {"score": {"value": 2}}}}], "games": null}, {"id": 93440105, "state": 3, "round": 1, "fullRoundText": "Winners Round 1", "completedAt": 1756947382, "winnerId": 21162278, "slots": [{"id": "93440105-0", "entrant": {"id": 21160900, "name": "C-2", "participants": [{"id": 19462853, "gamerTag": "C-2", "prefix": "", "user": {"location": {"city": "Atlanta", "state": "GA", "country": "United States"}}, "player": {"id": 1228856, "gamerTag": "C-2", "prefix": "", "user": {"location": {"city": "Atlanta", "state": "GA", "country": "United States"}}}}]}, "standing": {"placement": 2, "stats": {"score": {"value": 1}}}}, {"id": "93440105-1", "entrant": {"id": 21162278, "name": "scum-xi", "participants": [{"id": 19464069, "gamerTag": "scum-xi", "prefix": "", "user": null, "player": {"id": 4956469, "gamerTag": "scum-xi", "prefix": "", "user": null}}]}, "standing": {"placement": 1, "stats": {"score": {"value": 2}}}}], "games": null}]}}}