{"phase": {"seeds": {"pageInfo": {"totalPages": 1, "total": 10}, "nodes": [{"id": 36772256, "seedNum": 4, "entrant": {"id": 21375086, "name": "Foam Root", "participants": [{"id": 19649153, "gamerTag": "Foam Root", "prefix": null, "user": {"location": {"city": "Covington", "state": "GA", "country": "United States"}}, "player": {"id": 541222, "gamerTag": "Foam Root", "prefix": "", "user": {"location": {"city": "Covington", "state": "GA", "country": "United States"}}}}]}}, {"id": 36653009, "seedNum": 2, "entrant": {"id": 21293874, "name": "Hobbit", "participants": [{"id": 19576779, "gamerTag": "Hobbit", "prefix": null, "user": {"location": {"city": null, "state": "GA", "country": "United States"}}, "player": {"id": 4025480, "gamerTag": "Hobbit", "prefix": null, "user": {"location": {"city": null, "state": "GA", "country": "United States"}}}}]}}, {"id": 36803457, "seedNum": 3, "entrant": {"id": 21396936, "name": "Station", "participants": [{"id": 19668088, "gamerTag": "Station", "prefix": "", "user": {"location": {"city": null, "state": null, "country": "United States"}}, "player": {"id": 3944248, "gamerTag": "Station", "prefix": "", "user": {"location": {"city": null, "state": null, "country": "United States"}}}}]}}, {"id": 36782423, "seedNum": 8, "entrant": {"id": 21381989, "name": "OEG | EggJolk", "participants": [{"id": 19655242, "gamerTag": "EggJolk", "prefix": "OEG", "user": {"location": {"city": "Atlanta", "state": "GA", "country": "United States"}}, "player": {"id": 1009143, "gamerTag": "EggJolk", "prefix": "OEG", "user": {"location": {"city": "Atlanta", "state": "GA", "country": "United States"}}}}]}}, {"id": 36804891, "seedNum": 1, "entrant": {"id": 21398028, "name": "SNRS | SmokePudding", "participants": [{"id": 19668967, "gamerTag": "SmokePudding", "prefix": "SNRS", "user": {"location": {"city": "Riverdale", "state": "GA", "country": "United States"}}, "player": {"id": 281776, "gamerTag": "SmokePudding", "prefix": "", "user": {"location": {"city": "Riverdale", "state": "GA", "country": "United States"}}}}]}}, {"id": 36778013, "seedNum": 5, "entrant": {"id": 21379026, "name": "FB | TerrAko", "participants": [{"id": 19652612, "gamerTag": "TerrAko", "prefix": "FB", "user": {"location": {"city": null, "state": null, "country": "United States"}}, "player": {"id": 3149259, "gamerTag": "TerrAko", "prefix": "FB", "user": {"location": {"city": null, "state": null, "country": "United States"}}}}]}}, {"id": 36803824, "seedNum": 6, "entrant": {"id": 21397194, "name": "Noodle", "participants": [{"id": 19668288, "gamerTag": "Noodle", "prefix": "", "user": {"location": {"city": "McDonough", "state": "GA", "country": "United States"}}, "player": {"id": 3029288, "gamerTag": "Noodle", "prefix": "", "user": {"location": {"city": "McDonough", "state": "GA", "country": "United States"}}}}]}}, {"id": 36556258, "seedNum": 7, "entrant": {"id": 21224364, "name": "ZB | Sanaito", "participants": [{"id": 19518587, "gamerTag": "Sanaito", "prefix": "ZB", "user": {"location": {"city": "Fayetteville", "state": "GA", "country": "United States"}}, "player": {"id": 12761, "gamerTag": "Sanaito", "prefix": "ZB", "user": {"location": {"city": "Fayetteville", "state": "GA", "country": "United States"}}}}]}}, {"id": 36805387, "seedNum": 9, "entrant": {"id": 21398510, "name": "ZB | wolfy", "participants": [{"id": 19668281, "gamerTag": "wolfy", "prefix": "ZB", "user": {"location": {"city": "Tyrone", "state": "GA", "country": "United States"}}, "player": {"id": 295981, "gamerTag": "wolfy", "prefix": "ZB", "user": {"location": {"city": "Tyrone", "state": "GA", "country": "United States"}}}}]}}, {"id": 36804960, "seedNum": 10, "entrant": {"id": 21398099, "name": "xXST4RRS41NTXx", "participants": [{"id": 19669020, "gamerTag": "xXST4RRS41NTXx", "prefix": null, "user": {"location": {"city": "Snellville", "state": "GA", "country": "United States"}}, "player": {"id": 4804435, "gamerTag": "xXST4RRS41NTXx", "prefix": null, "user": {"location": {"city": "Snellville", "state": "GA", "country": "United States"}}}}]}}]}}}