{"event": {"sets": {"pageInfo": {"totalPages": 1, "total": 11}, "nodes": [{"id": "preview_3027645_1_1", "state": 1, "round": 1, "fullRoundText": "Winners Round 1", "completedAt": null, "winnerId": null, "slots": [{"id": "preview_3027645_1_1-0", "entrant": {"id": 21200864, "name": "SaintK", "participants": [{"id": 19497742, "gamerTag": "SaintK", "prefix": "", "user": {"location": {"city": "Atlanta", "state": "GA", "country": "United States"}}, "player": {"id": 4963363, "gamerTag": "SaintK", "prefix": "", "user": {"location": {"city": "Atlanta", "state": "GA", "country": "United States"}}}}]}, "standing": null}, {"id": "preview_3027645_1_1-1", "entrant": {"id": 21200866, "name": "LVL? | VaR", "participants": [{"id": 19497745, "gamerTag": "VaR", "prefix": "LVL?", "user": {"location": {"city": "Atlanta", "state": "GA", "country": "United States"}}, "player": {"id": 329546, "gamerTag": "VaR", "prefix": "GG", "user": {"location": {"city": "Atlanta", "state": "GA", "country": "United States"}}}}]}, "standing": null}], "games": null}, {"id": "preview_3027645_1_3", "state": 1, "round": 1, "fullRoundText": "Winners Round 1", "completedAt": null, "winnerId": null, "slots": [{"id": "preview_3027645_1_3-0", "entrant": {"id": 21200820, "name": "AO5 | ImPhenyl", "participants": [{"id": 19497705, "gamerTag": "ImPhenyl", "prefix": "AO5", "user": {"location": {"city": "Lawrenceville", "state": "GA", "country": "United States"}}, "player": {"id": 3256876, "gamerTag": "ImPhenyl", "prefix": "AO5", "user": {"location": {"city": "Lawrenceville", "state": "GA", "country": "United States"}}}}]}, "standing": null}, {"id": "preview_3027645_1_3-1", "entrant": {"id": 21200897, "name": "CHOsen", "participants": [{"id": 19497772, "gamerTag": "CHOsen", "prefix": null, "user": {"location": {"city": "Atlanta", "state": "GA", "country": "United States"}}, "player": {"id": 1478704, "gamerTag": "CHOsen", "prefix": null, "user": {"location": {"city": "Atlanta", "state": "GA", "country": "United States"}}}}]}, "standing": null}], "games": null}, {"id": "preview_3027645_-4_0", "state": 1, "round": -4, "fullRoundText": "Losers Quarter-Final", "completedAt": null, "winnerId": null, "slots": [{"id": "preview_3027645_-4_0-0", "entrant": null, "standing": null}, {"id": "preview_3027645_-4_0-1", "entrant": null, "standing": null}], "games": null}, {"id": "preview_3027645_-4_1", "state": 1, "round": -4, "fullRoundText": "Losers Quarter-Final", "completedAt": null, "winnerId": null, "slots": [{"id": "preview_3027645_-4_1-0", "entrant": null, "standing": null}, {"id": "preview_3027645_-4_1-1", "entrant": null, "standing": null}], "games": null}, {"id": "preview_3027645_2_0", "state": 1, "round": 2, "fullRoundText": "Winners Semi-Final", "completedAt": null, "winnerId": null, "slots": [{"id": "preview_3027645_2_0-0", "entrant": {"id": 21200800, "name": "4o4 | CoNavySeal", "participants": [{"id": 19497686, "gamerTag": "CoNavySeal", "prefix": "4o4", "user": {"location": {"city": "Alpharetta", "state": "GA", "country": "United States"}}, "player": {"id": 3818891, "gamerTag": "CoNavySeal", "prefix": "4o4", "user": {"location": {"city": "Alpharetta", "state": "GA", "country": "United States"}}}}]}, "standing": null}, {"id": "preview_3027645_2_0-1", "entrant": null, "standing": null}], "games": null}, {"id": "preview_3027645_2_1", "state": 1, "round": 2, "fullRoundText": "Winners Semi-Final", "completedAt": null, "winnerId": null, "slots": [{"id": "preview_3027645_2_1-0", "entrant": {"id": 21200802, "name": "United", "participants": [{"id": 19497687, "gamerTag": "United", "prefix": null, "user": {"location": {"city": "Atlanta", "state": "GA", "country": "United States"}}, "player": {"id": 4416768, "gamerTag": "United", "prefix": null, "user": {"location": {"city": "Atlanta", "state": "GA", "country": "United States"}}}}]}, "standing": null}, {"id": "preview_3027645_2_1-1", "entrant": null, "standing": null}], "games": null}, {"id": "preview_3027645_-5_0", "state": 1, "round": -5, "fullRoundText": "Losers Semi-Final", "completedAt": null, "winnerId": null, "slots": [{"id": "preview_3027645_-5_0-0", "entrant": null, "standing": null}, {"id": "preview_3027645_-5_0-1", "entrant": null, "standing": null}], "games": null}, {"id": "preview_3027645_-6_0", "state": 1, "round": -6, "fullRoundText": "Losers Final", "completedAt": null, "winnerId": null, "slots": [{"id": "preview_3027645_-6_0-0", "entrant": null, "standing": null}, {"id": "preview_3027645_-6_0-1", "entrant": null, "standing": null}], "games": null}, {"id": "preview_3027645_3_0", "state": 1, "round": 3, "fullRoundText": "Winners Final", "completedAt": null, "winnerId": null, "slots": [{"id": "preview_3027645_3_0-0", "entrant": null, "standing": null}, {"id": "preview_3027645_3_0-1", "entrant": null, "standing": null}], "games": null}, {"id": "preview_3027645_4_0", "state": 1, "round": 4, "fullRoundText": "Grand Final", "completedAt": null, "winnerId": null, "slots": [{"id": "preview_3027645_4_0-0", "entrant": null, "standing": null}, {"id": "preview_3027645_4_0-1", "entrant": null, "standing": null}], "games": null}, {"id": "preview_3027645_4_1", "state": 1, "round": 4, "fullRoundText": "Grand Final Reset", "completedAt": null, "winnerId": null, "slots": [{"id": "preview_3027645_4_1-0", "entrant": null, "standing": null}, {"id": "preview_3027645_4_1-1", "entrant": null, "standing": null}], "games": null}]}}}