{"event": {"sets": {"pageInfo": {"totalPages": 3, "total": 35}, "nodes": [{"id": 94546672, "state": 3, "round": -6, "fullRoundText": "Losers Round 3", "completedAt": 1759366825, "winnerId": 21436833, "slots": [{"id": "94546672-0", "entrant": {"id": 21436833, "name": "Boo", "participants": [{"id": 19702463, "gamerTag": "Boo", "prefix": "", "user": {"location": {"city": "Cumming", "state": "GA", "country": "United States"}}, "player": {"id": 2647915, "gamerTag": "Boo", "prefix": "", "user": {"location": {"city": "Cumming", "state": "GA", "country": "United States"}}}}]}, "standing": {"placement": 1, "stats": {"score": {"value": 2}}}}, {"id": "94546672-1", "entrant": {"id": 21436739, "name": "Zarek", "participants": [{"id": 19702380, "gamerTag": "Zarek", "prefix": "", "user": {"location": {"city": "Atlanta", "state": "GA", "country": "United States"}}, "player": {"id": 405682, "gamerTag": "Zarek", "prefix": "", "user": {"location": {"city": "Atlanta", "state": "GA", "country": "United States"}}}}]}, "standing": {"placement": 2, "stats": {"score": {"value": 1}}}}], "games": [{"id": 32999185, "orderNum": 1, "winnerId": 21436833, "entrant1Score": null, "entrant2Score": 0, "stage": null, "selections": [{"id": 48700950, "selectionType": "CHARACTER", "selectionValue": 1315, "entrant": {"id": 21436739}, "character": {"id": 1315, "name": "Pac-Man"}}, {"id": 48700951, "selectionType": "CHARACTER", "selectionValue": 1405, "entrant": {"id": 21436833}, "character": {"id": 1405, "name": "Mr. Game & Watch"}}]}, {"id": 32999186, "orderNum": 2, "winnerId": 21436739, "entrant1Score": 0, "entrant2Score": null, "stage": null, "selections": [{"id": 48700952, "selectionType": "CHARACTER", "selectionValue": 1315, "entrant": {"id": 21436739}, "character": {"id": 1315, "name": "Pac-Man"}}, {"id": 48700953, "selectionType": "CHARACTER", "selectionValue": 1405, "entrant": {"id": 21436833}, "character": {"id": 1405, "name": "Mr. Game & Watch"}}]}, {"id": 32999187, "orderNum": 3, "winnerId": 21436833, "entrant1Score": null, "entrant2Score": 0, "stage": null, "selections": [{"id": 48700954, "selectionType": "CHARACTER", "selectionValue": 1315, "entrant": {"id": 21436739}, "character": {"id": 1315, "name": "Pac-Man"}}, {"id": 48700955, "selectionType": "CHARACTER", "selectionValue": 1405, "entrant": {"id": 21436833}, "character": {"id": 1405, "name": "Mr. Game & Watch"}}]}]}, {"id": 94546673, "state": 3, "round": -6, "fullRoundText": "Losers Round 3", "completedAt": 1759366160, "winnerId": 21432769, "slots": [{"id": "94546673-0", "entrant": {"id": 21435583, "name": "Rain~", "participants": [{"id": 19701397, "gamerTag": "Rain~", "prefix": null, "user": {"location": {"city": "Atlanta", "state": "GA", "country": "United States"}}, "player": {"id": 4240164, "gamerTag": "Rain~", "prefix": null, "user": {"location": {"city": "Atlanta", "state": "GA", "country": "United States"}}}}]}, "standing": {"placement": 2, "stats": {"score": {"value": 0}}}}, {"id": "94546673-1", "entrant": {"id": 21432769, "name": "carlop", "participants": [{"id": 19699360, "gamerTag": "carlop", "prefix": null, "user": {"location": {"city": "Johns Creek", "state": "GA", "country": "United States"}}, "player": {"id": 3431919, "gamerTag": "carlop", "prefix": null, "user": {"location": {"city": "Johns Creek", "state": "GA", "country": "United States"}}}}]}, "standing": {"placement": 1, "stats": {"score": {"value": 2}}}}], "games": [{"id": 32998533, "orderNum": 1, "winnerId": 21432769, "entrant1Score": 0, "entrant2Score": null, "stage": null, "selections": [{"id": 48700078, "selectionType": "CHARACTER", "selectionValue": 1286, "entrant": {"id": 21432769}, "character": {"id": 1286, "name": "Fox"}}, {"id": 48700079, "selectionType": "CHARACTER", "selectionValue": 1326, "entrant": {"id": 21435583}, "character": {"id": 1326, "name": "Roy"}}]}, {"id": 32998534, "orderNum": 2, "winnerId": 21432769, "entrant1Score": 0, "entrant2Score": null, "stage": null, "selections": [{"id": 48700080, "selectionType": "CHARACTER", "selectionValue": 1286, "entrant": {"id": 21432769}, "character": {"id": 1286, "name": "Fox"}}, {"id": 48700081, "selectionType": "CHARACTER", "selectionValue": 1326, "entrant": {"id": 21435583}, "character": {"id": 1326, "name": "Roy"}}]}]}, {"id": 94546674, "state": 3, "round": -6, "fullRoundText": "Losers Round 3", "completedAt": 1759366630, "winnerId": 21437473, "slots": [{"id": "94546674-0", "entrant": {"id": 21437473, "name": "red dot", "participants": [{"id": 19703057, "gamerTag": "red dot", "prefix": "", "user": {"location": {"city": "Milton", "state": "GA", "country": "United States"}}, "player": {"id": 1812177, "gamerTag": "red dot", "prefix": "", "user": {"location": {"city": "Milton", "state": "GA", "country": "United States"}}}}]}, "standing": {"placement": 1, "stats": {"score": {"value": 2}}}}, {"id": "94546674-1", "entrant": {"id": 21433521, "name": "KSU | colorful\u029a\u025e", "participants": [{"id": 19700004, "gamerTag": "colorful\u029a\u025e", "prefix": "KSU", "user": {"location": {"city": "Kennesaw", "state": "GA", "country": "United States"}}, "player": {"id": 1783074, "gamerTag": "colorful\u029a\u025e", "prefix": "KSU | RM", "user": {"location": {"city": "Kennesaw", "state": "GA", "country": "United States"}}}}]}, "standing": {"placement": 2, "stats": {"score": {"value": 0}}}}], "games": [{"id": 32999003, "orderNum": 1, "winnerId": 21437473, "entrant1Score": null, "entrant2Score": 0, "stage": null, "selections": [{"id": 48700708, "selectionType": "CHARACTER", "selectionValue": 1275, "entrant": {"id": 21433521}, "character": {"id": 1275, "name": "Cloud"}}, {"id": 48700709, "selectionType": "CHARACTER", "selectionValue": 1410, "entrant": {"id": 21437473}, "character": {"id": 1410, "name": "Ken"}}]}, {"id": 32999004, "orderNum": 2, "winnerId": 21437473, "entrant1Score": null, "entrant2Score": 0, "stage": null, "selections": [{"id": 48700710, "selectionType": "CHARACTER", "selectionValue": 1279, "entrant": {"id": 21433521}, "character": {"id": 1279, "name": "Diddy Kong"}}, {"id": 48700711, "selectionType": "CHARACTER", "selectionValue": 1410, "entrant": {"id": 21437473}, "character": {"id": 1410, "name": "Ken"}}]}]}, {"id": 94546671, "state": 3, "round": -6, "fullRoundText": "Losers Round 3", "completedAt": 1759365788, "winnerId": 21433509, "slots": [{"id": "94546671-0", "entrant": {"id": 21433509, "name": "KSU|UTO | Whaley", "participants": [{"id": 19699991, "gamerTag": "Whaley", "prefix": "KSU|UTO", "user": {"location": {"city": "Stone Mountain", "state": "GA", "country": "United States"}}, "player": {"id": 2016149, "gamerTag": "Whaley", "prefix": "KSU|UTO|BLZE", "user": {"location": {"city": "Stone Mountain", "state": "GA", "country": "United States"}}}}]}, "standing": {"placement": 1, "stats": {"score": {"value": 2}}}}, {"id": "94546671-1", "entrant": {"id": 21438482, "name": "Cynthia<3", "participants": [{"id": 19703957, "gamerTag": "Cynthia<3", "prefix": "", "user": {"location": {"city": "Little rock", "state": "AR", "country": "United States"}}, "player": {"id": 3132841, "gamerTag": "Cynthia<3", "prefix": "", "user": {"location": {"city": "Little rock", "state": "AR", "country": "United States"}}}}]}, "standing": {"placement": 2, "stats": {"score": {"value": 0}}}}], "games": [{"id": 32998051, "orderNum": 1, "winnerId": 21433509, "entrant1Score": null, "entrant2Score": 0, "stage": null, "selections": [{"id": 48699476, "selectionType": "CHARACTER", "selectionValue": 1777, "entrant": {"id": 21433509}, "character": {"id": 1777, "name": "Sephiroth"}}, {"id": 48699477, "selectionType": "CHARACTER", "selectionValue": 1276, "entrant": {"id": 21438482}, "character": {"id": 1276, "name": "Corrin"}}]}, {"id": 32998052, "orderNum": 2, "winnerId": 21433509, "entrant1Score": null, "entrant2Score": 0, "stage": null, "selections": [{"id": 48699478, "selectionType": "CHARACTER", "selectionValue": 1777, "entrant": {"id": 21433509}, "character": {"id": 1777, "name": "Sephiroth"}}, {"id": 48699479, "selectionType": "CHARACTER", "selectionValue": 1287, "entrant": {"id": 21438482}, "character": {"id": 1287, "name": "Ganondorf"}}]}]}, {"id": 94546667, "state": 3, "round": -5, "fullRoundText": "Losers Round 2", "completedAt": 1759365771, "winnerId": 21438482, "slots": [{"id": "94546667-0", "entrant": {"id": 21438198, "name": "WDKL MTM | D*ron", "participants": [{"id": 19703698, "gamerTag": "D*ron", "prefix": "WDKL MTM", "user": {"location": {"city": "Smyrna", "state": "GA", "country": "United States"}}, "player": {"id": 516047, "gamerTag": "D*ron", "prefix": "WDKL MTM", "user": {"location": {"city": "Smyrna", "state": "GA", "country": "United States"}}}}]}, "standing": {"placement": 2, "stats": {"score": {"value": 1}}}}, {"id": "94546667-1", "entrant": {"id": 21438482, "name": "Cynthia<3", "participants": [{"id": 19703957, "gamerTag": "Cynthia<3", "prefix": "", "user": {"location": {"city": "Little rock", "state": "AR", "country": "United States"}}, "player": {"id": 3132841, "gamerTag": "Cynthia<3", "prefix": "", "user": {"location": {"city": "Little rock", "state": "AR", "country": "United States"}}}}]}, "standing": {"placement": 1, "stats": {"score": {"value": 2}}}}], "games": [{"id": 32998028, "orderNum": 1, "winnerId": 21438482, "entrant1Score": 0, "entrant2Score": null, "stage": null, "selections": [{"id": 48699442, "selectionType": "CHARACTER", "selectionValue": 1332, "entrant": {"id": 21438198}, "character": {"id": 1332, "name": "Sonic"}}, {"id": 48699443, "selectionType": "CHARACTER", "selectionValue": 1276, "entrant": {"id": 21438482}, "character": {"id": 1276, "name": "Corrin"}}]}, {"id": 32998029, "orderNum": 2, "winnerId": 21438198, "entrant1Score": null, "entrant2Score": 0, "stage": null, "selections": [{"id": 48699444, "selectionType": "CHARACTER", "selectionValue": 1332, "entrant": {"id": 21438198}, "character": {"id": 1332, "name": "Sonic"}}, {"id": 48699445, "selectionType": "CHARACTER", "selectionValue": 1276, "entrant": {"id": 21438482}, "character": {"id": 1276, "name": "Corrin"}}]}, {"id": 32998030, "orderNum": 3, "winnerId": 21438482, "entrant1Score": 0, "entrant2Score": null, "stage": null, "selections": [{"id": 48699446, "selectionType": "CHARACTER", "selectionValue": 1332, "entrant": {"id": 21438198}, "character": {"id": 1332, "name": "Sonic"}}, {"id": 48699447, "selectionType": "CHARACTER", "selectionValue": 1276, "entrant": {"id": 21438482}, "character": {"id": 1276, "name": "Corrin"}}]}]}, {"id": 94546668, "state": 3, "round": -5, "fullRoundText": "Losers Round 2", "completedAt": 1759366066, "winnerId": 21436739, "slots": [{"id": "94546668-0", "entrant": {"id": 21423946, "name": "KSU | Scouteka", "participants": [{"id": 19691651, "gamerTag": "Scouteka", "prefix": "KSU", "user": {"location": {"city": "Marietta", "state": "GA", "country": "United States"}}, "player": {"id": 2055957, "gamerTag": "Scouteka", "prefix": "", "user": {"location": {"city": "Marietta", "state": "GA", "country": "United States"}}}}]}, "standing": {"placement": 2, "stats": {"score": {"value": 1}}}}, {"id": "94546668-1", "entrant": {"id": 21436739, "name": "Zarek", "participants": [{"id": 19702380, "gamerTag": "Zarek", "prefix": "", "user": {"location": {"city": "Atlanta", "state": "GA", "country": "United States"}}, "player": {"id": 405682, "gamerTag": "Zarek", "prefix": "", "user": {"location": {"city": "Atlanta", "state": "GA", "country": "United States"}}}}]}, "standing": {"placement": 1, "stats": {"score": {"value": 2}}}}], "games": [{"id": 32998417, "orderNum": 1, "winnerId": 21436739, "entrant1Score": 0, "entrant2Score": 0, "stage": null, "selections": [{"id": 48699934, "selectionType": "CHARACTER", "selectionValue": 1302, "entrant": {"id": 21423946}, "character": {"id": 1302, "name": "Mario"}}, {"id": 48699935, "selectionType": "CHARACTER", "selectionValue": 1338, "entrant": {"id": 21436739}, "character": {"id": 1338, "name": "Yoshi"}}]}, {"id": 32998418, "orderNum": 2, "winnerId": 21423946, "entrant1Score": null, "entrant2Score": 0, "stage": null, "selections": [{"id": 48699936, "selectionType": "CHARACTER", "selectionValue": 1302, "entrant": {"id": 21423946}, "character": {"id": 1302, "name": "Mario"}}, {"id": 48699937, "selectionType": "CHARACTER", "selectionValue": 1315, "entrant": {"id": 21436739}, "character": {"id": 1315, "name": "Pac-Man"}}]}, {"id": 32998419, "orderNum": 3, "winnerId": 21436739, "entrant1Score": 0, "entrant2Score": null, "stage": null, "selections": [{"id": 48699938, "selectionType": "CHARACTER", "selectionValue": 1302, "entrant": {"id": 21423946}, "character": {"id": 1302, "name": "Mario"}}, {"id": 48699939, "selectionType": "CHARACTER", "selectionValue": 1315, "entrant": {"id": 21436739}, "character": {"id": 1315, "name": "Pac-Man"}}]}]}, {"id": 94546669, "state": 3, "round": -5, "fullRoundText": "Losers Round 2", "completedAt": 1759364993, "winnerId": 21432769, "slots": [{"id": "94546669-0", "entrant": {"id": 21434989, "name": "KSU | Subzero", "participants": [{"id": 19700932, "gamerTag": "Subzero", "prefix": "KSU", "user": {"location": {"city": "Acworth", "state": "GA", "country": "United States"}}, "player": {"id": 1808159, "gamerTag": "Subzero", "prefix": "KSU", "user": {"location": {"city": "Acworth", "state": "GA", "country": "United States"}}}}]}, "standing": {"placement": 2, "stats": {"score": {"value": 1}}}}, {"id": "94546669-1", "entrant": {"id": 21432769, "name": "carlop", "participants": [{"id": 19699360, "gamerTag": "carlop", "prefix": null, "user": {"location": {"city": "Johns Creek", "state": "GA", "country": "United States"}}, "player": {"id": 3431919, "gamerTag": "carlop", "prefix": null, "user": {"location": {"city": "Johns Creek", "state": "GA", "country": "United States"}}}}]}, "standing": {"placement": 1, "stats": {"score": {"value": 2}}}}], "games": [{"id": 32997139, "orderNum": 1, "winnerId": 21434989, "entrant1Score": null, "entrant2Score": 0, "stage": null, "selections": [{"id": 48698475, "selectionType": "CHARACTER", "selectionValue": 1286, "entrant": {"id": 21432769}, "character": {"id": 1286, "name": "Fox"}}, {"id": 48698476, "selectionType": "CHARACTER", "selectionValue": 1453, "entrant": {"id": 21434989}, "character": {"id": 1453, "name": "Joker"}}]}, {"id": 32997140, "orderNum": 2, "winnerId": 21432769, "entrant1Score": 0, "entrant2Score": null, "stage": null, "selections": [{"id": 48698477, "selectionType": "CHARACTER", "selectionValue": 1286, "entrant": {"id": 21432769}, "character": {"id": 1286, "name": "Fox"}}, {"id": 48698478, "selectionType": "CHARACTER", "selectionValue": 1453, "entrant": {"id": 21434989}, "character": {"id": 1453, "name": "Joker"}}]}, {"id": 32997141, "orderNum": 3, "winnerId": 21432769, "entrant1Score": 0, "entrant2Score": null, "stage": null, "selections": [{"id": 48698479, "selectionType": "CHARACTER", "selectionValue": 1286, "entrant": {"id": 21432769}, "character": {"id": 1286, "name": "Fox"}}, {"id": 48698480, "selectionType": "CHARACTER", "selectionValue": 1453, "entrant": {"id": 21434989}, "character": {"id": 1453, "name": "Joker"}}]}]}, {"id": 94546670, "state": 3, "round": -5, "fullRoundText": "Losers Round 2", "completedAt": 1759364888, "winnerId": 21433521, "slots": [{"id": "94546670-0", "entrant": {"id": 21433521, "name": "KSU | colorful\u029a\u025e", "participants": [{"id": 19700004, "gamerTag": "colorful\u029a\u025e", "prefix": "KSU", "user": {"location": {"city": "Kennesaw", "state": "GA", "country": "United States"}}, "player": {"id": 1783074, "gamerTag": "colorful\u029a\u025e", "prefix": "KSU | RM", "user": {"location": {"city": "Kennesaw", "state": "GA", "country": "United States"}}}}]}, "standing": {"placement": 1, "stats": {"score": {"value": 2}}}}, {"id": "94546670-1", "entrant": {"id": 21433070, "name": "jack | jazzman", "participants": [{"id": 19699604, "gamerTag": "jazzman", "prefix": "jack", "user": {"location": {"city": "Athens", "state": "GA", "country": "United States"}}, "player": {"id": 3883272, "gamerTag": "jazzman", "prefix": "jack", "user": {"location": {"city": "Athens", "state": "GA", "country": "United States"}}}}]}, "standing": {"placement": 2, "stats": {"score": {"value": 0}}}}], "games": [{"id": 32996973, "orderNum": 1, "winnerId": 21433521, "entrant1Score": null, "entrant2Score": 0, "stage": null, "selections": [{"id": 48698291, "selectionType": "CHARACTER", "selectionValue": 1305, "entrant": {"id": 21433070}, "character": {"id": 1305, "name": "Mega Man"}}, {"id": 48698292, "selectionType": "CHARACTER", "selectionValue": 1275, "entrant": {"id": 21433521}, "character": {"id": 1275, "name": "Cloud"}}]}, {"id": 32996974, "orderNum": 2, "winnerId": 21433521, "entrant1Score": null, "entrant2Score": 0, "stage": null, "selections": [{"id": 48698293, "selectionType": "CHARACTER", "selectionValue": 1305, "entrant": {"id": 21433070}, "character": {"id": 1305, "name": "Mega Man"}}, {"id": 48698294, "selectionType": "CHARACTER", "selectionValue": 1275, "entrant": {"id": 21433521}, "character": {"id": 1275, "name": "Cloud"}}]}]}, {"id": 94546602, "state": 3, "round": 2, "fullRoundText": "Winners Round 2", "completedAt": 1759363687, "winnerId": 21429030, "slots": [{"id": "94546602-0", "entrant": {"id": 21429030, "name": "GUMP2 | JankTrees!", "participants": [{"id": 19696134, "gamerTag": "JankTrees!", "prefix": "GUMP2", "user": {"location": {"city": "Cartersville", "state": "GA", "country": "United States"}}, "player": {"id": 35695, "gamerTag": "JankTrees!", "prefix": "GUMP2", "user": {"location": {"city": "Cartersville", "state": "GA", "country": "United States"}}}}]}, "standing": {"placement": 1, "stats": {"score": {"value": 2}}}}, {"id": "94546602-1", "entrant": {"id": 21433070, "name": "jack | jazzman", "participants": [{"id": 19699604, "gamerTag": "jazzman", "prefix": "jack", "user": {"location": {"city": "Athens", "state": "GA", "country": "United States"}}, "player": {"id": 3883272, "gamerTag": "jazzman", "prefix": "jack", "user": {"location": {"city": "Athens", "state": "GA", "country": "United States"}}}}]}, "standing": {"placement": 2, "stats": {"score": {"value": 0}}}}], "games": [{"id": 32995468, "orderNum": 1, "winnerId": 21429030, "entrant1Score": null, "entrant2Score": 0, "stage": null, "selections": [{"id": 48696647, "selectionType": "CHARACTER", "selectionValue": 1338, "entrant": {"id": 21429030}, "character": {"id": 1338, "name": "Yoshi"}}, {"id": 48696648, "selectionType": "CHARACTER", "selectionValue": 1305, "entrant": {"id": 21433070}, "character": {"id": 1305, "name": "Mega Man"}}]}, {"id": 32995469, "orderNum": 2, "winnerId": 21429030, "entrant1Score": null, "entrant2Score": 0, "stage": null, "selections": [{"id": 48696649, "selectionType": "CHARACTER", "selectionValue": 1338, "entrant": {"id": 21429030}, "character": {"id": 1338, "name": "Yoshi"}}, {"id": 48696650, "selectionType": "CHARACTER", "selectionValue": 1305, "entrant": {"id": 21433070}, "character": {"id": 1305, "name": "Mega Man"}}]}]}, {"id": 94546603, "state": 3, "round": 2, "fullRoundText": "Winners Round 2", "completedAt": 1759363295, "winnerId": 21436833, "slots": [{"id": "94546603-0", "entrant": {"id": 21436833, "name": "Boo", "participants": [{"id": 19702463, "gamerTag": "Boo", "prefix": "", "user": {"location": {"city": "Cumming", "state": "GA", "country": "United States"}}, "player": {"id": 2647915, "gamerTag": "Boo", "prefix": "", "user": {"location": {"city": "Cumming", "state": "GA", "country": "United States"}}}}]}, "standing": {"placement": 1, "stats": {"score": {"value": 2}}}}, {"id": "94546603-1", "entrant": {"id": 21433521, "name": "KSU | colorful\u029a\u025e", "participants": [{"id": 19700004, "gamerTag": "colorful\u029a\u025e", "prefix": "KSU", "user": {"location": {"city": "Kennesaw", "state": "GA", "country": "United States"}}, "player": {"id": 1783074, "gamerTag": "colorful\u029a\u025e", "prefix": "KSU | RM", "user": {"location": {"city": "Kennesaw", "state": "GA", "country": "United States"}}}}]}, "standing": {"placement": 2, "stats": {"score": {"value": 0}}}}], "games": [{"id": 32994880, "orderNum": 1, "winnerId": 21436833, "entrant1Score": null, "entrant2Score": 0, "stage": null, "selections": [{"id": 48695851, "selectionType": "CHARACTER", "selectionValue": 1275, "entrant": {"id": 21433521}, "character": {"id": 1275, "name": "Cloud"}}, {"id": 48695852, "selectionType": "CHARACTER", "selectionValue": 1405, "entrant": {"id": 21436833}, "character": {"id": 1405, "name": "Mr. Game & Watch"}}]}, {"id": 32994881, "orderNum": 2, "winnerId": 21436833, "entrant1Score": null, "entrant2Score": 0, "stage": null, "selections": [{"id": 48695853, "selectionType": "CHARACTER", "selectionValue": 1275, "entrant": {"id": 21433521}, "character": {"id": 1275, "name": "Cloud"}}, {"id": 48695854, "selectionType": "CHARACTER", "selectionValue": 1405, "entrant": {"id": 21436833}, "character": {"id": 1405, "name": "Mr. Game & Watch"}}]}]}, {"id": 94546604, "state": 3, "round": 2, "fullRoundText": "Winners Round 2", "completedAt": 1759362859, "winnerId": 21437010, "slots": [{"id": "94546604-0", "entrant": {"id": 21432769, "name": "carlop", "participants": [{"id": 19699360, "gamerTag": "carlop", "prefix": null, "user": {"location": {"city": "Johns Creek", "state": "GA", "country": "United States"}}, "player": {"id": 3431919, "gamerTag": "carlop", "prefix": null, "user": {"location": {"city": "Johns Creek", "state": "GA", "country": "United States"}}}}]}, "standing": {"placement": 2, "stats": {"score": {"value": 1}}}}, {"id": "94546604-1", "entrant": {"id": 21437010, "name": "Arthr0pod", "participants": [{"id": 19702627, "gamerTag": "Arthr0pod", "prefix": null, "user": {"location": {"city": null, "state": null, "country": null}}, "player": {"id": 1723681, "gamerTag": "Arthr0pod", "prefix": null, "user": {"location": {"city": null, "state": null, "country": null}}}}]}, "standing": {"placement": 1, "stats": {"score": {"value": 2}}}}], "games": [{"id": 32994746, "orderNum": 1, "winnerId": 21432769, "entrant1Score": 0, "entrant2Score": 0, "stage": null, "selections": [{"id": 48695624, "selectionType": "CHARACTER", "selectionValue": 1286, "entrant": {"id": 21432769}, "character": {"id": 1286, "name": "Fox"}}, {"id": 48695625, "selectionType": "CHARACTER", "selectionValue": 1530, "entrant": {"id": 21437010}, "character": {"id": 1530, "name": "Banjo-Kazooie"}}]}, {"id": 32994747, "orderNum": 2, "winnerId": 21437010, "entrant1Score": 0, "entrant2Score": null, "stage": null, "selections": [{"id": 48695626, "selectionType": "CHARACTER", "selectionValue": 1286, "entrant": {"id": 21432769}, "character": {"id": 1286, "name": "Fox"}}, {"id": 48695627, "selectionType": "CHARACTER", "selectionValue": 1530, "entrant": {"id": 21437010}, "character": {"id": 1530, "name": "Banjo-Kazooie"}}]}, {"id": 32994748, "orderNum": 3, "winnerId": 21437010, "entrant1Score": 0, "entrant2Score": 0, "stage": null, "selections": [{"id": 48695628, "selectionType": "CHARACTER", "selectionValue": 1286, "entrant": {"id": 21432769}, "character": {"id": 1286, "name": "Fox"}}, {"id": 48695629, "selectionType": "CHARACTER", "selectionValue": 1530, "entrant": {"id": 21437010}, "character": {"id": 1530, "name": "Banjo-Kazooie"}}]}]}, {"id": 94546605, "state": 3, "round": 2, "fullRoundText": "Winners Round 2", "completedAt": 1759363214, "winnerId": 21433509, "slots": [{"id": "94546605-0", "entrant": {"id": 21433509, "name": "KSU|UTO | Whaley", "participants": [{"id": 19699991, "gamerTag": "Whaley", "prefix": "KSU|UTO", "user": {"location": {"city": "Stone Mountain", "state": "GA", "country": "United States"}}, "player": {"id": 2016149, "gamerTag": "Whaley", "prefix": "KSU|UTO|BLZE", "user": {"location": {"city": "Stone Mountain", "state": "GA", "country": "United States"}}}}]}, "standing": {"placement": 1, "stats": {"score": {"value": 2}}}}, {"id": "94546605-1", "entrant": {"id": 21434989, "name": "KSU | Subzero", "participants": [{"id": 19700932, "gamerTag": "Subzero", "prefix": "KSU", "user": {"location": {"city": "Acworth", "state": "GA", "country": "United States"}}, "player": {"id": 1808159, "gamerTag": "Subzero", "prefix": "KSU", "user": {"location": {"city": "Acworth", "state": "GA", "country": "United States"}}}}]}, "standing": {"placement": 2, "stats": {"score": {"value": 1}}}}], "games": [{"id": 32994981, "orderNum": 1, "winnerId": 21434989, "entrant1Score": 0, "entrant2Score": 0, "stage": null, "selections": [{"id": 48696009, "selectionType": "CHARACTER", "selectionValue": 1777, "entrant": {"id": 21433509}, "character": {"id": 1777, "name": "Sephiroth"}}, {"id": 48696010, "selectionType": "CHARACTER", "selectionValue": 1795, "entrant": {"id": 21434989}, "character": {"id": 1795, "name": "Pyra & Mythra"}}]}, {"id": 32994982, "orderNum": 2, "winnerId": 21433509, "entrant1Score": null, "entrant2Score": 0, "stage": null, "selections": [{"id": 48696011, "selectionType": "CHARACTER", "selectionValue": 1777, "entrant": {"id": 21433509}, "character": {"id": 1777, "name": "Sephiroth"}}, {"id": 48696012, "selectionType": "CHARACTER", "selectionValue": 1795, "entrant": {"id": 21434989}, "character": {"id": 1795, "name": "Pyra & Mythra"}}]}, {"id": 32994983, "orderNum": 3, "winnerId": 21433509, "entrant1Score": null, "entrant2Score": 0, "stage": null, "selections": [{"id": 48696013, "selectionType": "CHARACTER", "selectionValue": 1777, "entrant": {"id": 21433509}, "character": {"id": 1777, "name": "Sephiroth"}}, {"id": 48696014, "selectionType": "CHARACTER", "selectionValue": 1795, "entrant": {"id": 21434989}, "character": {"id": 1795, "name": "Pyra & Mythra"}}]}]}, {"id": 94546606, "state": 3, "round": 2, "fullRoundText": "Winners Round 2", "completedAt": 1759364131, "winnerId": 21438068, "slots": [{"id": "94546606-0", "entrant": {"id": 21438068, "name": "MTM | Soldier", "participants": [{"id": 19703587, "gamerTag": "Soldier", "prefix": "MTM", "user": {"location": {"city": "Marietta", "state": "GA", "country": "United States"}}, "player": {"id": 2571045, "gamerTag": "Soldier", "prefix": "MTM", "user": {"location": {"city": "Marietta", "state": "GA", "country": "United States"}}}}]}, "standing": {"placement": 1, "stats": {"score": {"value": 2}}}}, {"id": "94546606-1", "entrant": {"id": 21436739, "name": "Zarek", "participants": [{"id": 19702380, "gamerTag": "Zarek", "prefix": "", "user": {"location": {"city": "Atlanta", "state": "GA", "country": "United States"}}, "player": {"id": 405682, "gamerTag": "Zarek", "prefix": "", "user": {"location": {"city": "Atlanta", "state": "GA", "country": "United States"}}}}]}, "standing": {"placement": 2, "stats": {"score": {"value": 0}}}}], "games": [{"id": 32996006, "orderNum": 1, "winnerId": 21438068, "entrant1Score": null, "entrant2Score": 0, "stage": null, "selections": [{"id": 48697254, "selectionType": "CHARACTER", "selectionValue": 1338, "entrant": {"id": 21436739}, "character": {"id": 1338, "name": "Yoshi"}}, {"id": 48697255, "selectionType": "CHARACTER", "selectionValue": 1286, "entrant": {"id": 21438068}, "character": {"id": 1286, "name": "Fox"}}]}, {"id": 32996007, "orderNum": 2, "winnerId": 21438068, "entrant1Score": null, "entrant2Score": 0, "stage": null, "selections": [{"id": 48697256, "selectionType": "CHARACTER", "selectionValue": 1315, "entrant": {"id": 21436739}, "character": {"id": 1315, "name": "Pac-Man"}}, {"id": 48697257, "selectionType": "CHARACTER", "selectionValue": 1286, "entrant": {"id": 21438068}, "character": {"id": 1286, "name": "Fox"}}]}]}, {"id": 94546607, "state": 3, "round": 2, "fullRoundText": "Winners Round 2", "completedAt": 1759364557, "winnerId": 21437473, "slots": [{"id": "94546607-0", "entrant": {"id": 21437473, "name": "red dot", "participants": [{"id": 19703057, "gamerTag": "red dot", "prefix": "", "user": {"location": {"city": "Milton", "state": "GA", "country": "United States"}}, "player": {"id": 1812177, "gamerTag": "red dot", "prefix": "", "user": {"location": {"city": "Milton", "state": "GA", "country": "United States"}}}}]}, "standing": {"placement": 1, "stats": {"score": {"value": 2}}}}, {"id": "94546607-1", "entrant": {"id": 21423946, "name": "KSU | Scouteka", "participants": [{"id": 19691651, "gamerTag": "Scouteka", "prefix": "KSU", "user": {"location": {"city": "Marietta", "state": "GA", "country": "United States"}}, "player": {"id": 2055957, "gamerTag": "Scouteka", "prefix": "", "user": {"location": {"city": "Marietta", "state": "GA", "country": "United States"}}}}]}, "standing": {"placement": 2, "stats": {"score": {"value": 0}}}}], "games": [{"id": 32996377, "orderNum": 1, "winnerId": 21437473, "entrant1Score": null, "entrant2Score": 0, "stage": null, "selections": [{"id": 48697635, "selectionType": "CHARACTER", "selectionValue": 1302, "entrant": {"id": 21423946}, "character": {"id": 1302, "name": "Mario"}}, {"id": 48697636, "selectionType": "CHARACTER", "selectionValue": 1410, "entrant": {"id": 21437473}, "character": {"id": 1410, "name": "Ken"}}]}, {"id": 32996378, "orderNum": 2, "winnerId": 21437473, "entrant1Score": null, "entrant2Score": 0, "stage": null, "selections": [{"id": 48697637, "selectionType": "CHARACTER", "selectionValue": 1302, "entrant": {"id": 21423946}, "character": {"id": 1302, "name": "Mario"}}, {"id": 48697638, "selectionType": "CHARACTER", "selectionValue": 1410, "entrant": {"id": 21437473}, "character": {"id": 1410, "name": "Ken"}}]}]}, {"id": 94546608, "state": 3, "round": 2, "fullRoundText": "Winners Round 2", "completedAt": 1759363079, "winnerId": 21435583, "slots": [{"id": "94546608-0", "entrant": {"id": 21435583, "name": "Rain~", "participants": [{"id": 19701397, "gamerTag": "Rain~", "prefix": null, "user": {"location": {"city": "Atlanta", "state": "GA", "country": "United States"}}, "player": {"id": 4240164, "gamerTag": "Rain~", "prefix": null, "user": {"location": {"city": "Atlanta", "state": "GA", "country": "United States"}}}}]}, "standing": {"placement": 1, "stats": {"score": {"value": 2}}}}, {"id": "94546608-1", "entrant": {"id": 21438482, "name": "Cynthia<3", "participants": [{"id": 19703957, "gamerTag": "Cynthia<3", "prefix": "", "user": {"location": {"city": "Little rock", "state": "AR", "country": "United States"}}, "player": {"id": 3132841, "gamerTag": "Cynthia<3", "prefix": "", "user": {"location": {"city": "Little rock", "state": "AR", "country": "United States"}}}}]}, "standing": {"placement": 2, "stats": {"score": {"value": 0}}}}], "games": [{"id": 32994896, "orderNum": 1, "winnerId": 21435583, "entrant1Score": null, "entrant2Score": 0, "stage": null, "selections": [{"id": 48695881, "selectionType": "CHARACTER", "selectionValue": 1329, "entrant": {"id": 21435583}, "character": {"id": 1329, "name": "Sheik"}}, {"id": 48695882, "selectionType": "CHARACTER", "selectionValue": 1276, "entrant": {"id": 21438482}, "character": {"id": 1276, "name": "Corrin"}}]}, {"id": 32994897, "orderNum": 2, "winnerId": 21435583, "entrant1Score": null, "entrant2Score": 0, "stage": null, "selections": [{"id": 48695883, "selectionType": "CHARACTER", "selectionValue": 1329, "entrant": {"id": 21435583}, "character": {"id": 1329, "name": "Sheik"}}, {"id": 48695884, "selectionType": "CHARACTER", "selectionValue": 1276, "entrant": {"id": 21438482}, "character": {"id": 1276, "name": "Corrin"}}]}]}]}}}