{"phase": {"seeds": {"pageInfo": {"totalPages": 1, "total": 3}, "nodes": [{"id": 35817673, "seedNum": 1, "entrant": {"id": 20759646, "name": "ND1 | Kirino", "participants": [{"id": 19105333, "gamerTag": "Kirino", "prefix": "ND1", "user": {"location": {"city": "Paris", "state": null, "country": "France"}}, "player": {"id": 6134, "gamerTag": "Kirino", "prefix": "ND1", "user": {"location": {"city": "Paris", "state": null, "country": "France"}}}}]}}, {"id": 35820312, "seedNum": 2, "entrant": {"id": 20761748, "name": "ZB | Sanaito", "participants": [{"id": 19102585, "gamerTag": "Sanaito", "prefix": "ZB", "user": {"location": {"city": "Fayetteville", "state": "GA", "country": "United States"}}, "player": {"id": 12761, "gamerTag": "Sanaito", "prefix": "ZB", "user": {"location": {"city": "Fayetteville", "state": "GA", "country": "United States"}}}}]}}, {"id": 35821569, "seedNum": 3, "entrant": {"id": 20762857, "name": "ZB | Gerard", "participants": [{"id": 19108455, "gamerTag": "Gerard", "prefix": "ZB", "user": {"location": {"city": "Atlanta", "state": "GA", "country": "United States"}}, "player": {"id": 325542, "gamerTag": "Gerard", "prefix": "ZB", "user": {"location": {"city": "Atlanta", "state": "GA", "country": "United States"}}}}]}}]}}}