{"event": {"sets": {"pageInfo": {"totalPages": 5, "total": 71}, "nodes": [{"id": 91927169, "state": 1, "round": 2, "fullRoundText": "Round 2", "completedAt": null, "winnerId": null, "slots": [{"id": "91927169-0", "entrant": {"id": 20291080, "name": "omega", "participants": [{"id": 18700557, "gamerTag": "omega", "prefix": null, "user": {"location": {"city": "Suwanee", "state": "GA", "country": "United States"}}, "player": {"id": 24638, "gamerTag": "omega", "prefix": "", "user": {"location": {"city": "Suwanee", "state": "GA", "country": "United States"}}}}]}, "standing": {"placement": 2, "stats": {"score": {"value": null}}}}, {"id": "91927169-1", "entrant": {"id": 19419288, "name": "SmU5h | Shaine", "participants": [{"id": 17930184, "gamerTag": "Shaine", "prefix": "SmU5h", "user": {"location": {"city": "Leesburg", "state": "GA", "country": "United States"}}, "player": {"id": 1482843, "gamerTag": "Shaine", "prefix": "SmU5h", "user": {"location": {"city": "Leesburg", "state": "GA", "country": "United States"}}}}]}, "standing": {"placement": 2, "stats": {"score": {"value": null}}}}], "games": null}, {"id": 91930178, "state": 1, "round": 2, "fullRoundText": "Round 2", "completedAt": null, "winnerId": null, "slots": [{"id": "91930178-0", "entrant": {"id": 20275380, "name": "DGS | spickles", "participants": [{"id": 18687955, "gamerTag": "spickles", "prefix": "DGS", "user": {"location": {"city": null, "state": null, "country": "United States"}}, "player": {"id": 1154793, "gamerTag": "spickles", "prefix": "DGS", "user": {"location": {"city": null, "state": null, "country": "United States"}}}}]}, "standing": {"placement": 2, "stats": {"score": {"value": null}}}}, {"id": "91930178-1", "entrant": {"id": 20490611, "name": "Tobe", "participants": [{"id": 18869309, "gamerTag": "Tobe", "prefix": null, "user": {"location": {"city": "Buford", "state": "GA", "country": "United States"}}, "player": {"id": 1646132, "gamerTag": "Tobe", "prefix": "", "user": {"location": {"city": "Buford", "state": "GA", "country": "United States"}}}}]}, "standing": {"placement": 2, "stats": {"score": {"value": null}}}}], "games": null}, {"id": 91933813, "state": 1, "round": 2, "fullRoundText": "Round 2", "completedAt": null, "winnerId": null, "slots": [{"id": "91933813-0", "entrant": {"id": 20490610, "name": "Jahzz0", "participants": [{"id": 18869308, "gamerTag": "Jahzz0", "prefix": null, "user": {"location": {"city": null, "state": null, "country": "United States"}}, "player": {"id": 946548, "gamerTag": "Jahzz0", "prefix": "DTN", "user": {"location": {"city": null, "state": null, "country": "United States"}}}}]}, "standing": {"placement": 2, "stats": {"score": {"value": null}}}}, {"id": "91933813-1", "entrant": {"id": 20699873, "name": "Barbashop", "participants": [{"id": 19051396, "gamerTag": "Barbashop", "prefix": null, "user": {"location": {"city": null, "state": null, "country": null}}, "player": {"id": 2537853, "gamerTag": "Barbashop", "prefix": "", "user": {"location": {"city": null, "state": null, "country": null}}}}]}, "standing": {"placement": 2, "stats": {"score": {"value": null}}}}], "games": null}, {"id": 91931699, "state": 1, "round": 2, "fullRoundText": "Round 2", "completedAt": null, "winnerId": null, "slots": [{"id": "91931699-0", "entrant": {"id": 19424349, "name": "Maverick", "participants": [{"id": 17934648, "gamerTag": "Maverick", "prefix": null, "user": {"location": {"city": "Columbus", "state": "GA", "country": "United States"}}, "player": {"id": 1058777, "gamerTag": "Maverick", "prefix": "", "user": {"location": {"city": "Columbus", "state": "GA", "country": "United States"}}}}]}, "standing": {"placement": 2, "stats": {"score": {"value": null}}}}, {"id": "91931699-1", "entrant": {"id": 19419263, "name": "Ave~", "participants": [{"id": 17930157, "gamerTag": "Ave~", "prefix": "", "user": {"location": {"city": null, "state": null, "country": null}}, "player": {"id": 38830, "gamerTag": "Ave~", "prefix": "", "user": {"location": {"city": null, "state": null, "country": null}}}}]}, "standing": {"placement": 2, "stats": {"score": {"value": null}}}}], "games": null}, {"id": 91930179, "state": 1, "round": 2, "fullRoundText": "Round 2", "completedAt": null, "winnerId": null, "slots": [{"id": "91930179-0", "entrant": {"id": 19419266, "name": "ThatSoopGuy", "participants": [{"id": 17930161, "gamerTag": "ThatSoopGuy", "prefix": null, "user": {"location": {"city": "Lawrenceville", "state": "GA", "country": "United States"}}, "player": {"id": 2253726, "gamerTag": "ThatSoopGuy", "prefix": null, "user": {"location": {"city": "Lawrenceville", "state": "GA", "country": "United States"}}}}]}, "standing": {"placement": 2, "stats": {"score": {"value": null}}}}, {"id": "91930179-1", "entrant": {"id": 20699862, "name": "GUMP2 | Sakana", "participants": [{"id": 19051389, "gamerTag": "Sakana", "prefix": "GUMP2", "user": {"location": {"city": null, "state": null, "country": "United States"}}, "player": {"id": 1045059, "gamerTag": "Sakana", "prefix": "GUMP2", "user": {"location": {"city": null, "state": null, "country": "United States"}}}}]}, "standing": {"placement": 2, "stats": {"score": {"value": null}}}}], "games": null}, {"id": 91933814, "state": 1, "round": 2, "fullRoundText": "Round 2", "completedAt": null, "winnerId": null, "slots": [{"id": "91933814-0", "entrant": {"id": 20275377, "name": "Krishna", "participants": [{"id": 18687952, "gamerTag": "Krishna", "prefix": null, "user": {"location": {"city": null, "state": null, "country": "United States"}}, "player": {"id": 2282949, "gamerTag": "Krishna", "prefix": "417", "user": {"location": {"city": null, "state": null, "country": "United States"}}}}]}, "standing": {"placement": 2, "stats": {"score": {"value": null}}}}, {"id": "91933814-1", "entrant": {"id": 20275373, "name": "Kr!stal:0", "participants": [{"id": 18687949, "gamerTag": "Kr!stal:0", "prefix": null, "user": {"location": {"city": "Lawrenceville", "state": "GA", "country": "United States"}}, "player": {"id": 2409815, "gamerTag": "AO ASHI SEASON 2 2026", "prefix": "RM | GUMP2", "user": {"location": {"city": "Lawrenceville", "state": "GA", "country": "United States"}}}}]}, "standing": {"placement": 2, "stats": {"score": {"value": null}}}}], "games": null}, {"id": 91927170, "state": 1, "round": 2, "fullRoundText": "Round 2", "completedAt": null, "winnerId": null, "slots": [{"id": "91927170-0", "entrant": {"id": 19419264, "name": "ImPhenyl", "participants": [{"id": 17930159, "gamerTag": "ImPhenyl", "prefix": null, "user": {"location": {"city": "Lawrenceville", "state": "GA", "country": "United States"}}, "player": {"id": 3256876, "gamerTag": "ImPhenyl", "prefix": "AO5", "user": {"location": {"city": "Lawrenceville", "state": "GA", "country": "United States"}}}}]}, "standing": {"placement": 2, "stats": {"score": {"value": null}}}}, {"id": "91927170-1", "entrant": {"id": 19419260, "name": "ROB Slayer", "participants": [{"id": 17930153, "gamerTag": "ROB Slayer", "prefix": null, "user": {"location": {"city": "Atlanta", "state": "GA", "country": "United States"}}, "player": {"id": 2414381, "gamerTag": "ROB Slayer", "prefix": "Hell Mode", "user": {"location": {"city": "Atlanta", "state": "GA", "country": "United States"}}}}]}, "standing": {"placement": 2, "stats": {"score": {"value": null}}}}], "games": null}, {"id": 91927171, "state": 1, "round": 3, "fullRoundText": "Round 3", "completedAt": null, "winnerId": null, "slots": [{"id": "91927171-0", "entrant": {"id": 20291080, "name": "omega", "participants": [{"id": 18700557, "gamerTag": "omega", "prefix": null, "user": {"location": {"city": "Suwanee", "state": "GA", "country": "United States"}}, "player": {"id": 24638, "gamerTag": "omega", "prefix": "", "user": {"location": {"city": "Suwanee", "state": "GA", "country": "United States"}}}}]}, "standing": {"placement": 2, "stats": {"score": {"value": null}}}}, {"id": "91927171-1", "entrant": {"id": 19419260, "name": "ROB Slayer", "participants": [{"id": 17930153, "gamerTag": "ROB Slayer", "prefix": null, "user": {"location": {"city": "Atlanta", "state": "GA", "country": "United States"}}, "player": {"id": 2414381, "gamerTag": "ROB Slayer", "prefix": "Hell Mode", "user": {"location": {"city": "Atlanta", "state": "GA", "country": "United States"}}}}]}, "standing": {"placement": 2, "stats": {"score": {"value": null}}}}], "games": null}, {"id": 91931700, "state": 1, "round": 3, "fullRoundText": "Round 3", "completedAt": null, "winnerId": null, "slots": [{"id": "91931700-0", "entrant": {"id": 20490609, "name": "Osh9", "participants": [{"id": 18869307, "gamerTag": "Osh9", "prefix": null, "user": {"location": {"city": "Lubbock", "state": "TX", "country": "United States"}}, "player": {"id": 1215186, "gamerTag": "Osh9", "prefix": "LCU", "user": {"location": {"city": "Lubbock", "state": "TX", "country": "United States"}}}}]}, "standing": {"placement": 2, "stats": {"score": {"value": null}}}}, {"id": "91931700-1", "entrant": {"id": 19419263, "name": "Ave~", "participants": [{"id": 17930157, "gamerTag": "Ave~", "prefix": "", "user": {"location": {"city": null, "state": null, "country": null}}, "player": {"id": 38830, "gamerTag": "Ave~", "prefix": "", "user": {"location": {"city": null, "state": null, "country": null}}}}]}, "standing": {"placement": 2, "stats": {"score": {"value": null}}}}], "games": null}, {"id": 91930180, "state": 1, "round": 3, "fullRoundText": "Round 3", "completedAt": null, "winnerId": null, "slots": [{"id": "91930180-0", "entrant": {"id": 20275380, "name": "DGS | spickles", "participants": [{"id": 18687955, "gamerTag": "spickles", "prefix": "DGS", "user": {"location": {"city": null, "state": null, "country": "United States"}}, "player": {"id": 1154793, "gamerTag": "spickles", "prefix": "DGS", "user": {"location": {"city": null, "state": null, "country": "United States"}}}}]}, "standing": {"placement": 2, "stats": {"score": {"value": null}}}}, {"id": "91930180-1", "entrant": {"id": 20699862, "name": "GUMP2 | Sakana", "participants": [{"id": 19051389, "gamerTag": "Sakana", "prefix": "GUMP2", "user": {"location": {"city": null, "state": null, "country": "United States"}}, "player": {"id": 1045059, "gamerTag": "Sakana", "prefix": "GUMP2", "user": {"location": {"city": null, "state": null, "country": "United States"}}}}]}, "standing": {"placement": 2, "stats": {"score": {"value": null}}}}], "games": null}, {"id": 91933815, "state": 1, "round": 3, "fullRoundText": "Round 3", "completedAt": null, "winnerId": null, "slots": [{"id": "91933815-0", "entrant": {"id": 20490610, "name": "Jahzz0", "participants": [{"id": 18869308, "gamerTag": "Jahzz0", "prefix": null, "user": {"location": {"city": null, "state": null, "country": "United States"}}, "player": {"id": 946548, "gamerTag": "Jahzz0", "prefix": "DTN", "user": {"location": {"city": null, "state": null, "country": "United States"}}}}]}, "standing": {"placement": 2, "stats": {"score": {"value": null}}}}, {"id": "91933815-1", "entrant": {"id": 20275373, "name": "Kr!stal:0", "participants": [{"id": 18687949, "gamerTag": "Kr!stal:0", "prefix": null, "user": {"location": {"city": "Lawrenceville", "state": "GA", "country": "United States"}}, "player": {"id": 2409815, "gamerTag": "AO ASHI SEASON 2 2026", "prefix": "RM | GUMP2", "user": {"location": {"city": "Lawrenceville", "state": "GA", "country": "United States"}}}}]}, "standing": {"placement": 2, "stats": {"score": {"value": null}}}}], "games": null}]}}}