{"event": {"sets": {"pageInfo": {"totalPages": 9, "total": 123}, "nodes": [{"id": 92091584, "state": 3, "round": 3, "fullRoundText": "Winners Round 3", "completedAt": 1754013148, "winnerId": 20853046, "slots": [{"id": "92091584-0", "entrant": {"id": 20852779, "name": "GUMP2 | Eleven", "participants": [{"id": 19188857, "gamerTag": "Eleven", "prefix": "GUMP2", "user": {"location": {"city": null, "state": null, "country": null}}, "player": {"id": 2348605, "gamerTag": "Ryu from Streets", "prefix": "GUMP2", "user": {"location": {"city": null, "state": null, "country": null}}}}]}, "standing": {"placement": 2, "stats": {"score": {"value": 0}}}}, {"id": "92091584-1", "entrant": {"id": 20853046, "name": "Kailen", "participants": [{"id": 19189087, "gamerTag": "Kailen", "prefix": "", "user": {"location": {"city": "Atlanta", "state": "GA", "country": "United States"}}, "player": {"id": 1647157, "gamerTag": "Kailen", "prefix": "", "user": {"location": {"city": "Atlanta", "state": "GA", "country": "United States"}}}}]}, "standing": {"placement": 1, "stats": {"score": {"value": 2}}}}], "games": [{"id": 31646768, "orderNum": 1, "winnerId": 20853046, "entrant1Score": 0, "entrant2Score": null, "stage": null, "selections": [{"id": 46589605, "selectionType": "CHARACTER", "selectionValue": 1539, "entrant": {"id": 20852779}, "character": {"id": 1539, "name": "Byleth"}}, {"id": 46589606, "selectionType": "CHARACTER", "selectionValue": 1453, "entrant": {"id": 20853046}, "character": {"id": 1453, "name": "Joker"}}]}, {"id": 31646769, "orderNum": 2, "winnerId": 20853046, "entrant1Score": 0, "entrant2Score": null, "stage": null, "selections": [{"id": 46589607, "selectionType": "CHARACTER", "selectionValue": 1539, "entrant": {"id": 20852779}, "character": {"id": 1539, "name": "Byleth"}}, {"id": 46589608, "selectionType": "CHARACTER", "selectionValue": 1453, "entrant": {"id": 20853046}, "character": {"id": 1453, "name": "Joker"}}]}]}, {"id": 92091698, "state": 3, "round": -6, "fullRoundText": "Losers Round 4", "completedAt": 1754015507, "winnerId": 20796667, "slots": [{"id": "92091698-0", "entrant": {"id": 20796667, "name": "iNGenius", "participants": [{"id": 19139613, "gamerTag": "iNGenius", "prefix": "", "user": {"location": {"city": null, "state": null, "country": null}}, "player": {"id": 3194293, "gamerTag": "iNGenius", "prefix": "", "user": {"location": {"city": null, "state": null, "country": null}}}}]}, "standing": {"placement": 1, "stats": {"score": {"value": 2}}}}, {"id": "92091698-1", "entrant": {"id": 20853526, "name": "Rain~", "participants": [{"id": 19189536, "gamerTag": "Rain~", "prefix": null, "user": {"location": {"city": "Atlanta", "state": "GA", "country": "United States"}}, "player": {"id": 4240164, "gamerTag": "Rain~", "prefix": null, "user": {"location": {"city": "Atlanta", "state": "GA", "country": "United States"}}}}]}, "standing": {"placement": 2, "stats": {"score": {"value": 1}}}}], "games": null}, {"id": 92091699, "state": 3, "round": -6, "fullRoundText": "Losers Round 4", "completedAt": 1754014443, "winnerId": 20853871, "slots": [{"id": "92091699-0", "entrant": {"id": 20851402, "name": "Coven | Shelley", "participants": [{"id": 19187522, "gamerTag": "Shelley", "prefix": "Coven", "user": {"location": {"city": "Norcross", "state": "MS", "country": "United States"}}, "player": {"id": 4726196, "gamerTag": "REM!!!", "prefix": "Coven", "user": {"location": {"city": "Norcross", "state": "MS", "country": "United States"}}}}]}, "standing": {"placement": 2, "stats": {"score": {"value": 1}}}}, {"id": "92091699-1", "entrant": {"id": 20853871, "name": "Barbashop", "participants": [{"id": 19189831, "gamerTag": "Barbashop", "prefix": "", "user": {"location": {"city": null, "state": null, "country": null}}, "player": {"id": 2537853, "gamerTag": "Barbashop", "prefix": "", "user": {"location": {"city": null, "state": null, "country": null}}}}]}, "standing": {"placement": 1, "stats": {"score": {"value": 2}}}}], "games": null}, {"id": 92091700, "state": 3, "round": -6, "fullRoundText": "Losers Round 4", "completedAt": 1754014113, "winnerId": 20844264, "slots": [{"id": "92091700-0", "entrant": {"id": 20844264, "name": "ROK | Karu!", "participants": [{"id": 19180983, "gamerTag": "Karu!", "prefix": "ROK", "user": {"location": {"city": null, "state": null, "country": "United States"}}, "player": {"id": 1964751, "gamerTag": "Super Awesome Duck", "prefix": "ROK", "user": {"location": {"city": null, "state": null, "country": "United States"}}}}]}, "standing": {"placement": 1, "stats": {"score": {"value": 2}}}}, {"id": "92091700-1", "entrant": {"id": 20849587, "name": "LBE | Savant", "participants": [{"id": 19185809, "gamerTag": "Savant", "prefix": "LBE", "user": {"location": {"city": "Athens", "state": "GA", "country": "United States"}}, "player": {"id": 1944044, "gamerTag": "Savant", "prefix": "LBE | CC", "user": {"location": {"city": "Athens", "state": "GA", "country": "United States"}}}}]}, "standing": {"placement": 2, "stats": {"score": {"value": 0}}}}], "games": null}, {"id": 92091701, "state": 3, "round": -6, "fullRoundText": "Losers Round 4", "completedAt": 1754014427, "winnerId": 20851783, "slots": [{"id": "92091701-0", "entrant": {"id": 20853301, "name": "RM | GUMP2 | Kr!stal:0", "participants": [{"id": 19189326, "gamerTag": "Kr!stal:0", "prefix": "RM | GUMP2", "user": {"location": {"city": "Lawrenceville", "state": "GA", "country": "United States"}}, "player": {"id": 2409815, "gamerTag": "AO ASHI SEASON 2 2026", "prefix": "RM | GUMP2", "user": {"location": {"city": "Lawrenceville", "state": "GA", "country": "United States"}}}}]}, "standing": {"placement": 2, "stats": {"score": {"value": 1}}}}, {"id": "92091701-1", "entrant": {"id": 20851783, "name": "Cobalt", "participants": [{"id": 19187901, "gamerTag": "Cobalt", "prefix": null, "user": {"location": {"city": "Gainesville", "state": "GA", "country": "United States"}}, "player": {"id": 181792, "gamerTag": "Cobalt", "prefix": null, "user": {"location": {"city": "Gainesville", "state": "GA", "country": "United States"}}}}]}, "standing": {"placement": 1, "stats": {"score": {"value": 2}}}}], "games": null}, {"id": 92091702, "state": 3, "round": -6, "fullRoundText": "Losers Round 4", "completedAt": 1754014409, "winnerId": 20852779, "slots": [{"id": "92091702-0", "entrant": {"id": 20852779, "name": "GUMP2 | Eleven", "participants": [{"id": 19188857, "gamerTag": "Eleven", "prefix": "GUMP2", "user": {"location": {"city": null, "state": null, "country": null}}, "player": {"id": 2348605, "gamerTag": "Ryu from Streets", "prefix": "GUMP2", "user": {"location": {"city": null, "state": null, "country": null}}}}]}, "standing": {"placement": 1, "stats": {"score": {"value": 2}}}}, {"id": "92091702-1", "entrant": {"id": 20853040, "name": "GUMP2 | Spider", "participants": [{"id": 19189080, "gamerTag": "Spider", "prefix": "GUMP2", "user": {"location": {"city": "Atlanta", "state": "GA", "country": "United States"}}, "player": {"id": 691176, "gamerTag": "Spider", "prefix": "GUMP2", "user": {"location": {"city": "Atlanta", "state": "GA", "country": "United States"}}}}]}, "standing": {"placement": 2, "stats": {"score": {"value": 1}}}}], "games": null}, {"id": 92091703, "state": 3, "round": -6, "fullRoundText": "Losers Round 4", "completedAt": 1754014671, "winnerId": 20847513, "slots": [{"id": "92091703-0", "entrant": {"id": 20854266, "name": "ROK | Sneaky Pocket Golem", "participants": [{"id": 19190157, "gamerTag": "Sneaky Pocket Golem", "prefix": "ROK", "user": {"location": {"city": "Miami", "state": "FL", "country": "United States"}}, "player": {"id": 1042374, "gamerTag": "Riku", "prefix": "ROK", "user": {"location": {"city": "Miami", "state": "FL", "country": "United States"}}}}]}, "standing": {"placement": 2, "stats": {"score": {"value": 1}}}}, {"id": "92091703-1", "entrant": {"id": 20847513, "name": "MilesisBae", "participants": [{"id": 19183854, "gamerTag": "MilesisBae", "prefix": "", "user": {"location": {"city": "Richmond", "state": "VA", "country": "United States"}}, "player": {"id": 1218383, "gamerTag": "MilesisBae", "prefix": "", "user": {"location": {"city": "Richmond", "state": "VA", "country": "United States"}}}}]}, "standing": {"placement": 1, "stats": {"score": {"value": 2}}}}], "games": null}, {"id": 92091704, "state": 3, "round": -6, "fullRoundText": "Losers Round 4", "completedAt": 1754014811, "winnerId": 20854024, "slots": [{"id": "92091704-0", "entrant": {"id": 20854024, "name": "KumaDusk", "participants": [{"id": 19189966, "gamerTag": "KumaDusk", "prefix": "", "user": {"location": {"city": "Lawrenceville", "state": "GA", "country": "United States"}}, "player": {"id": 253909, "gamerTag": "KumaDusk", "prefix": "", "user": {"location": {"city": "Lawrenceville", "state": "GA", "country": "United States"}}}}]}, "standing": {"placement": 1, "stats": {"score": {"value": 2}}}}, {"id": "92091704-1", "entrant": {"id": 20853422, "name": "WFF | Olive", "participants": [{"id": 19189439, "gamerTag": "Olive", "prefix": "WFF", "user": {"location": {"city": "Atlanta", "state": "GA", "country": "United States"}}, "player": {"id": 1810274, "gamerTag": "Planet Of Da", "prefix": "WeFarmFrank", "user": {"location": {"city": "Atlanta", "state": "GA", "country": "United States"}}}}]}, "standing": {"placement": 2, "stats": {"score": {"value": 0}}}}], "games": null}, {"id": 92091705, "state": 3, "round": -6, "fullRoundText": "Losers Round 4", "completedAt": 1754014206, "winnerId": 20845560, "slots": [{"id": "92091705-0", "entrant": {"id": 20845560, "name": "GUMP2 | JankTrees!", "participants": [{"id": 19182198, "gamerTag": "JankTrees!", "prefix": "GUMP2", "user": {"location": {"city": "Cartersville", "state": "GA", "country": "United States"}}, "player": {"id": 35695, "gamerTag": "JankTrees!", "prefix": "GUMP2", "user": {"location": {"city": "Cartersville", "state": "GA", "country": "United States"}}}}]}, "standing": {"placement": 1, "stats": {"score": {"value": 2}}}}, {"id": "92091705-1", "entrant": {"id": 20845877, "name": "GUMP2 | STiCK", "participants": [{"id": 19182495, "gamerTag": "STiCK", "prefix": "GUMP2", "user": {"location": {"city": "Woodstock", "state": "GA", "country": "United States"}}, "player": {"id": 282674, "gamerTag": "STiCK", "prefix": "GUMP2", "user": {"location": {"city": "Woodstock", "state": "GA", "country": "United States"}}}}]}, "standing": {"placement": 2, "stats": {"score": {"value": 0}}}}], "games": null}, {"id": 92091690, "state": 3, "round": -5, "fullRoundText": "Losers Round 3", "completedAt": 1754014354, "winnerId": 20853526, "slots": [{"id": "92091690-0", "entrant": {"id": 20853526, "name": "Rain~", "participants": [{"id": 19189536, "gamerTag": "Rain~", "prefix": null, "user": {"location": {"city": "Atlanta", "state": "GA", "country": "United States"}}, "player": {"id": 4240164, "gamerTag": "Rain~", "prefix": null, "user": {"location": {"city": "Atlanta", "state": "GA", "country": "United States"}}}}]}, "standing": {"placement": 1, "stats": {"score": {"value": 2}}}}, {"id": "92091690-1", "entrant": {"id": 20853383, "name": "red dot", "participants": [{"id": 19189403, "gamerTag": "red dot", "prefix": "", "user": {"location": {"city": "Milton", "state": "GA", "country": "United States"}}, "player": {"id": 1812177, "gamerTag": "red dot", "prefix": "", "user": {"location": {"city": "Milton", "state": "GA", "country": "United States"}}}}]}, "standing": {"placement": 2, "stats": {"score": {"value": 1}}}}], "games": null}, {"id": 92091691, "state": 3, "round": -5, "fullRoundText": "Losers Round 3", "completedAt": 1754013301, "winnerId": 20853871, "slots": [{"id": "92091691-0", "entrant": {"id": 20853871, "name": "Barbashop", "participants": [{"id": 19189831, "gamerTag": "Barbashop", "prefix": "", "user": {"location": {"city": null, "state": null, "country": null}}, "player": {"id": 2537853, "gamerTag": "Barbashop", "prefix": "", "user": {"location": {"city": null, "state": null, "country": null}}}}]}, "standing": {"placement": 1, "stats": {"score": {"value": 2}}}}, {"id": "92091691-1", "entrant": {"id": 20853043, "name": "Andromeda", "participants": [{"id": 19189082, "gamerTag": "Andromeda", "prefix": "", "user": {"location": {"city": "Columbus", "state": "GA", "country": "United States"}}, "player": {"id": 1458791, "gamerTag": "Andromeda", "prefix": "", "user": {"location": {"city": "Columbus", "state": "GA", "country": "United States"}}}}]}, "standing": {"placement": 2, "stats": {"score": {"value": 0}}}}], "games": null}, {"id": 92091692, "state": 3, "round": -5, "fullRoundText": "Losers Round 3", "completedAt": 1754013506, "winnerId": 20849587, "slots": [{"id": "92091692-0", "entrant": {"id": 20849587, "name": "LBE | Savant", "participants": [{"id": 19185809, "gamerTag": "Savant", "prefix": "LBE", "user": {"location": {"city": "Athens", "state": "GA", "country": "United States"}}, "player": {"id": 1944044, "gamerTag": "Savant", "prefix": "LBE | CC", "user": {"location": {"city": "Athens", "state": "GA", "country": "United States"}}}}]}, "standing": {"placement": 1, "stats": {"score": {"value": 2}}}}, {"id": "92091692-1", "entrant": {"id": 20847298, "name": "cO | Netherlord64", "participants": [{"id": 19183708, "gamerTag": "Netherlord64", "prefix": "cO", "user": {"location": {"city": "Roswell", "state": "GA", "country": "United States"}}, "player": {"id": 4586226, "gamerTag": "Netherlord64", "prefix": "", "user": {"location": {"city": "Roswell", "state": "GA", "country": "United States"}}}}]}, "standing": {"placement": 2, "stats": {"score": {"value": 0}}}}], "games": null}, {"id": 92091693, "state": 3, "round": -5, "fullRoundText": "Losers Round 3", "completedAt": 1754013012, "winnerId": 20851783, "slots": [{"id": "92091693-0", "entrant": {"id": 20851783, "name": "Cobalt", "participants": [{"id": 19187901, "gamerTag": "Cobalt", "prefix": null, "user": {"location": {"city": "Gainesville", "state": "GA", "country": "United States"}}, "player": {"id": 181792, "gamerTag": "Cobalt", "prefix": null, "user": {"location": {"city": "Gainesville", "state": "GA", "country": "United States"}}}}]}, "standing": {"placement": 1, "stats": {"score": {"value": 2}}}}, {"id": "92091693-1", "entrant": {"id": 20853063, "name": "Kasane | Teto", "participants": [{"id": 19189103, "gamerTag": "Teto", "prefix": "Kasane", "user": {"location": {"city": "Hanover", "state": "IN", "country": "United States"}}, "player": {"id": 2683548, "gamerTag": "Teto", "prefix": "Kasane", "user": {"location": {"city": "Hanover", "state": "IN", "country": "United States"}}}}]}, "standing": {"placement": 2, "stats": {"score": {"value": 0}}}}], "games": null}, {"id": 92091694, "state": 3, "round": -5, "fullRoundText": "Losers Round 3", "completedAt": 1754013214, "winnerId": 20853040, "slots": [{"id": "92091694-0", "entrant": {"id": 20853040, "name": "GUMP2 | Spider", "participants": [{"id": 19189080, "gamerTag": "Spider", "prefix": "GUMP2", "user": {"location": {"city": "Atlanta", "state": "GA", "country": "United States"}}, "player": {"id": 691176, "gamerTag": "Spider", "prefix": "GUMP2", "user": {"location": {"city": "Atlanta", "state": "GA", "country": "United States"}}}}]}, "standing": {"placement": 1, "stats": {"score": {"value": 2}}}}, {"id": "92091694-1", "entrant": {"id": 20852752, "name": "Whaley", "participants": [{"id": 19188833, "gamerTag": "Whaley", "prefix": "", "user": {"location": {"city": "Stone Mountain", "state": "GA", "country": "United States"}}, "player": {"id": 2016149, "gamerTag": "Whaley", "prefix": "KSU|UTO|BLZE", "user": {"location": {"city": "Stone Mountain", "state": "GA", "country": "United States"}}}}]}, "standing": {"placement": 2, "stats": {"score": {"value": 0}}}}], "games": [{"id": 31646941, "orderNum": 1, "winnerId": 20853040, "entrant1Score": null, "entrant2Score": 0, "stage": null, "selections": [{"id": 46589903, "selectionType": "CHARACTER", "selectionValue": 1777, "entrant": {"id": 20852752}, "character": {"id": 1777, "name": "Sephiroth"}}, {"id": 46589904, "selectionType": "CHARACTER", "selectionValue": 1333, "entrant": {"id": 20853040}, "character": {"id": 1333, "name": "Toon Link"}}]}, {"id": 31646942, "orderNum": 2, "winnerId": 20853040, "entrant1Score": null, "entrant2Score": 0, "stage": null, "selections": [{"id": 46589905, "selectionType": "CHARACTER", "selectionValue": 1777, "entrant": {"id": 20852752}, "character": {"id": 1777, "name": "Sephiroth"}}, {"id": 46589906, "selectionType": "CHARACTER", "selectionValue": 1333, "entrant": {"id": 20853040}, "character": {"id": 1333, "name": "Toon Link"}}]}]}, {"id": 92091695, "state": 3, "round": -5, "fullRoundText": "Losers Round 3", "completedAt": 1754013248, "winnerId": 20847513, "slots": [{"id": "92091695-0", "entrant": {"id": 20847513, "name": "MilesisBae", "participants": [{"id": 19183854, "gamerTag": "MilesisBae", "prefix": "", "user": {"location": {"city": "Richmond", "state": "VA", "country": "United States"}}, "player": {"id": 1218383, "gamerTag": "MilesisBae", "prefix": "", "user": {"location": {"city": "Richmond", "state": "VA", "country": "United States"}}}}]}, "standing": {"placement": 1, "stats": {"score": {"value": 2}}}}, {"id": "92091695-1", "entrant": {"id": 20847672, "name": "FAT | Phantomtheif", "participants": [{"id": 19183969, "gamerTag": "Phantomtheif", "prefix": "FAT", "user": {"location": {"city": "Columbus", "state": "AL", "country": "United States"}}, "player": {"id": 469237, "gamerTag": "Phantomtheif", "prefix": "FAT", "user": {"location": {"city": "Columbus", "state": "AL", "country": "United States"}}}}]}, "standing": {"placement": 2, "stats": {"score": {"value": 1}}}}], "games": null}]}}}