{"phase": {"seeds": {"pageInfo": {"totalPages": 1, "total": 28}, "nodes": [{"id": 36302793, "seedNum": 1, "entrant": {"id": 21055806, "name": "DDee", "participants": [{"id": 19368632, "gamerTag": "DDee", "prefix": null, "user": {"location": {"city": "Dacula", "state": "GA", "country": "United States"}}, "player": {"id": 1480393, "gamerTag": "DDee", "prefix": "SS", "user": {"location": {"city": "Dacula", "state": "GA", "country": "United States"}}}}]}}, {"id": 36260367, "seedNum": 11, "entrant": {"id": 21026483, "name": "Akamos", "participants": [{"id": 19342009, "gamerTag": "Akamos", "prefix": null, "user": {"location": {"city": "Kennesaw", "state": "GA", "country": "United States"}}, "player": {"id": 2233683, "gamerTag": "Akamos", "prefix": "UGA", "user": {"location": {"city": "Kennesaw", "state": "GA", "country": "United States"}}}}]}}, {"id": 36270048, "seedNum": 7, "entrant": {"id": 21033021, "name": "Impluvio", "participants": [{"id": 19348129, "gamerTag": "Impluvio", "prefix": "", "user": {"location": {"city": null, "state": null, "country": null}}, "player": {"id": 2175953, "gamerTag": "Impluvio", "prefix": "417", "user": {"location": {"city": null, "state": null, "country": null}}}}]}}, {"id": 36260410, "seedNum": 2, "entrant": {"id": 21026521, "name": "Cobalt", "participants": [{"id": 19342039, "gamerTag": "Cobalt", "prefix": null, "user": {"location": {"city": "Gainesville", "state": "GA", "country": "United States"}}, "player": {"id": 181792, "gamerTag": "Cobalt", "prefix": null, "user": {"location": {"city": "Gainesville", "state": "GA", "country": "United States"}}}}]}}, {"id": 36304117, "seedNum": 5, "entrant": {"id": 21056746, "name": "417 | OneHundred", "participants": [{"id": 19369387, "gamerTag": "OneHundred", "prefix": "417", "user": {"location": {"city": null, "state": null, "country": "United States"}}, "player": {"id": 2266676, "gamerTag": "OneHundred", "prefix": "417", "user": {"location": {"city": null, "state": null, "country": "United States"}}}}]}}, {"id": 36289257, "seedNum": 15, "entrant": {"id": 21046075, "name": "PitchingAce33", "participants": [{"id": 19360135, "gamerTag": "PitchingAce33", "prefix": "", "user": {"location": {"city": null, "state": "GA", "country": "United States"}}, "player": {"id": 1198327, "gamerTag": "PitchingAce33", "prefix": "", "user": {"location": {"city": null, "state": "GA", "country": "United States"}}}}]}}, {"id": 36306024, "seedNum": 3, "entrant": {"id": 21058158, "name": "GUMP2 | STiCK", "participants": [{"id": 19370645, "gamerTag": "STiCK", "prefix": "GUMP2", "user": {"location": {"city": "Woodstock", "state": "GA", "country": "United States"}}, "player": {"id": 282674, "gamerTag": "STiCK", "prefix": "GUMP2", "user": {"location": {"city": "Woodstock", "state": "GA", "country": "United States"}}}}]}}, {"id": 36272962, "seedNum": 6, "entrant": {"id": 21035109, "name": "Copper", "participants": [{"id": 19350094, "gamerTag": "Copper", "prefix": "", "user": {"location": {"city": "Athens", "state": "GA", "country": "United States"}}, "player": {"id": 1288306, "gamerTag": "Copper", "prefix": "417", "user": {"location": {"city": "Athens", "state": "GA", "country": "United States"}}}}]}}, {"id": 36260462, "seedNum": 4, "entrant": {"id": 21026575, "name": "Nia", "participants": [{"id": 19342093, "gamerTag": "Nia", "prefix": null, "user": {"location": {"city": "Buford", "state": "GA", "country": "United States"}}, "player": {"id": 428070, "gamerTag": "Nia", "prefix": null, "user": {"location": {"city": "Buford", "state": "GA", "country": "United States"}}}}]}}, {"id": 36260387, "seedNum": 8, "entrant": {"id": 21026504, "name": "417 | Krishna", "participants": [{"id": 19342024, "gamerTag": "Krishna", "prefix": "417", "user": {"location": {"city": null, "state": null, "country": "United States"}}, "player": {"id": 2282949, "gamerTag": "Krishna", "prefix": "417", "user": {"location": {"city": null, "state": null, "country": "United States"}}}}]}}, {"id": 36260478, "seedNum": 13, "entrant": {"id": 21026592, "name": "Sol | Spruce", "participants": [{"id": 19342110, "gamerTag": "Spruce", "prefix": "Sol", "user": {"location": {"city": null, "state": null, "country": "United States"}}, "player": {"id": 1100077, "gamerTag": "Spruce", "prefix": "Sol", "user": {"location": {"city": null, "state": null, "country": "United States"}}}}]}}, {"id": 36310553, "seedNum": 16, "entrant": {"id": 21061552, "name": "Flooper", "participants": [{"id": 19373719, "gamerTag": "Flooper", "prefix": null, "user": {"location": {"city": "Commerce", "state": "GA", "country": "United States"}}, "player": {"id": 2670562, "gamerTag": "Flooper", "prefix": null, "user": {"location": {"city": "Commerce", "state": "GA", "country": "United States"}}}}]}}, {"id": 36260583, "seedNum": 10, "entrant": {"id": 21026689, "name": "LBE | Savant", "participants": [{"id": 19342182, "gamerTag": "Savant", "prefix": "LBE", "user": {"location": {"city": "Athens", "state": "GA", "country": "United States"}}, "player": {"id": 1944044, "gamerTag": "Savant", "prefix": "LBE | CC", "user": {"location": {"city": "Athens", "state": "GA", "country": "United States"}}}}]}}, {"id": 36261021, "seedNum": 14, "entrant": {"id": 21027049, "name": "The | Restof87", "participants": [{"id": 19342516, "gamerTag": "Restof87", "prefix": "The", "user": {"location": {"city": "Athens", "state": "GA", "country": "United States"}}, "player": {"id": 4301990, "gamerTag": "Restof87", "prefix": "The", "user": {"location": {"city": "Athens", "state": "GA", "country": "United States"}}}}]}}, {"id": 36311038, "seedNum": 18, "entrant": {"id": 21061858, "name": "UGA | Gene", "participants": [{"id": 19373999, "gamerTag": "Gene", "prefix": "UGA", "user": {"location": {"city": "Athens", "state": null, "country": "United States"}}, "player": {"id": 2440362, "gamerTag": "Gene", "prefix": "UGA", "user": {"location": {"city": "Athens", "state": null, "country": "United States"}}}}]}}, {"id": 36280215, "seedNum": 19, "entrant": {"id": 21040188, "name": "Omar", "participants": [{"id": 19354655, "gamerTag": "Omar", "prefix": "", "user": {"location": {"city": null, "state": "GA", "country": "United States"}}, "player": {"id": 4300029, "gamerTag": "Omar", "prefix": "", "user": {"location": {"city": null, "state": "GA", "country": "United States"}}}}]}}, {"id": 36306487, "seedNum": 9, "entrant": {"id": 21058559, "name": "Daiyan", "participants": [{"id": 19371001, "gamerTag": "Daiyan", "prefix": "", "user": {"location": {"city": "Lawrenceville", "state": "GA", "country": "United States"}}, "player": {"id": 1059715, "gamerTag": "Daiyan", "prefix": "", "user": {"location": {"city": "Lawrenceville", "state": "GA", "country": "United States"}}}}]}}, {"id": 36260924, "seedNum": 12, "entrant": {"id": 21026953, "name": "UGA | JD-DK", "participants": [{"id": 19342407, "gamerTag": "JD-DK", "prefix": "UGA", "user": {"location": {"city": null, "state": null, "country": null}}, "player": {"id": 1319951, "gamerTag": "JD-DK", "prefix": "UGA", "user": {"location": {"city": null, "state": null, "country": null}}}}]}}, {"id": 36308541, "seedNum": 17, "entrant": {"id": 21060066, "name": "ThatSoopGuy", "participants": [{"id": 19372257, "gamerTag": "ThatSoopGuy", "prefix": null, "user": {"location": {"city": "Lawrenceville", "state": "GA", "country": "United States"}}, "player": {"id": 2253726, "gamerTag": "ThatSoopGuy", "prefix": null, "user": {"location": {"city": "Lawrenceville", "state": "GA", "country": "United States"}}}}]}}, {"id": 36305988, "seedNum": 20, "entrant": {"id": 21058121, "name": "417 | Luke Dryewalker", "participants": [{"id": 19370610, "gamerTag": "Luke Dryewalker", "prefix": "417", "user": {"location": {"city": "Athens", "state": "GA", "country": "United States"}}, "player": {"id": 3630114, "gamerTag": "Yharon", "prefix": "417", "user": {"location": {"city": "Athens", "state": "GA", "country": "United States"}}}}]}}, {"id": 36302755, "seedNum": 21, "entrant": {"id": 21055768, "name": "zors3y", "participants": [{"id": 19368601, "gamerTag": "zors3y", "prefix": null, "user": {"location": {"city": "Eatonton", "state": "GA", "country": "United States"}}, "player": {"id": 994539, "gamerTag": "zors3y", "prefix": "417", "user": {"location": {"city": "Eatonton", "state": "GA", "country": "United States"}}}}]}}, {"id": 36303378, "seedNum": 22, "entrant": {"id": 21056332, "name": "Vertebrae", "participants": [{"id": 19369036, "gamerTag": "Vertebrae", "prefix": "", "user": {"location": {"city": "Athens", "state": "GA", "country": "United States"}}, "player": {"id": 1583946, "gamerTag": "Vertebrae", "prefix": "CC", "user": {"location": {"city": "Athens", "state": "GA", "country": "United States"}}}}]}}, {"id": 36260662, "seedNum": 25, "entrant": {"id": 21026733, "name": "ThePromisedHat", "participants": [{"id": 19342219, "gamerTag": "ThePromisedHat", "prefix": null, "user": {"location": {"city": "Bishop", "state": "GA", "country": "United States"}}, "player": {"id": 4261821, "gamerTag": "ThePromisedHat", "prefix": null, "user": {"location": {"city": "Bishop", "state": "GA", "country": "United States"}}}}]}}, {"id": 36296351, "seedNum": 26, "entrant": {"id": 21050839, "name": "N/A | Tazor", "participants": [{"id": 19364243, "gamerTag": "Tazor", "prefix": "N/A", "user": {"location": {"city": "Ochlocknee", "state": "GA", "country": "United States"}}, "player": {"id": 2733424, "gamerTag": "Tazor", "prefix": "N/A", "user": {"location": {"city": "Ochlocknee", "state": "GA", "country": "United States"}}}}]}}, {"id": 36265187, "seedNum": 23, "entrant": {"id": 21029664, "name": "UGA | | samtwo", "participants": [{"id": 19344935, "gamerTag": "samtwo", "prefix": "UGA |", "user": {"location": {"city": "Athens", "state": "GA", "country": "United States"}}, "player": {"id": 1246662, "gamerTag": "samtwo", "prefix": "UGA |", "user": {"location": {"city": "Athens", "state": "GA", "country": "United States"}}}}]}}, {"id": 36305333, "seedNum": 24, "entrant": {"id": 21057639, "name": "FunkPelican", "participants": [{"id": 19370153, "gamerTag": "FunkPelican", "prefix": "", "user": {"location": {"city": null, "state": null, "country": "United States"}}, "player": {"id": 2769174, "gamerTag": "FunkPelican", "prefix": "", "user": {"location": {"city": null, "state": null, "country": "United States"}}}}]}}, {"id": 36309025, "seedNum": 27, "entrant": {"id": 21060453, "name": "Infinite_Radiance", "participants": [{"id": 19372623, "gamerTag": "Infinite_Radiance", "prefix": "", "user": {"location": {"city": null, "state": "GA", "country": "United States"}}, "player": {"id": 4926508, "gamerTag": "Infinite_Radiance", "prefix": "CC UGA", "user": {"location": {"city": null, "state": "GA", "country": "United States"}}}}]}}, {"id": 36310144, "seedNum": 28, "entrant": {"id": 21061155, "name": "Vermelho", "participants": [{"id": 19373347, "gamerTag": "Vermelho", "prefix": "", "user": {"location": {"city": null, "state": "GA", "country": "United States"}}, "player": {"id": 4300811, "gamerTag": "Vermelho", "prefix": "", "user": {"location": {"city": null, "state": "GA", "country": "United States"}}}}]}}]}}}