{"event": {"sets": {"pageInfo": {"totalPages": 6, "total": 78}, "nodes": [{"id": 92912604, "state": 3, "round": 1, "fullRoundText": "Winners Round 1", "completedAt": 1755822909, "winnerId": 21034943, "slots": [{"id": "92912604-0", "entrant": {"id": 21034943, "name": "UTO | Whaley", "participants": [{"id": 19349929, "gamerTag": "Whaley", "prefix": "UTO", "user": {"location": {"city": "Stone Mountain", "state": "GA", "country": "United States"}}, "player": {"id": 2016149, "gamerTag": "Whaley", "prefix": "KSU|UTO|BLZE", "user": {"location": {"city": "Stone Mountain", "state": "GA", "country": "United States"}}}}]}, "standing": {"placement": 1, "stats": {"score": {"value": 2}}}}, {"id": "92912604-1", "entrant": {"id": 21034114, "name": "Carracoastal", "participants": [{"id": 19349182, "gamerTag": "Carracoastal", "prefix": "", "user": {"location": {"city": "Atlanta", "state": "GA", "country": "United States"}}, "player": {"id": 2957113, "gamerTag": "Carracoastal", "prefix": "", "user": {"location": {"city": "Atlanta", "state": "GA", "country": "United States"}}}}]}, "standing": {"placement": 2, "stats": {"score": {"value": 1}}}}], "games": null}, {"id": 92912608, "state": 3, "round": 1, "fullRoundText": "Winners Round 1", "completedAt": 1755822748, "winnerId": 21034385, "slots": [{"id": "92912608-0", "entrant": {"id": 21034385, "name": "AO5 | Korok", "participants": [{"id": 19349434, "gamerTag": "Korok", "prefix": "AO5", "user": {"location": {"city": "Decatur", "state": "GA", "country": "United States"}}, "player": {"id": 2697934, "gamerTag": "Korok", "prefix": "AO5", "user": {"location": {"city": "Decatur", "state": "GA", "country": "United States"}}}}]}, "standing": {"placement": 1, "stats": {"score": {"value": 2}}}}, {"id": "92912608-1", "entrant": {"id": 21034153, "name": "Pleeploploop", "participants": [{"id": 19349213, "gamerTag": "Pleeploploop", "prefix": "", "user": {"location": {"city": "Snellville", "state": null, "country": "United States"}}, "player": {"id": 1739676, "gamerTag": "Pleeploploop", "prefix": "", "user": {"location": {"city": "Snellville", "state": null, "country": "United States"}}}}]}, "standing": {"placement": 2, "stats": {"score": {"value": 0}}}}], "games": null}, {"id": 92912612, "state": 3, "round": 1, "fullRoundText": "Winners Round 1", "completedAt": 1755822708, "winnerId": 21034148, "slots": [{"id": "92912612-0", "entrant": {"id": 21034148, "name": "carlop", "participants": [{"id": 19349209, "gamerTag": "carlop", "prefix": null, "user": {"location": {"city": "Johns Creek", "state": "GA", "country": "United States"}}, "player": {"id": 3431919, "gamerTag": "carlop", "prefix": null, "user": {"location": {"city": "Johns Creek", "state": "GA", "country": "United States"}}}}]}, "standing": {"placement": 1, "stats": {"score": {"value": 2}}}}, {"id": "92912612-1", "entrant": {"id": 21032692, "name": "AP | EdiblePine", "participants": [{"id": 19347815, "gamerTag": "EdiblePine", "prefix": "AP", "user": {"location": {"city": "Atlanta", "state": "GA", "country": "United States"}}, "player": {"id": 1648278, "gamerTag": "EdiblePine", "prefix": "AP", "user": {"location": {"city": "Atlanta", "state": "GA", "country": "United States"}}}}]}, "standing": {"placement": 2, "stats": {"score": {"value": 0}}}}], "games": null}]}}}