{"phase": {"seeds": {"pageInfo": {"totalPages": 1, "total": 5}, "nodes": [{"id": 36070883, "seedNum": 1, "entrant": {"id": 20910187, "name": "KSU | colorful\u029a\u025e", "participants": [{"id": 19239168, "gamerTag": "colorful\u029a\u025e", "prefix": "KSU", "user": {"location": {"city": "Kennesaw", "state": "GA", "country": "United States"}}, "player": {"id": 1783074, "gamerTag": "colorful\u029a\u025e", "prefix": "KSU | RM", "user": {"location": {"city": "Kennesaw", "state": "GA", "country": "United States"}}}}]}}, {"id": 36070905, "seedNum": 2, "entrant": {"id": 20910204, "name": "SaggyMilkJug", "participants": [{"id": 19239185, "gamerTag": "SaggyMilkJug", "prefix": "", "user": {"location": {"city": "Atlanta", "state": "GA", "country": "United States"}}, "player": {"id": 4651404, "gamerTag": "SaggyMilkJug", "prefix": "", "user": {"location": {"city": "Atlanta", "state": "GA", "country": "United States"}}}}]}}, {"id": 36071135, "seedNum": 4, "entrant": {"id": 20910375, "name": "Galactic", "participants": [{"id": 19239330, "gamerTag": "Galactic", "prefix": "", "user": {"location": {"city": null, "state": "GA", "country": "United States"}}, "player": {"id": 4019219, "gamerTag": "Galactic", "prefix": "", "user": {"location": {"city": null, "state": "GA", "country": "United States"}}}}]}}, {"id": 36071148, "seedNum": 3, "entrant": {"id": 20910388, "name": "Idia", "participants": [{"id": 19239341, "gamerTag": "Idia", "prefix": "", "user": null, "player": {"id": 4913723, "gamerTag": "Idia", "prefix": "", "user": null}}]}}, {"id": 36071147, "seedNum": 5, "entrant": {"id": 20910387, "name": "Oobie Doobie Kenoobi", "participants": [{"id": 19239340, "gamerTag": "Oobie Doobie Kenoobi", "prefix": "", "user": null, "player": {"id": 4856306, "gamerTag": "Oobie Doobie Kenoobi", "prefix": "", "user": null}}]}}]}}}