{"phase": {"seeds": {"pageInfo": {"totalPages": 1, "total": 8}, "nodes": [{"id": 35879165, "seedNum": 2, "entrant": {"id": 20604545, "name": "PiggyG", "participants": [{"id": 18968673, "gamerTag": "PiggyG", "prefix": "", "user": {"location": {"city": null, "state": null, "country": null}}, "player": {"id": 1453564, "gamerTag": "PiggyG", "prefix": "", "user": {"location": {"city": null, "state": null, "country": null}}}}]}}, {"id": 35879164, "seedNum": 1, "entrant": {"id": 20500171, "name": "Teri", "participants": [{"id": 18877766, "gamerTag": "Teri", "prefix": "", "user": {"location": {"city": "Spartanburg", "state": "SC", "country": "United States"}}, "player": {"id": 63209, "gamerTag": "Teri", "prefix": "", "user": {"location": {"city": "Spartanburg", "state": "SC", "country": "United States"}}}}]}}, {"id": 35879166, "seedNum": 4, "entrant": {"id": 20501478, "name": "Adam", "participants": [{"id": 18878962, "gamerTag": "Adam", "prefix": "", "user": {"location": {"city": "Decatur", "state": "GA", "country": "United States"}}, "player": {"id": 1521410, "gamerTag": "Adam", "prefix": "", "user": {"location": {"city": "Decatur", "state": "GA", "country": "United States"}}}}]}}, {"id": 35879168, "seedNum": 5, "entrant": {"id": 20602511, "name": "Dingo", "participants": [{"id": 18967220, "gamerTag": "Dingo", "prefix": null, "user": {"location": {"city": "Augusta", "state": "GA", "country": "United States"}}, "player": {"id": 35890, "gamerTag": "Dingo", "prefix": null, "user": {"location": {"city": "Augusta", "state": "GA", "country": "United States"}}}}]}}, {"id": 35879167, "seedNum": 3, "entrant": {"id": 20603930, "name": "SRN | Games & Flames", "participants": [{"id": 18968147, "gamerTag": "Games & Flames", "prefix": "SRN", "user": {"location": {"city": "Jonesboro", "state": null, "country": "United States"}}, "player": {"id": 1768109, "gamerTag": "Games & Flames", "prefix": "SRN", "user": {"location": {"city": "Jonesboro", "state": null, "country": "United States"}}}}]}}, {"id": 35879169, "seedNum": 6, "entrant": {"id": 20492325, "name": "Jmac", "participants": [{"id": 18870846, "gamerTag": "Jmac", "prefix": "", "user": {"location": {"city": null, "state": null, "country": "United States"}}, "player": {"id": 947560, "gamerTag": "Jmac", "prefix": "", "user": {"location": {"city": null, "state": null, "country": "United States"}}}}]}}, {"id": 35879171, "seedNum": 7, "entrant": {"id": 20490280, "name": "Taylor", "participants": [{"id": 18869026, "gamerTag": "Taylor", "prefix": null, "user": {"location": {"city": "", "state": "GA", "country": "United States"}}, "player": {"id": 926445, "gamerTag": "Taylor", "prefix": null, "user": {"location": {"city": "", "state": "GA", "country": "United States"}}}}]}}, {"id": 35879170, "seedNum": 8, "entrant": {"id": 20564784, "name": "Flux", "participants": [{"id": 18934092, "gamerTag": "Flux", "prefix": "", "user": {"location": {"city": "Atlanta", "state": "GA", "country": "United States"}}, "player": {"id": 4392219, "gamerTag": "Flux", "prefix": "", "user": {"location": {"city": "Atlanta", "state": "GA", "country": "United States"}}}}]}}]}}}