{"phase": {"seeds": {"pageInfo": {"totalPages": 2, "total": 57}, "nodes": [{"id": 36118066, "seedNum": 49, "entrant": {"id": 20941748, "name": "CheddrTV", "participants": [{"id": 19267319, "gamerTag": "CheddrTV", "prefix": "", "user": {"location": {"city": null, "state": "GA", "country": "United States"}}, "player": {"id": 4629852, "gamerTag": "CheddrTV", "prefix": "", "user": {"location": {"city": null, "state": "GA", "country": "United States"}}}}]}}, {"id": 36155293, "seedNum": 52, "entrant": {"id": 20967108, "name": "Brick Head", "participants": [{"id": 19289039, "gamerTag": "Brick Head", "prefix": "", "user": {"location": {"city": null, "state": null, "country": "United States"}}, "player": {"id": 4261425, "gamerTag": "Brick Head", "prefix": "", "user": {"location": {"city": null, "state": null, "country": "United States"}}}}]}}, {"id": 36196843, "seedNum": 53, "entrant": {"id": 20986224, "name": "Eternal_Radiance", "participants": [{"id": 19305644, "gamerTag": "Eternal_Radiance", "prefix": "", "user": {"location": {"city": null, "state": "GA", "country": "United States"}}, "player": {"id": 4926508, "gamerTag": "Infinite_Radiance", "prefix": "CC UGA", "user": {"location": {"city": null, "state": "GA", "country": "United States"}}}}]}}, {"id": 36207885, "seedNum": 54, "entrant": {"id": 20993631, "name": "sylvie", "participants": [{"id": 19312020, "gamerTag": "sylvie", "prefix": null, "user": {"location": {"city": "Kennesaw", "state": "GA", "country": "United States"}}, "player": {"id": 4334938, "gamerTag": "sylvie", "prefix": null, "user": {"location": {"city": "Kennesaw", "state": "GA", "country": "United States"}}}}]}}, {"id": 36117804, "seedNum": 55, "entrant": {"id": 20941512, "name": "Vermelho", "participants": [{"id": 19267106, "gamerTag": "Vermelho", "prefix": "", "user": {"location": {"city": null, "state": "GA", "country": "United States"}}, "player": {"id": 4300811, "gamerTag": "Vermelho", "prefix": "", "user": {"location": {"city": null, "state": "GA", "country": "United States"}}}}]}}, {"id": 36162313, "seedNum": 56, "entrant": {"id": 20970005, "name": "UsedBMWSalesman", "participants": [{"id": 19291707, "gamerTag": "UsedBMWSalesman", "prefix": "", "user": {"location": {"city": null, "state": null, "country": "United States"}}, "player": {"id": 4923768, "gamerTag": "UsedBMWSalesman", "prefix": "", "user": {"location": {"city": null, "state": null, "country": "United States"}}}}]}}, {"id": 36185599, "seedNum": 57, "entrant": {"id": 20979699, "name": "NoobGamer", "participants": [{"id": 19300459, "gamerTag": "NoobGamer", "prefix": null, "user": {"location": {"city": "", "state": "GA", "country": "United States"}}, "player": {"id": 4925354, "gamerTag": "NoobGamer", "prefix": null, "user": {"location": {"city": "", "state": "GA", "country": "United States"}}}}]}}]}}}