{"phase": {"seeds": {"pageInfo": {"totalPages": 1, "total": 11}, "nodes": [{"id": 36668055, "seedNum": 4, "entrant": {"id": 21304591, "name": "YRDEN | Bwlingiant", "participants": [{"id": 19586176, "gamerTag": "Bwlingiant", "prefix": "YRDEN", "user": {"location": {"city": "Savannah", "state": null, "country": "United States"}}, "player": {"id": 3202213, "gamerTag": "Bwlingiant", "prefix": "YRDEN", "user": {"location": {"city": "Savannah", "state": null, "country": "United States"}}}}]}}, {"id": 36678336, "seedNum": 3, "entrant": {"id": 21312128, "name": "Aloe", "participants": [{"id": 19592685, "gamerTag": "Aloe", "prefix": null, "user": {"location": {"city": "Savannah", "state": "WI", "country": "United States"}}, "player": {"id": 2656903, "gamerTag": "Aloe", "prefix": null, "user": {"location": {"city": "Savannah", "state": "WI", "country": "United States"}}}}]}}, {"id": 36672246, "seedNum": 2, "entrant": {"id": 21307398, "name": "Mrfreefree", "participants": [{"id": 19588671, "gamerTag": "Mrfreefree", "prefix": "", "user": {"location": {"city": "Rincon", "state": "GA", "country": "United States"}}, "player": {"id": 4405269, "gamerTag": "Mrfreefree", "prefix": "", "user": {"location": {"city": "Rincon", "state": "GA", "country": "United States"}}}}]}}, {"id": 36678354, "seedNum": 10, "entrant": {"id": 21312146, "name": "Follow me pls | Ttv.Snoozy040", "participants": [{"id": 19592697, "gamerTag": "Ttv.Snoozy040", "prefix": "Follow me pls", "user": {"location": {"city": null, "state": null, "country": "United States"}}, "player": {"id": 3190984, "gamerTag": "Ttv.Snoozy040", "prefix": "Follow me pls", "user": {"location": {"city": null, "state": null, "country": "United States"}}}}]}}, {"id": 36667822, "seedNum": 1, "entrant": {"id": 21304430, "name": "dertdobber", "participants": [{"id": 19586040, "gamerTag": "dertdobber", "prefix": null, "user": {"location": {"city": "Savannah", "state": "GA", "country": "United States"}}, "player": {"id": 173899, "gamerTag": "dertdobber", "prefix": null, "user": {"location": {"city": "Savannah", "state": "GA", "country": "United States"}}}}]}}, {"id": 36667856, "seedNum": 5, "entrant": {"id": 21304464, "name": "otherzenith", "participants": [{"id": 19586074, "gamerTag": "otherzenith", "prefix": "", "user": {"location": {"city": "Kennesaw", "state": null, "country": "United States"}}, "player": {"id": 3827458, "gamerTag": "otherzenith", "prefix": "", "user": {"location": {"city": "Kennesaw", "state": null, "country": "United States"}}}}]}}, {"id": 36677827, "seedNum": 6, "entrant": {"id": 21311692, "name": "SQ1 | TheOTrain", "participants": [{"id": 19592288, "gamerTag": "TheOTrain", "prefix": "SQ1", "user": {"location": {"city": "Savannah", "state": "GA", "country": "United States"}}, "player": {"id": 2536104, "gamerTag": "TheOTrain", "prefix": "SQ1", "user": {"location": {"city": "Savannah", "state": "GA", "country": "United States"}}}}]}}, {"id": 36678426, "seedNum": 9, "entrant": {"id": 21312211, "name": "SQ1 | Luff", "participants": [{"id": 19592758, "gamerTag": "Luff", "prefix": "SQ1", "user": {"location": {"city": "Savannah", "state": "GA", "country": "United States"}}, "player": {"id": 4102348, "gamerTag": "Luff", "prefix": "SQ1", "user": {"location": {"city": "Savannah", "state": "GA", "country": "United States"}}}}]}}, {"id": 36667998, "seedNum": 7, "entrant": {"id": 21304547, "name": "SQ1 | TheFamilyPanda", "participants": [{"id": 19586143, "gamerTag": "TheFamilyPanda", "prefix": "SQ1", "user": {"location": {"city": "Savannah", "state": "GA", "country": "United States"}}, "player": {"id": 2228673, "gamerTag": "TheFamilyPanda", "prefix": "SQ1", "user": {"location": {"city": "Savannah", "state": "GA", "country": "United States"}}}}]}}, {"id": 36674407, "seedNum": 8, "entrant": {"id": 21308765, "name": "Venture13", "participants": [{"id": 19589897, "gamerTag": "Venture13", "prefix": "", "user": {"location": {"city": null, "state": null, "country": "United States"}}, "player": {"id": 4971253, "gamerTag": "Venture13", "prefix": "", "user": {"location": {"city": null, "state": null, "country": "United States"}}}}]}}, {"id": 36678600, "seedNum": 11, "entrant": {"id": 21312378, "name": "Murdock", "participants": [{"id": 19592931, "gamerTag": "Murdock", "prefix": "", "user": {"location": {"city": null, "state": null, "country": "United States"}}, "player": {"id": 4982893, "gamerTag": "Murdock", "prefix": "", "user": {"location": {"city": null, "state": null, "country": "United States"}}}}]}}]}}}