{"phase": {"seeds": {"pageInfo": {"totalPages": 1, "total": 7}, "nodes": [{"id": 36528350, "seedNum": 2, "entrant": {"id": 21206753, "name": "Emu", "participants": [{"id": 19503167, "gamerTag": "Emu", "prefix": "", "user": {"location": {"city": null, "state": null, "country": "United States"}}, "player": {"id": 25608, "gamerTag": "Emu", "prefix": "", "user": {"location": {"city": null, "state": null, "country": "United States"}}}}]}}, {"id": 36463881, "seedNum": 1, "entrant": {"id": 21165348, "name": "N/a | C$", "participants": [{"id": 19466535, "gamerTag": "C$", "prefix": "N/a", "user": {"location": null}, "player": {"id": 228175, "gamerTag": "C$", "prefix": "N/a", "user": {"location": null}}}]}}, {"id": 36524108, "seedNum": 4, "entrant": {"id": 21203446, "name": "Shiro", "participants": [{"id": 19500149, "gamerTag": "Shiro", "prefix": "", "user": {"location": {"city": "Atlanta", "state": null, "country": "United States"}}, "player": {"id": 584397, "gamerTag": "Shiro", "prefix": "", "user": {"location": {"city": "Atlanta", "state": null, "country": "United States"}}}}]}}, {"id": 36524129, "seedNum": 3, "entrant": {"id": 21203463, "name": "key$", "participants": [{"id": 19500167, "gamerTag": "key$", "prefix": "", "user": {"location": {"city": "Suwanee", "state": "GA", "country": "United States"}}, "player": {"id": 2370046, "gamerTag": "key$", "prefix": "", "user": {"location": {"city": "Suwanee", "state": "GA", "country": "United States"}}}}]}}, {"id": 36463898, "seedNum": 5, "entrant": {"id": 21165365, "name": "Kain Dewey", "participants": [{"id": 19466549, "gamerTag": "Kain Dewey", "prefix": "", "user": {"location": {"city": "", "state": "MD", "country": "United States"}}, "player": {"id": 281086, "gamerTag": "Kain Dewey", "prefix": "", "user": {"location": {"city": "", "state": "MD", "country": "United States"}}}}]}}, {"id": 36519608, "seedNum": 7, "entrant": {"id": 21200753, "name": "Permafrost", "participants": [{"id": 19497647, "gamerTag": "Permafrost", "prefix": "", "user": {"location": {"city": "Atlanta", "state": "GA", "country": "United States"}}, "player": {"id": 1256898, "gamerTag": "Permafrost", "prefix": "", "user": {"location": {"city": "Atlanta", "state": "GA", "country": "United States"}}}}]}}, {"id": 36524888, "seedNum": 6, "entrant": {"id": 21203984, "name": "STEEZY", "participants": [{"id": 19500656, "gamerTag": "STEEZY", "prefix": null, "user": {"location": {"city": "HELL", "state": "GA", "country": "United States"}}, "player": {"id": 2496238, "gamerTag": "STEEZY", "prefix": null, "user": {"location": {"city": "HELL", "state": "GA", "country": "United States"}}}}]}}]}}}