{"phase": {"seeds": {"pageInfo": {"totalPages": 1, "total": 16}, "nodes": [{"id": 36730395, "seedNum": 2, "entrant": {"id": 21345381, "name": "red dot", "participants": [{"id": 19622479, "gamerTag": "red dot", "prefix": "", "user": {"location": {"city": "Milton", "state": "GA", "country": "United States"}}, "player": {"id": 1812177, "gamerTag": "red dot", "prefix": "", "user": {"location": {"city": "Milton", "state": "GA", "country": "United States"}}}}]}}, {"id": 36788678, "seedNum": 1, "entrant": {"id": 21386213, "name": "RM | Twist!?", "participants": [{"id": 19659019, "gamerTag": "Twist!?", "prefix": "RM", "user": {"location": {"city": "Marietta", "state": "GA", "country": "United States"}}, "player": {"id": 1764076, "gamerTag": "Twist!?", "prefix": "RM", "user": {"location": {"city": "Marietta", "state": "GA", "country": "United States"}}}}]}}, {"id": 36803348, "seedNum": 3, "entrant": {"id": 21396882, "name": "carlop", "participants": [{"id": 19668040, "gamerTag": "carlop", "prefix": null, "user": {"location": {"city": "Johns Creek", "state": "GA", "country": "United States"}}, "player": {"id": 3431919, "gamerTag": "carlop", "prefix": null, "user": {"location": {"city": "Johns Creek", "state": "GA", "country": "United States"}}}}]}}, {"id": 36738904, "seedNum": 5, "entrant": {"id": 21351910, "name": "CHEESE", "participants": [{"id": 19628422, "gamerTag": "CHEESE", "prefix": null, "user": {"location": {"city": "Buford", "state": "GA", "country": "United States"}}, "player": {"id": 3429754, "gamerTag": "CHEESE", "prefix": null, "user": {"location": {"city": "Buford", "state": "GA", "country": "United States"}}}}]}}, {"id": 36805443, "seedNum": 6, "entrant": {"id": 21398549, "name": "SaggyMilkJug", "participants": [{"id": 19669412, "gamerTag": "SaggyMilkJug", "prefix": "", "user": {"location": {"city": "Atlanta", "state": "GA", "country": "United States"}}, "player": {"id": 4651404, "gamerTag": "SaggyMilkJug", "prefix": "", "user": {"location": {"city": "Atlanta", "state": "GA", "country": "United States"}}}}]}}, {"id": 36789125, "seedNum": 8, "entrant": {"id": 21386475, "name": "promamamia", "participants": [{"id": 19659251, "gamerTag": "promamamia", "prefix": "", "user": {"location": {"city": "Alpharetta", "state": "GA", "country": "United States"}}, "player": {"id": 3548468, "gamerTag": "promamamia", "prefix": "", "user": {"location": {"city": "Alpharetta", "state": "GA", "country": "United States"}}}}]}}, {"id": 36804498, "seedNum": 7, "entrant": {"id": 21397707, "name": "MONEY | ImNoPro", "participants": [{"id": 19668735, "gamerTag": "ImNoPro", "prefix": "MONEY", "user": {"location": {"city": "Calhoun", "state": "GA", "country": "United States"}}, "player": {"id": 2149803, "gamerTag": "ImNoPro", "prefix": "MONEY", "user": {"location": {"city": "Calhoun", "state": "GA", "country": "United States"}}}}]}}, {"id": 36730656, "seedNum": 10, "entrant": {"id": 21345603, "name": "Stock Stealer | T.K.O", "participants": [{"id": 19622650, "gamerTag": "T.K.O", "prefix": "Stock Stealer", "user": {"location": {"city": "Smyrna", "state": "GA", "country": "United States"}}, "player": {"id": 4933114, "gamerTag": "T.K.O", "prefix": "Stock Stealer", "user": {"location": {"city": "Smyrna", "state": "GA", "country": "United States"}}}}]}}, {"id": 36729671, "seedNum": 4, "entrant": {"id": 21345022, "name": "Scouteka", "participants": [{"id": 19622131, "gamerTag": "Scouteka", "prefix": "", "user": {"location": {"city": "Marietta", "state": "GA", "country": "United States"}}, "player": {"id": 2055957, "gamerTag": "Scouteka", "prefix": "", "user": {"location": {"city": "Marietta", "state": "GA", "country": "United States"}}}}]}}, {"id": 36779616, "seedNum": 11, "entrant": {"id": 21380284, "name": "KSU | MikePTM", "participants": [{"id": 19653788, "gamerTag": "MikePTM", "prefix": "KSU", "user": {"location": {"city": null, "state": null, "country": "United States"}}, "player": {"id": 3586658, "gamerTag": "MikePTM", "prefix": "KSU", "user": {"location": {"city": null, "state": null, "country": "United States"}}}}]}}, {"id": 36741309, "seedNum": 12, "entrant": {"id": 21353370, "name": "Dusk_", "participants": [{"id": 19629759, "gamerTag": "Dusk_", "prefix": null, "user": {"location": {"city": "Atlanta", "state": "GA", "country": "United States"}}, "player": {"id": 2095313, "gamerTag": "Dusk_", "prefix": null, "user": {"location": {"city": "Atlanta", "state": "GA", "country": "United States"}}}}]}}, {"id": 36805027, "seedNum": 16, "entrant": {"id": 21398157, "name": "Dannyboyy", "participants": [{"id": 19669070, "gamerTag": "Dannyboyy", "prefix": "", "user": {"location": {"city": null, "state": null, "country": "United States"}}, "player": {"id": 4996152, "gamerTag": "Dannyboyy", "prefix": "", "user": {"location": {"city": null, "state": null, "country": "United States"}}}}]}}, {"id": 36776731, "seedNum": 9, "entrant": {"id": 21377971, "name": "PlexiTier", "participants": [{"id": 19651806, "gamerTag": "PlexiTier", "prefix": "", "user": {"location": {"city": "Hampton", "state": "GA", "country": "United States"}}, "player": {"id": 1807346, "gamerTag": "PlexiTier", "prefix": "", "user": {"location": {"city": "Hampton", "state": "GA", "country": "United States"}}}}]}}, {"id": 36790961, "seedNum": 13, "entrant": {"id": 21387852, "name": "Nefarious", "participants": [{"id": 19660428, "gamerTag": "Nefarious", "prefix": "", "user": {"location": {"city": null, "state": null, "country": "United States"}}, "player": {"id": 2981587, "gamerTag": "Nefarious", "prefix": "", "user": {"location": {"city": null, "state": null, "country": "United States"}}}}]}}, {"id": 36733783, "seedNum": 14, "entrant": {"id": 21348084, "name": "Sir Ferrum", "participants": [{"id": 19624906, "gamerTag": "Sir Ferrum", "prefix": "", "user": {"location": {"city": null, "state": null, "country": "United States"}}, "player": {"id": 4942765, "gamerTag": "Sir Ferrum", "prefix": "", "user": {"location": {"city": null, "state": null, "country": "United States"}}}}]}}, {"id": 36804452, "seedNum": 15, "entrant": {"id": 21397670, "name": "astrowire", "participants": [{"id": 19668696, "gamerTag": "astrowire", "prefix": null, "user": {"location": {"city": "Marietta", "state": "GA", "country": "United States"}}, "player": {"id": 2670968, "gamerTag": "astrowire", "prefix": null, "user": {"location": {"city": "Marietta", "state": "GA", "country": "United States"}}}}]}}]}}}