{"phase": {"seeds": {"pageInfo": {"totalPages": 1, "total": 11}, "nodes": [{"id": 36616548, "seedNum": 1, "entrant": {"id": 21267246, "name": "GRW | Loid", "participants": [{"id": 19531249, "gamerTag": "Loid", "prefix": "GRW", "user": {"location": {"city": null, "state": "GA", "country": "United States"}}, "player": {"id": 2981786, "gamerTag": "Loid", "prefix": "GRW", "user": {"location": {"city": null, "state": "GA", "country": "United States"}}}}]}}, {"id": 36616565, "seedNum": 2, "entrant": {"id": 21267265, "name": "promamamia", "participants": [{"id": 19530225, "gamerTag": "promamamia", "prefix": null, "user": {"location": {"city": "Alpharetta", "state": "GA", "country": "United States"}}, "player": {"id": 3548468, "gamerTag": "promamamia", "prefix": "", "user": {"location": {"city": "Alpharetta", "state": "GA", "country": "United States"}}}}]}}, {"id": 36616564, "seedNum": 3, "entrant": {"id": 21267264, "name": "DeDeDeadly", "participants": [{"id": 19553265, "gamerTag": "DeDeDeadly", "prefix": "", "user": {"location": {"city": null, "state": null, "country": "United States"}}, "player": {"id": 2267772, "gamerTag": "DeDeDeadly", "prefix": "", "user": {"location": {"city": null, "state": null, "country": "United States"}}}}]}}, {"id": 36616569, "seedNum": 5, "entrant": {"id": 21267269, "name": "jack | jazzman", "participants": [{"id": 19532045, "gamerTag": "jazzman", "prefix": "jack", "user": {"location": {"city": "Athens", "state": "GA", "country": "United States"}}, "player": {"id": 3883272, "gamerTag": "jazzman", "prefix": "jack", "user": {"location": {"city": "Athens", "state": "GA", "country": "United States"}}}}]}}, {"id": 36616561, "seedNum": 6, "entrant": {"id": 21267261, "name": "UGA | | samtwo", "participants": [{"id": 19530333, "gamerTag": "samtwo", "prefix": "UGA |", "user": {"location": {"city": "Athens", "state": "GA", "country": "United States"}}, "player": {"id": 1246662, "gamerTag": "samtwo", "prefix": "UGA |", "user": {"location": {"city": "Athens", "state": "GA", "country": "United States"}}}}]}}, {"id": 36616550, "seedNum": 11, "entrant": {"id": 21267248, "name": "Blue | BlueMarker", "participants": [{"id": 19554163, "gamerTag": "BlueMarker", "prefix": "Blue", "user": {"location": {"city": null, "state": "GA", "country": "United States"}}, "player": {"id": 2059555, "gamerTag": "BlueMarker", "prefix": "Blue", "user": {"location": {"city": null, "state": "GA", "country": "United States"}}}}]}}, {"id": 36616557, "seedNum": 7, "entrant": {"id": 21267257, "name": "UGA | LaJohn", "participants": [{"id": 19530158, "gamerTag": "LaJohn", "prefix": "UGA", "user": {"location": {"city": "Suwanee", "state": "GA", "country": "United States"}}, "player": {"id": 1742867, "gamerTag": "LaJohn", "prefix": "UGA", "user": {"location": {"city": "Suwanee", "state": "GA", "country": "United States"}}}}]}}, {"id": 36616556, "seedNum": 10, "entrant": {"id": 21267256, "name": "Vertebrae", "participants": [{"id": 19530283, "gamerTag": "Vertebrae", "prefix": "", "user": {"location": {"city": "Athens", "state": "GA", "country": "United States"}}, "player": {"id": 1583946, "gamerTag": "Vertebrae", "prefix": "CC", "user": {"location": {"city": "Athens", "state": "GA", "country": "United States"}}}}]}}, {"id": 36616568, "seedNum": 4, "entrant": {"id": 21267268, "name": "417 | Yharon", "participants": [{"id": 19553436, "gamerTag": "Yharon", "prefix": "417", "user": {"location": {"city": "Athens", "state": "GA", "country": "United States"}}, "player": {"id": 3630114, "gamerTag": "Yharon", "prefix": "417", "user": {"location": {"city": "Athens", "state": "GA", "country": "United States"}}}}]}}, {"id": 36616552, "seedNum": 8, "entrant": {"id": 21267251, "name": "Infinite_Radiance", "participants": [{"id": 19531017, "gamerTag": "Infinite_Radiance", "prefix": "", "user": {"location": {"city": null, "state": "GA", "country": "United States"}}, "player": {"id": 4926508, "gamerTag": "Infinite_Radiance", "prefix": "CC UGA", "user": {"location": {"city": null, "state": "GA", "country": "United States"}}}}]}}, {"id": 36616558, "seedNum": 9, "entrant": {"id": 21267258, "name": "ThePromisedHat", "participants": [{"id": 19530157, "gamerTag": "ThePromisedHat", "prefix": null, "user": {"location": {"city": "Bishop", "state": "GA", "country": "United States"}}, "player": {"id": 4261821, "gamerTag": "ThePromisedHat", "prefix": null, "user": {"location": {"city": "Bishop", "state": "GA", "country": "United States"}}}}]}}]}}}