{"event": {"sets": {"pageInfo": {"totalPages": 9, "total": 123}, "nodes": [{"id": 92091554, "state": 3, "round": 1, "fullRoundText": "Winners Round 1", "completedAt": 1754010026, "winnerId": 20854018, "slots": [{"id": "92091554-0", "entrant": {"id": 20852557, "name": "GUMP2 | RoKu", "participants": [{"id": 19188665, "gamerTag": "RoKu", "prefix": "GUMP2", "user": {"location": {"city": "Peachtree Corners", "state": "GA", "country": "United States"}}, "player": {"id": 1107285, "gamerTag": "RoKu", "prefix": "TFT", "user": {"location": {"city": "Peachtree Corners", "state": "GA", "country": "United States"}}}}]}, "standing": {"placement": 2, "stats": {"score": {"value": 1}}}}, {"id": "92091554-1", "entrant": {"id": 20854018, "name": "mania", "participants": [{"id": 19189961, "gamerTag": "mania", "prefix": "", "user": {"location": {"city": "Atlanta", "state": "GA", "country": "United States"}}, "player": {"id": 2785367, "gamerTag": "mania", "prefix": "", "user": {"location": {"city": "Atlanta", "state": "GA", "country": "United States"}}}}]}, "standing": {"placement": 1, "stats": {"score": {"value": 2}}}}], "games": null}, {"id": 92091555, "state": 3, "round": 1, "fullRoundText": "Winners Round 1", "completedAt": 1754009493, "winnerId": 20829882, "slots": [{"id": "92091555-0", "entrant": {"id": 20829882, "name": "Tobe", "participants": [{"id": 19168243, "gamerTag": "Tobe", "prefix": "", "user": {"location": {"city": "Buford", "state": "GA", "country": "United States"}}, "player": {"id": 1646132, "gamerTag": "Tobe", "prefix": "", "user": {"location": {"city": "Buford", "state": "GA", "country": "United States"}}}}]}, "standing": {"placement": 1, "stats": {"score": {"value": 2}}}}, {"id": "92091555-1", "entrant": {"id": 20854014, "name": "REV 14:6 | 3AM", "participants": [{"id": 19189958, "gamerTag": "3AM", "prefix": "REV 14:6", "user": {"location": {"city": "Duluth", "state": "GA", "country": "United States"}}, "player": {"id": 2331696, "gamerTag": "3AM", "prefix": "REV 14:6", "user": {"location": {"city": "Duluth", "state": "GA", "country": "United States"}}}}]}, "standing": {"placement": 2, "stats": {"score": {"value": 0}}}}], "games": null}, {"id": 92091556, "state": 3, "round": 1, "fullRoundText": "Winners Round 1", "completedAt": 1754009547, "winnerId": 20853871, "slots": [{"id": "92091556-0", "entrant": {"id": 20853871, "name": "Barbashop", "participants": [{"id": 19189831, "gamerTag": "Barbashop", "prefix": "", "user": {"location": {"city": null, "state": null, "country": null}}, "player": {"id": 2537853, "gamerTag": "Barbashop", "prefix": "", "user": {"location": {"city": null, "state": null, "country": null}}}}]}, "standing": {"placement": 1, "stats": {"score": {"value": 2}}}}, {"id": "92091556-1", "entrant": {"id": 20853849, "name": "WFF | Minty", "participants": [{"id": 19189811, "gamerTag": "Minty", "prefix": "WFF", "user": {"location": {"city": "Atlanta", "state": "GA", "country": "United States"}}, "player": {"id": 1193981, "gamerTag": "Minty", "prefix": "WFF", "user": {"location": {"city": "Atlanta", "state": "GA", "country": "United States"}}}}]}, "standing": {"placement": 2, "stats": {"score": {"value": 0}}}}], "games": null}]}}}