{"phase": {"seeds": {"pageInfo": {"totalPages": 1, "total": 8}, "nodes": [{"id": 36913045, "seedNum": 2, "entrant": {"id": 21472121, "name": "Aloe", "participants": [{"id": 19732530, "gamerTag": "Aloe", "prefix": null, "user": {"location": {"city": "Savannah", "state": "WI", "country": "United States"}}, "player": {"id": 2656903, "gamerTag": "Aloe", "prefix": null, "user": {"location": {"city": "Savannah", "state": "WI", "country": "United States"}}}}]}}, {"id": 36911854, "seedNum": 5, "entrant": {"id": 21471229, "name": "KnifeHand", "participants": [{"id": 19731815, "gamerTag": "KnifeHand", "prefix": null, "user": {"location": {"city": "Boise", "state": "ID", "country": "United States"}}, "player": {"id": 1980212, "gamerTag": "KnifeHand", "prefix": null, "user": {"location": {"city": "Boise", "state": "ID", "country": "United States"}}}}]}}, {"id": 36914021, "seedNum": 1, "entrant": {"id": 21472725, "name": "CRJ | Liv", "participants": [{"id": 19733094, "gamerTag": "Liv", "prefix": "CRJ", "user": {"location": {"city": "Savannah", "state": null, "country": "United States"}}, "player": {"id": 3342821, "gamerTag": "Liv", "prefix": "CRJ", "user": {"location": {"city": "Savannah", "state": null, "country": "United States"}}}}]}}, {"id": 36913490, "seedNum": 3, "entrant": {"id": 21472462, "name": "YRDEN | Bwlingiant", "participants": [{"id": 19732850, "gamerTag": "Bwlingiant", "prefix": "YRDEN", "user": {"location": {"city": "Savannah", "state": null, "country": "United States"}}, "player": {"id": 3202213, "gamerTag": "Bwlingiant", "prefix": "YRDEN", "user": {"location": {"city": "Savannah", "state": null, "country": "United States"}}}}]}}, {"id": 36913894, "seedNum": 4, "entrant": {"id": 21472683, "name": "Limp", "participants": [{"id": 19733060, "gamerTag": "Limp", "prefix": null, "user": {"location": {"city": "coconut creek", "state": "FL", "country": "United States"}}, "player": {"id": 2152701, "gamerTag": "Limp", "prefix": null, "user": {"location": {"city": "coconut creek", "state": "FL", "country": "United States"}}}}]}}, {"id": 36913431, "seedNum": 6, "entrant": {"id": 21472402, "name": "dertdobber", "participants": [{"id": 19732789, "gamerTag": "dertdobber", "prefix": null, "user": {"location": {"city": "Savannah", "state": "GA", "country": "United States"}}, "player": {"id": 173899, "gamerTag": "dertdobber", "prefix": null, "user": {"location": {"city": "Savannah", "state": "GA", "country": "United States"}}}}]}}, {"id": 36914198, "seedNum": 7, "entrant": {"id": 21472874, "name": "dotmelee", "participants": [{"id": 19733212, "gamerTag": "dotmelee", "prefix": null, "user": {"location": {"city": "Savannah", "state": "GA", "country": "United States"}}, "player": {"id": 3317849, "gamerTag": "dotmelee", "prefix": null, "user": {"location": {"city": "Savannah", "state": "GA", "country": "United States"}}}}]}}, {"id": 36912144, "seedNum": 8, "entrant": {"id": 21471421, "name": "Drowsy", "participants": [{"id": 19731984, "gamerTag": "Drowsy", "prefix": "", "user": {"location": {"city": null, "state": null, "country": null}}, "player": {"id": 1600842, "gamerTag": "Drowsy", "prefix": "", "user": {"location": {"city": null, "state": null, "country": null}}}}]}}]}}}