{"phase": {"seeds": {"pageInfo": {"totalPages": 1, "total": 4}, "nodes": [{"id": 36646898, "seedNum": 1, "entrant": {"id": 21289061, "name": "SE UNI | Shuri", "participants": [{"id": 19573113, "gamerTag": "Shuri", "prefix": "SE UNI", "user": {"location": {"city": "Bonaire", "state": "GA", "country": "United States"}}, "player": {"id": 183894, "gamerTag": "Shuri", "prefix": "SE UNI", "user": {"location": {"city": "Bonaire", "state": "GA", "country": "United States"}}}}]}}, {"id": 36985547, "seedNum": 4, "entrant": {"id": 21525220, "name": "PCF | jerleezus", "participants": [{"id": 19779460, "gamerTag": "jerleezus", "prefix": "PCF", "user": {"location": {"city": "Yorktown", "state": "VA", "country": "United States"}}, "player": {"id": 4091528, "gamerTag": "jerleezus", "prefix": "PCF", "user": {"location": {"city": "Yorktown", "state": "VA", "country": "United States"}}}}]}}, {"id": 36975624, "seedNum": 3, "entrant": {"id": 21518287, "name": "Chato", "participants": [{"id": 19773674, "gamerTag": "Chato", "prefix": null, "user": {"location": {"city": null, "state": null, "country": null}}, "player": {"id": 657291, "gamerTag": "Chato", "prefix": null, "user": {"location": {"city": null, "state": null, "country": null}}}}]}}, {"id": 36969248, "seedNum": 2, "entrant": {"id": 21513587, "name": "Evernight", "participants": [{"id": 19769514, "gamerTag": "Evernight", "prefix": null, "user": {"location": {"city": "Macon", "state": "GA", "country": "United States"}}, "player": {"id": 548064, "gamerTag": "Evernight", "prefix": null, "user": {"location": {"city": "Macon", "state": "GA", "country": "United States"}}}}]}}]}}}