{"phase": {"seeds": {"pageInfo": {"totalPages": 1, "total": 10}, "nodes": [{"id": 36671458, "seedNum": 5, "entrant": {"id": 21306785, "name": "IriZA", "participants": [{"id": 19588200, "gamerTag": "IriZA", "prefix": "", "user": {"location": {"city": "Savannah", "state": "TX", "country": "United States"}}, "player": {"id": 3784092, "gamerTag": "IriZA", "prefix": "", "user": {"location": {"city": "Savannah", "state": "TX", "country": "United States"}}}}]}}, {"id": 36678353, "seedNum": 9, "entrant": {"id": 21312145, "name": "Follow me pls | Ttv.Snoozy040", "participants": [{"id": 19592697, "gamerTag": "Ttv.Snoozy040", "prefix": "Follow me pls", "user": {"location": {"city": null, "state": null, "country": "United States"}}, "player": {"id": 3190984, "gamerTag": "Ttv.Snoozy040", "prefix": "Follow me pls", "user": {"location": {"city": null, "state": null, "country": "United States"}}}}]}}, {"id": 36667999, "seedNum": 3, "entrant": {"id": 21304546, "name": "SQ1 | TheFamilyPanda", "participants": [{"id": 19586143, "gamerTag": "TheFamilyPanda", "prefix": "SQ1", "user": {"location": {"city": "Savannah", "state": "GA", "country": "United States"}}, "player": {"id": 2228673, "gamerTag": "TheFamilyPanda", "prefix": "SQ1", "user": {"location": {"city": "Savannah", "state": "GA", "country": "United States"}}}}]}}, {"id": 36678425, "seedNum": 10, "entrant": {"id": 21312210, "name": "SQ1 | Luff", "participants": [{"id": 19592758, "gamerTag": "Luff", "prefix": "SQ1", "user": {"location": {"city": "Savannah", "state": "GA", "country": "United States"}}, "player": {"id": 4102348, "gamerTag": "Luff", "prefix": "SQ1", "user": {"location": {"city": "Savannah", "state": "GA", "country": "United States"}}}}]}}, {"id": 36667855, "seedNum": 2, "entrant": {"id": 21304463, "name": "otherzenith", "participants": [{"id": 19586074, "gamerTag": "otherzenith", "prefix": "", "user": {"location": {"city": "Kennesaw", "state": null, "country": "United States"}}, "player": {"id": 3827458, "gamerTag": "otherzenith", "prefix": "", "user": {"location": {"city": "Kennesaw", "state": null, "country": "United States"}}}}]}}, {"id": 36678335, "seedNum": 8, "entrant": {"id": 21312127, "name": "Aloe", "participants": [{"id": 19592685, "gamerTag": "Aloe", "prefix": null, "user": {"location": {"city": "Savannah", "state": "WI", "country": "United States"}}, "player": {"id": 2656903, "gamerTag": "Aloe", "prefix": null, "user": {"location": {"city": "Savannah", "state": "WI", "country": "United States"}}}}]}}, {"id": 36667821, "seedNum": 1, "entrant": {"id": 21304429, "name": "dertdobber", "participants": [{"id": 19586040, "gamerTag": "dertdobber", "prefix": null, "user": {"location": {"city": "Savannah", "state": "GA", "country": "United States"}}, "player": {"id": 173899, "gamerTag": "dertdobber", "prefix": null, "user": {"location": {"city": "Savannah", "state": "GA", "country": "United States"}}}}]}}, {"id": 36678300, "seedNum": 7, "entrant": {"id": 21312100, "name": "SQ1 | Drokifam", "participants": [{"id": 19592661, "gamerTag": "Drokifam", "prefix": "SQ1", "user": {"location": {"city": "Hardeeville", "state": "SC", "country": "United States"}}, "player": {"id": 2801389, "gamerTag": "Drokifam", "prefix": "SQ1", "user": {"location": {"city": "Hardeeville", "state": "SC", "country": "United States"}}}}]}}, {"id": 36669456, "seedNum": 4, "entrant": {"id": 21305513, "name": "Armor Jeff", "participants": [{"id": 19587002, "gamerTag": "Armor Jeff", "prefix": "", "user": {"location": {"city": "Savannah", "state": "GA", "country": "United States"}}, "player": {"id": 3937751, "gamerTag": "Armor Jeff", "prefix": "", "user": {"location": {"city": "Savannah", "state": "GA", "country": "United States"}}}}]}}, {"id": 36675756, "seedNum": 6, "entrant": {"id": 21309755, "name": "MoniKrow", "participants": [{"id": 19590839, "gamerTag": "MoniKrow", "prefix": null, "user": {"location": {"city": "Savannah", "state": "GA", "country": "United States"}}, "player": {"id": 4982588, "gamerTag": "MoniKrow", "prefix": null, "user": {"location": {"city": "Savannah", "state": "GA", "country": "United States"}}}}]}}]}}}