{"phase": {"seeds": {"pageInfo": {"totalPages": 4, "total": 160}, "nodes": [{"id": 35873115, "seedNum": 85, "entrant": {"id": 20788471, "name": "eggbob", "participants": [{"id": 19131983, "gamerTag": "eggbob", "prefix": "", "user": {"location": {"city": null, "state": null, "country": "United States"}}, "player": {"id": 3796596, "gamerTag": "eggbob", "prefix": "", "user": {"location": {"city": null, "state": null, "country": "United States"}}}}]}}, {"id": 35799710, "seedNum": 88, "entrant": {"id": 20747804, "name": "GG | varunk", "participants": [{"id": 19093426, "gamerTag": "varunk", "prefix": "GG", "user": {"location": {"city": "Marietta", "state": "GA", "country": "United States"}}, "player": {"id": 1653684, "gamerTag": "varunk", "prefix": "GG", "user": {"location": {"city": "Marietta", "state": "GA", "country": "United States"}}}}]}}, {"id": 35414869, "seedNum": 89, "entrant": {"id": 20492477, "name": "WFF | Olive", "participants": [{"id": 18870955, "gamerTag": "Olive", "prefix": "WFF", "user": {"location": {"city": "Atlanta", "state": "GA", "country": "United States"}}, "player": {"id": 1810274, "gamerTag": "Planet Of Da", "prefix": "WeFarmFrank", "user": {"location": {"city": "Atlanta", "state": "GA", "country": "United States"}}}}]}}, {"id": 35419878, "seedNum": 93, "entrant": {"id": 20496275, "name": "BGA | KSU | WhopperFloppers", "participants": [{"id": 18874448, "gamerTag": "WhopperFloppers", "prefix": "BGA | KSU", "user": {"location": {"city": null, "state": null, "country": "United States"}}, "player": {"id": 2564706, "gamerTag": "WhopperFloppers", "prefix": "BGA | KSU", "user": {"location": {"city": null, "state": null, "country": "United States"}}}}]}}, {"id": 35443508, "seedNum": 94, "entrant": {"id": 20512066, "name": "FAT | Phantomtheif", "participants": [{"id": 18888247, "gamerTag": "Phantomtheif", "prefix": "FAT", "user": {"location": {"city": "Columbus", "state": "AL", "country": "United States"}}, "player": {"id": 469237, "gamerTag": "Phantomtheif", "prefix": "FAT", "user": {"location": {"city": "Columbus", "state": "AL", "country": "United States"}}}}]}}, {"id": 35416516, "seedNum": 101, "entrant": {"id": 20493594, "name": "goopie guy", "participants": [{"id": 18871979, "gamerTag": "goopie guy", "prefix": "", "user": {"location": {"city": "Atlanta", "state": "GA", "country": "United States"}}, "player": {"id": 1159961, "gamerTag": "goopie guy", "prefix": "", "user": {"location": {"city": "Atlanta", "state": "GA", "country": "United States"}}}}]}}, {"id": 35766796, "seedNum": 102, "entrant": {"id": 20727086, "name": "Pretzels", "participants": [{"id": 19075221, "gamerTag": "Pretzels", "prefix": "", "user": {"location": {"city": "Montgomery", "state": "AL", "country": "United States"}}, "player": {"id": 1592960, "gamerTag": "Pretzels", "prefix": "", "user": {"location": {"city": "Montgomery", "state": "AL", "country": "United States"}}}}]}}, {"id": 35742755, "seedNum": 110, "entrant": {"id": 20710004, "name": "DaHuey", "participants": [{"id": 19060500, "gamerTag": "DaHuey", "prefix": "", "user": {"location": {"city": "Cartersville", "state": "GA", "country": "United States"}}, "player": {"id": 1183375, "gamerTag": "DaHuey", "prefix": "", "user": {"location": {"city": "Cartersville", "state": "GA", "country": "United States"}}}}]}}, {"id": 35874411, "seedNum": 117, "entrant": {"id": 20789279, "name": "enoch", "participants": [{"id": 19132724, "gamerTag": "enoch", "prefix": "", "user": {"location": {"city": null, "state": null, "country": null}}, "player": {"id": 3679605, "gamerTag": "DavesHotAsian", "prefix": "", "user": {"location": {"city": null, "state": null, "country": null}}}}]}}, {"id": 35412693, "seedNum": 121, "entrant": {"id": 20490815, "name": "KSU | colorful\u029a\u025e", "participants": [{"id": 18869493, "gamerTag": "colorful\u029a\u025e", "prefix": "KSU", "user": {"location": {"city": "Kennesaw", "state": "GA", "country": "United States"}}, "player": {"id": 1783074, "gamerTag": "colorful\u029a\u025e", "prefix": "KSU | RM", "user": {"location": {"city": "Kennesaw", "state": "GA", "country": "United States"}}}}]}}, {"id": 35409746, "seedNum": 122, "entrant": {"id": 20488729, "name": "BlaZR", "participants": [{"id": 18867672, "gamerTag": "BlaZR", "prefix": "", "user": {"location": {"city": "ur mum", "state": null, "country": "United States"}}, "player": {"id": 1804122, "gamerTag": "BlaZR", "prefix": "", "user": {"location": {"city": "ur mum", "state": null, "country": "United States"}}}}]}}, {"id": 35742686, "seedNum": 123, "entrant": {"id": 20709953, "name": "RaW | Gekyume", "participants": [{"id": 19060454, "gamerTag": "Gekyume", "prefix": "RaW", "user": {"location": {"city": "Cartersville", "state": "GA", "country": "United States"}}, "player": {"id": 1183242, "gamerTag": "Gekyume", "prefix": "RaW", "user": {"location": {"city": "Cartersville", "state": "GA", "country": "United States"}}}}]}}, {"id": 35728214, "seedNum": 124, "entrant": {"id": 20699303, "name": "RM | WFF | Sakruoi", "participants": [{"id": 19050928, "gamerTag": "Sakruoi", "prefix": "RM | WFF", "user": {"location": {"city": "atlanta", "state": "GA", "country": "United States"}}, "player": {"id": 1230555, "gamerTag": "Sakruoi", "prefix": "RM | WFF", "user": {"location": {"city": "atlanta", "state": "GA", "country": "United States"}}}}]}}, {"id": 35741419, "seedNum": 126, "entrant": {"id": 20708965, "name": "Nyramyss", "participants": [{"id": 19059603, "gamerTag": "Nyramyss", "prefix": "", "user": {"location": {"city": "Acworth", "state": "GA", "country": "United States"}}, "player": {"id": 2648735, "gamerTag": "Nyramyss", "prefix": "", "user": {"location": {"city": "Acworth", "state": "GA", "country": "United States"}}}}]}}, {"id": 35408694, "seedNum": 127, "entrant": {"id": 20487997, "name": "TFT | Handsome Squidward", "participants": [{"id": 18867147, "gamerTag": "Handsome Squidward", "prefix": "TFT", "user": {"location": {"city": "Calhoun", "state": "GA", "country": "United States"}}, "player": {"id": 2241471, "gamerTag": "lil munch", "prefix": "TFT", "user": {"location": {"city": "Calhoun", "state": "GA", "country": "United States"}}}}]}}, {"id": 35847195, "seedNum": 132, "entrant": {"id": 20774058, "name": "RainTalonX", "participants": [{"id": 19118382, "gamerTag": "RainTalonX", "prefix": "", "user": {"location": {"city": "Huntsville", "state": "AL", "country": "United States"}}, "player": {"id": 1137968, "gamerTag": "RainTalonX", "prefix": "", "user": {"location": {"city": "Huntsville", "state": "AL", "country": "United States"}}}}]}}, {"id": 36000608, "seedNum": 133, "entrant": {"id": 20867239, "name": "Nestor", "participants": [{"id": 19201441, "gamerTag": "Nestor", "prefix": null, "user": {"location": {"city": "Gainesville", "state": "GA", "country": "United States"}}, "player": {"id": 1630543, "gamerTag": "Nestor", "prefix": null, "user": {"location": {"city": "Gainesville", "state": "GA", "country": "United States"}}}}]}}, {"id": 35409494, "seedNum": 135, "entrant": {"id": 20488568, "name": "promamamia", "participants": [{"id": 18867510, "gamerTag": "promamamia", "prefix": "", "user": {"location": {"city": "Alpharetta", "state": "GA", "country": "United States"}}, "player": {"id": 3548468, "gamerTag": "promamamia", "prefix": "", "user": {"location": {"city": "Alpharetta", "state": "GA", "country": "United States"}}}}]}}, {"id": 35771524, "seedNum": 137, "entrant": {"id": 20730088, "name": "Mighty Morfin", "participants": [{"id": 19077834, "gamerTag": "Mighty Morfin", "prefix": "", "user": {"location": {"city": "Gainesville", "state": "GA", "country": "United States"}}, "player": {"id": 1630530, "gamerTag": "Mighty Morfin", "prefix": "", "user": {"location": {"city": "Gainesville", "state": "GA", "country": "United States"}}}}]}}, {"id": 35852670, "seedNum": 138, "entrant": {"id": 20776795, "name": "SgtCarson", "participants": [{"id": 19079580, "gamerTag": "SgtCarson", "prefix": null, "user": {"location": {"city": "Cumming", "state": "GA", "country": "United States"}}, "player": {"id": 68213, "gamerTag": "SgtCarson", "prefix": "", "user": {"location": {"city": "Cumming", "state": "GA", "country": "United States"}}}}]}}, {"id": 35457848, "seedNum": 143, "entrant": {"id": 20522394, "name": "4o4 | REAL | Nikita", "participants": [{"id": 18897526, "gamerTag": "Nikita", "prefix": "4o4 | REAL", "user": {"location": {"city": null, "state": "GA", "country": "United States"}}, "player": {"id": 1144070, "gamerTag": "Nikita", "prefix": "4o4 | REAL", "user": {"location": {"city": null, "state": "GA", "country": "United States"}}}}]}}, {"id": 35939284, "seedNum": 144, "entrant": {"id": 20830351, "name": "Pleeploploop", "participants": [{"id": 19168887, "gamerTag": "Pleeploploop", "prefix": "", "user": {"location": {"city": "Snellville", "state": null, "country": "United States"}}, "player": {"id": 1739676, "gamerTag": "Pleeploploop", "prefix": "", "user": {"location": {"city": "Snellville", "state": null, "country": "United States"}}}}]}}, {"id": 35997500, "seedNum": 145, "entrant": {"id": 20865146, "name": "Par-i-dot Alpha", "participants": [{"id": 19199748, "gamerTag": "Par-i-dot Alpha", "prefix": "", "user": {"location": {"city": "Lithoina", "state": "GA", "country": "United States"}}, "player": {"id": 36418, "gamerTag": "Avalon", "prefix": "", "user": {"location": {"city": "Lithoina", "state": "GA", "country": "United States"}}}}]}}, {"id": 35768285, "seedNum": 150, "entrant": {"id": 20727930, "name": "11D7", "participants": [{"id": 19076051, "gamerTag": "11D7", "prefix": null, "user": {"location": {"city": "Alpharetta", "state": "GA", "country": "United States"}}, "player": {"id": 4064891, "gamerTag": "11D7", "prefix": null, "user": {"location": {"city": "Alpharetta", "state": "GA", "country": "United States"}}}}]}}, {"id": 35734185, "seedNum": 152, "entrant": {"id": 20703948, "name": "TTV | JB_Staticxz", "participants": [{"id": 19054848, "gamerTag": "JB_Staticxz", "prefix": "TTV", "user": {"location": {"city": "lawrenceville", "state": "GA", "country": "United States"}}, "player": {"id": 3796232, "gamerTag": "JB_Staticxz", "prefix": "TTV", "user": {"location": {"city": "lawrenceville", "state": "GA", "country": "United States"}}}}]}}, {"id": 35476783, "seedNum": 154, "entrant": {"id": 20535745, "name": "CHAOS", "participants": [{"id": 18909397, "gamerTag": "CHAOS", "prefix": null, "user": {"location": {"city": "Athens", "state": "GA", "country": "United States"}}, "player": {"id": 4559756, "gamerTag": "CHAOS", "prefix": null, "user": {"location": {"city": "Athens", "state": "GA", "country": "United States"}}}}]}}, {"id": 35773601, "seedNum": 156, "entrant": {"id": 20731023, "name": "camcam", "participants": [{"id": 19078662, "gamerTag": "camcam", "prefix": "", "user": {"location": {"city": "Lawrenceville", "state": "GA", "country": "United States"}}, "player": {"id": 3796438, "gamerTag": "camcam", "prefix": "", "user": {"location": {"city": "Lawrenceville", "state": "GA", "country": "United States"}}}}]}}, {"id": 35598552, "seedNum": 160, "entrant": {"id": 20608728, "name": "Mantra", "participants": [{"id": 18972093, "gamerTag": "Mantra", "prefix": null, "user": {"location": {"city": null, "state": "GA", "country": "United States"}}, "player": {"id": 4733195, "gamerTag": "Mantra", "prefix": null, "user": {"location": {"city": null, "state": "GA", "country": "United States"}}}}]}}, {"id": 35756324, "seedNum": 34, "entrant": {"id": 20719697, "name": "YUUM | Fantasia", "participants": [{"id": 19068873, "gamerTag": "Fantasia", "prefix": "YUUM", "user": {"location": {"city": "Gastonia", "state": "NC", "country": "United States"}}, "player": {"id": 2114774, "gamerTag": "Fantasia", "prefix": "", "user": {"location": {"city": "Gastonia", "state": "NC", "country": "United States"}}}}]}}, {"id": 35792838, "seedNum": 45, "entrant": {"id": 20745172, "name": "Orion | m0use", "participants": [{"id": 19090916, "gamerTag": "m0use", "prefix": "Orion", "user": {"location": {"city": "Clinton", "state": "TN", "country": "United States"}}, "player": {"id": 1471378, "gamerTag": "m0use", "prefix": "Orion", "user": {"location": {"city": "Clinton", "state": "TN", "country": "United States"}}}}]}}, {"id": 35524030, "seedNum": 64, "entrant": {"id": 20571259, "name": "Argon | Kage", "participants": [{"id": 18940107, "gamerTag": "Kage", "prefix": "Argon", "user": {"location": {"city": "Huntsville", "state": "AL", "country": "United States"}}, "player": {"id": 465685, "gamerTag": "OsamaBin-Ballin", "prefix": "Argon", "user": {"location": {"city": "Huntsville", "state": "AL", "country": "United States"}}}}]}}, {"id": 35537396, "seedNum": 73, "entrant": {"id": 20580571, "name": "pristinetao", "participants": [{"id": 18947970, "gamerTag": "pristinetao", "prefix": "", "user": {"location": {"city": null, "state": null, "country": null}}, "player": {"id": 2721225, "gamerTag": "pristinetao", "prefix": "", "user": {"location": {"city": null, "state": null, "country": null}}}}]}}, {"id": 35762949, "seedNum": 77, "entrant": {"id": 20724332, "name": "FClub | Conner Sanders", "participants": [{"id": 19073026, "gamerTag": "Conner Sanders", "prefix": "FClub", "user": {"location": {"city": "Brandon", "state": "MS", "country": "United States"}}, "player": {"id": 151456, "gamerTag": "Conner Sanders", "prefix": "FClub", "user": {"location": {"city": "Brandon", "state": "MS", "country": "United States"}}}}]}}, {"id": 35411793, "seedNum": 82, "entrant": {"id": 20490196, "name": "Cute Fluffy Puppy Lover", "participants": [{"id": 18868963, "gamerTag": "Cute Fluffy Puppy Lover", "prefix": "", "user": {"location": {"city": "Atlanta", "state": "GA", "country": "United States"}}, "player": {"id": 547843, "gamerTag": "Cute Fluffy Puppy Lover", "prefix": "", "user": {"location": {"city": "Atlanta", "state": "GA", "country": "United States"}}}}]}}, {"id": 35757312, "seedNum": 96, "entrant": {"id": 20720503, "name": "cardd", "participants": [{"id": 19069623, "gamerTag": "cardd", "prefix": "", "user": {"location": {"city": "ATL", "state": "GA", "country": "United States"}}, "player": {"id": 34781, "gamerTag": "cardd", "prefix": "", "user": {"location": {"city": "ATL", "state": "GA", "country": "United States"}}}}]}}, {"id": 35751732, "seedNum": 103, "entrant": {"id": 20716782, "name": "LD | Hino", "participants": [{"id": 19066352, "gamerTag": "Hino", "prefix": "LD", "user": {"location": {"city": "Nashville", "state": "TN", "country": "United States"}}, "player": {"id": 1039246, "gamerTag": "Hino", "prefix": "LD", "user": {"location": {"city": "Nashville", "state": "TN", "country": "United States"}}}}]}}, {"id": 35742437, "seedNum": 107, "entrant": {"id": 20709744, "name": "417 | zors3y", "participants": [{"id": 19060265, "gamerTag": "zors3y", "prefix": "417", "user": {"location": {"city": "Eatonton", "state": "GA", "country": "United States"}}, "player": {"id": 994539, "gamerTag": "zors3y", "prefix": "417", "user": {"location": {"city": "Eatonton", "state": "GA", "country": "United States"}}}}]}}, {"id": 35415330, "seedNum": 112, "entrant": {"id": 20492846, "name": "ZB | Juniper", "participants": [{"id": 18871290, "gamerTag": "Juniper", "prefix": "ZB", "user": {"location": {"city": "Morrow", "state": "GA", "country": "United States"}}, "player": {"id": 46895, "gamerTag": "Juniper", "prefix": "ZB", "user": {"location": {"city": "Morrow", "state": "GA", "country": "United States"}}}}]}}, {"id": 35418338, "seedNum": 113, "entrant": {"id": 20495009, "name": "Alex828", "participants": [{"id": 18873284, "gamerTag": "Alex828", "prefix": "", "user": {"location": {"city": "Valdosta", "state": "GA", "country": "United States"}}, "player": {"id": 1630146, "gamerTag": "Alex828", "prefix": "", "user": {"location": {"city": "Valdosta", "state": "GA", "country": "United States"}}}}]}}, {"id": 35417141, "seedNum": 114, "entrant": {"id": 20494061, "name": "AO5 | ImPhenyl", "participants": [{"id": 18872449, "gamerTag": "ImPhenyl", "prefix": "AO5", "user": {"location": {"city": "Lawrenceville", "state": "GA", "country": "United States"}}, "player": {"id": 3256876, "gamerTag": "ImPhenyl", "prefix": "AO5", "user": {"location": {"city": "Lawrenceville", "state": "GA", "country": "United States"}}}}]}}, {"id": 35409225, "seedNum": 125, "entrant": {"id": 20488410, "name": "KSU | Subzero", "participants": [{"id": 18867381, "gamerTag": "Subzero", "prefix": "KSU", "user": {"location": {"city": "Acworth", "state": "GA", "country": "United States"}}, "player": {"id": 1808159, "gamerTag": "Subzero", "prefix": "KSU", "user": {"location": {"city": "Acworth", "state": "GA", "country": "United States"}}}}]}}, {"id": 35411420, "seedNum": 128, "entrant": {"id": 20490013, "name": "ZB | Sanaito", "participants": [{"id": 18868823, "gamerTag": "Sanaito", "prefix": "ZB", "user": {"location": {"city": "Fayetteville", "state": "GA", "country": "United States"}}, "player": {"id": 12761, "gamerTag": "Sanaito", "prefix": "ZB", "user": {"location": {"city": "Fayetteville", "state": "GA", "country": "United States"}}}}]}}, {"id": 35423269, "seedNum": 130, "entrant": {"id": 20498646, "name": "BNDK | TD | CorNo", "participants": [{"id": 18876567, "gamerTag": "CorNo", "prefix": "BNDK | TD", "user": {"location": {"city": "Birmingham", "state": "AL", "country": "United States"}}, "player": {"id": 2344763, "gamerTag": "CorNo", "prefix": "BNDK | TD", "user": {"location": {"city": "Birmingham", "state": "AL", "country": "United States"}}}}]}}, {"id": 35409204, "seedNum": 131, "entrant": {"id": 20488389, "name": "Chrysalis", "participants": [{"id": 18867367, "gamerTag": "Chrysalis", "prefix": "", "user": {"location": {"city": "Cartersville", "state": "GA", "country": "United States"}}, "player": {"id": 1512632, "gamerTag": "Chrysalis", "prefix": "", "user": {"location": {"city": "Cartersville", "state": "GA", "country": "United States"}}}}]}}, {"id": 35897280, "seedNum": 134, "entrant": {"id": 20803505, "name": "Mr. L", "participants": [{"id": 19145596, "gamerTag": "Mr. L", "prefix": "", "user": {"location": {"city": "Starkville", "state": "MS", "country": "United States"}}, "player": {"id": 3604371, "gamerTag": "Mr. L", "prefix": "", "user": {"location": {"city": "Starkville", "state": "MS", "country": "United States"}}}}]}}, {"id": 35575190, "seedNum": 136, "entrant": {"id": 20605149, "name": "Scoob", "participants": [{"id": 18969159, "gamerTag": "Scoob", "prefix": null, "user": {"location": {"city": "Birmingham", "state": "AL", "country": "United States"}}, "player": {"id": 2320668, "gamerTag": "Scoob", "prefix": null, "user": {"location": {"city": "Birmingham", "state": "AL", "country": "United States"}}}}]}}, {"id": 35432152, "seedNum": 139, "entrant": {"id": 20504534, "name": "Prophett", "participants": [{"id": 18881747, "gamerTag": "Prophett", "prefix": "", "user": {"location": {"city": "Trussville", "state": "AL", "country": "United States"}}, "player": {"id": 1661325, "gamerTag": "Prophet", "prefix": "", "user": {"location": {"city": "Trussville", "state": "AL", "country": "United States"}}}}]}}, {"id": 35785983, "seedNum": 140, "entrant": {"id": 20740206, "name": "EL Tiburon", "participants": [{"id": 19086226, "gamerTag": "EL Tiburon", "prefix": "", "user": {"location": {"city": "Cleveland", "state": "OH", "country": "United States"}}, "player": {"id": 3116973, "gamerTag": "EL Tiburon", "prefix": "", "user": {"location": {"city": "Cleveland", "state": "OH", "country": "United States"}}}}]}}, {"id": 35873122, "seedNum": 141, "entrant": {"id": 20788478, "name": "deimos", "participants": [{"id": 19131988, "gamerTag": "deimos", "prefix": null, "user": {"location": {"city": null, "state": null, "country": "United States"}}, "player": {"id": 4305406, "gamerTag": "deimos", "prefix": null, "user": {"location": {"city": null, "state": null, "country": "United States"}}}}]}}, {"id": 35789614, "seedNum": 142, "entrant": {"id": 20743387, "name": "TnT | annamation", "participants": [{"id": 19089304, "gamerTag": "annamation", "prefix": "TnT", "user": {"location": {"city": "Atlanta", "state": "GA", "country": "United States"}}, "player": {"id": 1699369, "gamerTag": "annamation", "prefix": "TnT", "user": {"location": {"city": "Atlanta", "state": "GA", "country": "United States"}}}}]}}]}}}