{"event": {"sets": {"pageInfo": {"totalPages": 3, "total": 45}, "nodes": [{"id": 94731122, "state": 3, "round": -4, "fullRoundText": "Losers Round 1", "completedAt": 1759715965, "winnerId": 21474689, "slots": [{"id": "94731122-0", "entrant": {"id": 21474689, "name": "uM | Jenesis", "participants": [{"id": 19734830, "gamerTag": "Jenesis", "prefix": "uM", "user": {"location": {"city": "Marietta", "state": "GA", "country": "United States"}}, "player": {"id": 36629, "gamerTag": "Jenesis", "prefix": "uM", "user": {"location": {"city": "Marietta", "state": "GA", "country": "United States"}}}}]}, "standing": {"placement": 1, "stats": {"score": {"value": 2}}}}, {"id": "94731122-1", "entrant": {"id": 21474258, "name": "Skittles", "participants": [{"id": 19734422, "gamerTag": "Skittles", "prefix": null, "user": {"location": {"city": "Marietta", "state": "GA", "country": "United States"}}, "player": {"id": 136086, "gamerTag": "Skittles", "prefix": null, "user": {"location": {"city": "Marietta", "state": "GA", "country": "United States"}}}}]}, "standing": {"placement": 2, "stats": {"score": {"value": 0}}}}], "games": null}, {"id": 94732229, "state": 3, "round": -5, "fullRoundText": "Losers Semi-Final", "completedAt": 1759722126, "winnerId": 21474243, "slots": [{"id": "94732229-0", "entrant": {"id": 21474243, "name": "4o4 | chooryu :)", "participants": [{"id": 19734403, "gamerTag": "chooryu :)", "prefix": "4o4", "user": {"location": {"city": "Kennesaw", "state": "GA", "country": "United States"}}, "player": {"id": 466564, "gamerTag": "chooryu :)", "prefix": "4o4", "user": {"location": {"city": "Kennesaw", "state": "GA", "country": "United States"}}}}]}, "standing": {"placement": 1, "stats": {"score": {"value": 3}}}}, {"id": "94732229-1", "entrant": {"id": 21474689, "name": "uM | Jenesis", "participants": [{"id": 19734830, "gamerTag": "Jenesis", "prefix": "uM", "user": {"location": {"city": "Marietta", "state": "GA", "country": "United States"}}, "player": {"id": 36629, "gamerTag": "Jenesis", "prefix": "uM", "user": {"location": {"city": "Marietta", "state": "GA", "country": "United States"}}}}]}, "standing": {"placement": 2, "stats": {"score": {"value": 1}}}}], "games": null}, {"id": 94732212, "state": 3, "round": 1, "fullRoundText": "Winners Semi-Final", "completedAt": 1759718098, "winnerId": 21474979, "slots": [{"id": "94732212-0", "entrant": {"id": 21474652, "name": "TFT | RoKu", "participants": [{"id": 19734800, "gamerTag": "RoKu", "prefix": "TFT", "user": {"location": {"city": "Peachtree Corners", "state": "GA", "country": "United States"}}, "player": {"id": 1107285, "gamerTag": "RoKu", "prefix": "TFT", "user": {"location": {"city": "Peachtree Corners", "state": "GA", "country": "United States"}}}}]}, "standing": {"placement": 2, "stats": {"score": {"value": 1}}}}, {"id": "94732212-1", "entrant": {"id": 21474979, "name": "TFT | Terry Labonte", "participants": [{"id": 19684387, "gamerTag": "Terry Labonte", "prefix": "TFT", "user": {"location": {"city": "Doraville", "state": "GA", "country": "United States"}}, "player": {"id": 1227401, "gamerTag": "Terry Labonte", "prefix": "TFT", "user": {"location": {"city": "Doraville", "state": "GA", "country": "United States"}}}}]}, "standing": {"placement": 1, "stats": {"score": {"value": 3}}}}], "games": null}, {"id": 94731083, "state": 3, "round": 1, "fullRoundText": "Winners Round 1", "completedAt": 1759712647, "winnerId": 21474764, "slots": [{"id": "94731083-0", "entrant": {"id": 21474764, "name": "millano", "participants": [{"id": 19734911, "gamerTag": "millano", "prefix": "", "user": null, "player": {"id": 4214682, "gamerTag": "millano", "prefix": "", "user": null}}]}, "standing": {"placement": 1, "stats": {"score": {"value": 2}}}}, {"id": "94731083-1", "entrant": {"id": 21474244, "name": "Mrbray30", "participants": [{"id": 19734404, "gamerTag": "Mrbray30", "prefix": "", "user": {"location": {"city": "Atlanta", "state": "GA", "country": "United States"}}, "player": {"id": 4664413, "gamerTag": "Mrbray30", "prefix": "", "user": {"location": {"city": "Atlanta", "state": "GA", "country": "United States"}}}}]}, "standing": {"placement": 2, "stats": {"score": {"value": 1}}}}], "games": null}, {"id": 94731130, "state": 3, "round": 1, "fullRoundText": "Winners Round 1", "completedAt": 1759712679, "winnerId": 21416452, "slots": [{"id": "94731130-0", "entrant": {"id": 21474627, "name": "Tilted", "participants": [{"id": 19734782, "gamerTag": "Tilted", "prefix": null, "user": {"location": {"city": "Norcross", "state": "GA", "country": "United States"}}, "player": {"id": 2377635, "gamerTag": "Tilted", "prefix": null, "user": {"location": {"city": "Norcross", "state": "GA", "country": "United States"}}}}]}, "standing": {"placement": 2, "stats": {"score": {"value": 1}}}}, {"id": "94731130-1", "entrant": {"id": 21416452, "name": "TFT | Ricky Rudd", "participants": [{"id": 19685046, "gamerTag": "Ricky Rudd", "prefix": "TFT", "user": {"location": {"city": "Atlanta", "state": "GA", "country": "United States"}}, "player": {"id": 1751817, "gamerTag": "Ricky Rudd", "prefix": "TFT", "user": {"location": {"city": "Atlanta", "state": "GA", "country": "United States"}}}}]}, "standing": {"placement": 1, "stats": {"score": {"value": 2}}}}], "games": null}, {"id": 94731085, "state": 3, "round": 1, "fullRoundText": "Winners Round 1", "completedAt": 1759712652, "winnerId": 21474787, "slots": [{"id": "94731085-0", "entrant": {"id": 21474787, "name": "RM | WFF | Sakruoi", "participants": [{"id": 19734935, "gamerTag": "Sakruoi", "prefix": "RM | WFF", "user": {"location": {"city": "atlanta", "state": "GA", "country": "United States"}}, "player": {"id": 1230555, "gamerTag": "Sakruoi", "prefix": "RM | WFF", "user": {"location": {"city": "atlanta", "state": "GA", "country": "United States"}}}}]}, "standing": {"placement": 1, "stats": {"score": {"value": 2}}}}, {"id": "94731085-1", "entrant": {"id": 21474743, "name": "Hollybot", "participants": [{"id": 19734890, "gamerTag": "Hollybot", "prefix": null, "user": {"location": {"city": "Atlanta", "state": "GA", "country": "United States"}}, "player": {"id": 4431125, "gamerTag": "Hollybot", "prefix": null, "user": {"location": {"city": "Atlanta", "state": "GA", "country": "United States"}}}}]}, "standing": {"placement": 2, "stats": {"score": {"value": 1}}}}], "games": null}, {"id": 94732213, "state": 3, "round": 1, "fullRoundText": "Winners Semi-Final", "completedAt": 1759718101, "winnerId": 21474683, "slots": [{"id": "94732213-0", "entrant": {"id": 21474787, "name": "RM | WFF | Sakruoi", "participants": [{"id": 19734935, "gamerTag": "Sakruoi", "prefix": "RM | WFF", "user": {"location": {"city": "atlanta", "state": "GA", "country": "United States"}}, "player": {"id": 1230555, "gamerTag": "Sakruoi", "prefix": "RM | WFF", "user": {"location": {"city": "atlanta", "state": "GA", "country": "United States"}}}}]}, "standing": {"placement": 2, "stats": {"score": {"value": 0}}}}, {"id": "94732213-1", "entrant": {"id": 21474683, "name": "Yummy", "participants": [{"id": 19734823, "gamerTag": "Yummy", "prefix": "", "user": {"location": {"city": "Atlanta", "state": "GA", "country": "United States"}}, "player": {"id": 1743866, "gamerTag": "Yummy", "prefix": "", "user": {"location": {"city": "Atlanta", "state": "GA", "country": "United States"}}}}]}, "standing": {"placement": 1, "stats": {"score": {"value": 3}}}}], "games": null}, {"id": 94731134, "state": 3, "round": 1, "fullRoundText": "Winners Round 1", "completedAt": 1759712688, "winnerId": 21474747, "slots": [{"id": "94731134-0", "entrant": {"id": 21474747, "name": "RM | lawl", "participants": [{"id": 19734895, "gamerTag": "lawl", "prefix": "RM", "user": {"location": {"city": "Dacula", "state": "GA", "country": "United States"}}, "player": {"id": 2116990, "gamerTag": "lawl", "prefix": "RM", "user": {"location": {"city": "Dacula", "state": "GA", "country": "United States"}}}}]}, "standing": {"placement": 1, "stats": {"score": {"value": 2}}}}, {"id": "94731134-1", "entrant": {"id": 21474354, "name": "RentsDue", "participants": [{"id": 19734503, "gamerTag": "RentsDue", "prefix": "", "user": {"location": {"city": "Atlanta", "state": "GA", "country": "United States"}}, "player": {"id": 4928353, "gamerTag": "RentsDue", "prefix": "", "user": {"location": {"city": "Atlanta", "state": "GA", "country": "United States"}}}}]}, "standing": {"placement": 2, "stats": {"score": {"value": 1}}}}], "games": null}, {"id": 94731087, "state": 3, "round": 1, "fullRoundText": "Winners Round 1", "completedAt": 1759712904, "winnerId": 21474744, "slots": [{"id": "94731087-0", "entrant": {"id": 21474744, "name": "MTM | Bob Weiner", "participants": [{"id": 19734892, "gamerTag": "Bob Weiner", "prefix": "MTM", "user": {"location": {"city": "Kennesaw", "state": "GA", "country": "United States"}}, "player": {"id": 2142601, "gamerTag": "Bob Weiner", "prefix": "MTM", "user": {"location": {"city": "Kennesaw", "state": "GA", "country": "United States"}}}}]}, "standing": {"placement": 1, "stats": {"score": {"value": 2}}}}, {"id": "94731087-1", "entrant": {"id": 21474805, "name": "assclapFGC", "participants": [{"id": 19734958, "gamerTag": "assclapFGC", "prefix": "", "user": {"location": {"city": "Scottdale", "state": "GA", "country": "United States"}}, "player": {"id": 3481864, "gamerTag": "assclapFGC", "prefix": "", "user": {"location": {"city": "Scottdale", "state": "GA", "country": "United States"}}}}]}, "standing": {"placement": 2, "stats": {"score": {"value": 1}}}}], "games": null}, {"id": 94731136, "state": 3, "round": 1, "fullRoundText": "Winners Round 1", "completedAt": 1759712692, "winnerId": 21474702, "slots": [{"id": "94731136-0", "entrant": {"id": 21474702, "name": "Mickeydeez", "participants": [{"id": 19734850, "gamerTag": "Mickeydeez", "prefix": "", "user": {"location": {"city": "Atlanta", "state": "GA", "country": "United States"}}, "player": {"id": 4825580, "gamerTag": "Mickeydeez", "prefix": "", "user": {"location": {"city": "Atlanta", "state": "GA", "country": "United States"}}}}]}, "standing": {"placement": 1, "stats": {"score": {"value": 2}}}}, {"id": "94731136-1", "entrant": {"id": 21474130, "name": "Jahku$ha", "participants": [{"id": 19734323, "gamerTag": "Jahku$ha", "prefix": "", "user": {"location": {"city": "Atlanta", "state": "GA", "country": "United States"}}, "player": {"id": 4559746, "gamerTag": "Jahku$ha", "prefix": "", "user": {"location": {"city": "Atlanta", "state": "GA", "country": "United States"}}}}]}, "standing": {"placement": 2, "stats": {"score": {"value": 1}}}}], "games": null}, {"id": 94731089, "state": 3, "round": 1, "fullRoundText": "Winners Round 1", "completedAt": 1759712658, "winnerId": 21473853, "slots": [{"id": "94731089-0", "entrant": {"id": 21473853, "name": "Jdaddy", "participants": [{"id": 19734062, "gamerTag": "Jdaddy", "prefix": null, "user": {"location": {"city": "Atlanta", "state": "GA", "country": "United States"}}, "player": {"id": 4384721, "gamerTag": "Jdaddy", "prefix": null, "user": {"location": {"city": "Atlanta", "state": "GA", "country": "United States"}}}}]}, "standing": {"placement": 1, "stats": {"score": {"value": 2}}}}, {"id": "94731089-1", "entrant": {"id": 21474258, "name": "Skittles", "participants": [{"id": 19734422, "gamerTag": "Skittles", "prefix": null, "user": {"location": {"city": "Marietta", "state": "GA", "country": "United States"}}, "player": {"id": 136086, "gamerTag": "Skittles", "prefix": null, "user": {"location": {"city": "Marietta", "state": "GA", "country": "United States"}}}}]}, "standing": {"placement": 2, "stats": {"score": {"value": 1}}}}], "games": null}, {"id": 94732227, "state": 3, "round": -4, "fullRoundText": "Losers Quarter-Final", "completedAt": 1759719822, "winnerId": 21474243, "slots": [{"id": "94732227-0", "entrant": {"id": 21474787, "name": "RM | WFF | Sakruoi", "participants": [{"id": 19734935, "gamerTag": "Sakruoi", "prefix": "RM | WFF", "user": {"location": {"city": "atlanta", "state": "GA", "country": "United States"}}, "player": {"id": 1230555, "gamerTag": "Sakruoi", "prefix": "RM | WFF", "user": {"location": {"city": "atlanta", "state": "GA", "country": "United States"}}}}]}, "standing": {"placement": 2, "stats": {"score": {"value": 0}}}}, {"id": "94732227-1", "entrant": {"id": 21474243, "name": "4o4 | chooryu :)", "participants": [{"id": 19734403, "gamerTag": "chooryu :)", "prefix": "4o4", "user": {"location": {"city": "Kennesaw", "state": "GA", "country": "United States"}}, "player": {"id": 466564, "gamerTag": "chooryu :)", "prefix": "4o4", "user": {"location": {"city": "Kennesaw", "state": "GA", "country": "United States"}}}}]}, "standing": {"placement": 1, "stats": {"score": {"value": 2}}}}], "games": null}, {"id": 94732228, "state": 3, "round": -4, "fullRoundText": "Losers Quarter-Final", "completedAt": 1759718989, "winnerId": 21474689, "slots": [{"id": "94732228-0", "entrant": {"id": 21474652, "name": "TFT | RoKu", "participants": [{"id": 19734800, "gamerTag": "RoKu", "prefix": "TFT", "user": {"location": {"city": "Peachtree Corners", "state": "GA", "country": "United States"}}, "player": {"id": 1107285, "gamerTag": "RoKu", "prefix": "TFT", "user": {"location": {"city": "Peachtree Corners", "state": "GA", "country": "United States"}}}}]}, "standing": {"placement": 2, "stats": {"score": {"value": 0}}}}, {"id": "94732228-1", "entrant": {"id": 21474689, "name": "uM | Jenesis", "participants": [{"id": 19734830, "gamerTag": "Jenesis", "prefix": "uM", "user": {"location": {"city": "Marietta", "state": "GA", "country": "United States"}}, "player": {"id": 36629, "gamerTag": "Jenesis", "prefix": "uM", "user": {"location": {"city": "Marietta", "state": "GA", "country": "United States"}}}}]}, "standing": {"placement": 1, "stats": {"score": {"value": 3}}}}], "games": null}, {"id": 94732225, "state": 3, "round": -3, "fullRoundText": "Losers Round 1", "completedAt": 1759718937, "winnerId": 21474243, "slots": [{"id": "94732225-0", "entrant": {"id": 21416452, "name": "TFT | Ricky Rudd", "participants": [{"id": 19685046, "gamerTag": "Ricky Rudd", "prefix": "TFT", "user": {"location": {"city": "Atlanta", "state": "GA", "country": "United States"}}, "player": {"id": 1751817, "gamerTag": "Ricky Rudd", "prefix": "TFT", "user": {"location": {"city": "Atlanta", "state": "GA", "country": "United States"}}}}]}, "standing": {"placement": 2, "stats": {"score": {"value": 0}}}}, {"id": "94732225-1", "entrant": {"id": 21474243, "name": "4o4 | chooryu :)", "participants": [{"id": 19734403, "gamerTag": "chooryu :)", "prefix": "4o4", "user": {"location": {"city": "Kennesaw", "state": "GA", "country": "United States"}}, "player": {"id": 466564, "gamerTag": "chooryu :)", "prefix": "4o4", "user": {"location": {"city": "Kennesaw", "state": "GA", "country": "United States"}}}}]}, "standing": {"placement": 1, "stats": {"score": {"value": 2}}}}], "games": null}, {"id": 94732226, "state": 3, "round": -3, "fullRoundText": "Losers Round 1", "completedAt": 1759718300, "winnerId": 21474689, "slots": [{"id": "94732226-0", "entrant": {"id": 21474744, "name": "MTM | Bob Weiner", "participants": [{"id": 19734892, "gamerTag": "Bob Weiner", "prefix": "MTM", "user": {"location": {"city": "Kennesaw", "state": "GA", "country": "United States"}}, "player": {"id": 2142601, "gamerTag": "Bob Weiner", "prefix": "MTM", "user": {"location": {"city": "Kennesaw", "state": "GA", "country": "United States"}}}}]}, "standing": {"placement": 2, "stats": {"score": {"value": 1}}}}, {"id": "94732226-1", "entrant": {"id": 21474689, "name": "uM | Jenesis", "participants": [{"id": 19734830, "gamerTag": "Jenesis", "prefix": "uM", "user": {"location": {"city": "Marietta", "state": "GA", "country": "United States"}}, "player": {"id": 36629, "gamerTag": "Jenesis", "prefix": "uM", "user": {"location": {"city": "Marietta", "state": "GA", "country": "United States"}}}}]}, "standing": {"placement": 1, "stats": {"score": {"value": 2}}}}], "games": null}]}}}