{"phase": {"seeds": {"pageInfo": {"totalPages": 1, "total": 6}, "nodes": [{"id": 37014069, "seedNum": 4, "entrant": {"id": 21544635, "name": "dertdobber", "participants": [{"id": 19797309, "gamerTag": "dertdobber", "prefix": null, "user": {"location": {"city": "Savannah", "state": "GA", "country": "United States"}}, "player": {"id": 173899, "gamerTag": "dertdobber", "prefix": null, "user": {"location": {"city": "Savannah", "state": "GA", "country": "United States"}}}}]}}, {"id": 37015128, "seedNum": 6, "entrant": {"id": 21545540, "name": "Chance", "participants": [{"id": 19797482, "gamerTag": "Chance", "prefix": "", "user": {"location": {"city": "Savannah", "state": "GA", "country": "United States"}}, "player": {"id": 1442765, "gamerTag": "Chance", "prefix": "", "user": {"location": {"city": "Savannah", "state": "GA", "country": "United States"}}}}]}}, {"id": 37007356, "seedNum": 1, "entrant": {"id": 21539614, "name": "SQ1 | TheFamilyPanda", "participants": [{"id": 19792719, "gamerTag": "TheFamilyPanda", "prefix": "SQ1", "user": {"location": {"city": "Savannah", "state": "GA", "country": "United States"}}, "player": {"id": 2228673, "gamerTag": "TheFamilyPanda", "prefix": "SQ1", "user": {"location": {"city": "Savannah", "state": "GA", "country": "United States"}}}}]}}, {"id": 37014587, "seedNum": 5, "entrant": {"id": 21545106, "name": "Maybe | JonGodSama", "participants": [{"id": 19797729, "gamerTag": "JonGodSama", "prefix": "Maybe", "user": {"location": {"city": null, "state": null, "country": "United States"}}, "player": {"id": 4495718, "gamerTag": "JonGodSama", "prefix": "Maybe", "user": {"location": {"city": null, "state": null, "country": "United States"}}}}]}}, {"id": 37010977, "seedNum": 2, "entrant": {"id": 21542200, "name": "shinobu", "participants": [{"id": 19795158, "gamerTag": "shinobu", "prefix": "", "user": {"location": {"city": "Savannah", "state": "GA", "country": "United States"}}, "player": {"id": 5003262, "gamerTag": "shinobu", "prefix": "", "user": {"location": {"city": "Savannah", "state": "GA", "country": "United States"}}}}]}}, {"id": 37013497, "seedNum": 3, "entrant": {"id": 21544132, "name": "Mrfreefree", "participants": [{"id": 19796847, "gamerTag": "Mrfreefree", "prefix": "", "user": {"location": {"city": "Rincon", "state": "GA", "country": "United States"}}, "player": {"id": 4405269, "gamerTag": "Mrfreefree", "prefix": "", "user": {"location": {"city": "Rincon", "state": "GA", "country": "United States"}}}}]}}]}}}