{"phase": {"seeds": {"pageInfo": {"totalPages": 1, "total": 17}, "nodes": [{"id": 35788680, "seedNum": 12, "entrant": {"id": 20742661, "name": "blendoben", "participants": [{"id": 18873734, "gamerTag": "blendoben", "prefix": null, "user": {"location": {"city": "Perry", "state": "GA", "country": "United States"}}, "player": {"id": 140048, "gamerTag": "blendoben", "prefix": null, "user": {"location": {"city": "Perry", "state": "GA", "country": "United States"}}}}]}}, {"id": 35776981, "seedNum": 3, "entrant": {"id": 20733544, "name": "Chato", "participants": [{"id": 19080847, "gamerTag": "Chato", "prefix": null, "user": {"location": {"city": null, "state": null, "country": null}}, "player": {"id": 657291, "gamerTag": "Chato", "prefix": null, "user": {"location": {"city": null, "state": null, "country": null}}}}]}}, {"id": 35712147, "seedNum": 2, "entrant": {"id": 20687694, "name": "D3King", "participants": [{"id": 18873678, "gamerTag": "D3King", "prefix": null, "user": {"location": {"city": "Macon", "state": "GA", "country": "United States"}}, "player": {"id": 213861, "gamerTag": "D3King", "prefix": "YHWH", "user": {"location": {"city": "Macon", "state": "GA", "country": "United States"}}}}]}}, {"id": 35431488, "seedNum": 1, "entrant": {"id": 20504091, "name": "MrMixtape", "participants": [{"id": 18873680, "gamerTag": "MrMixtape", "prefix": null, "user": {"location": {"city": null, "state": null, "country": null}}, "player": {"id": 3930310, "gamerTag": "MrMixtape", "prefix": null, "user": {"location": {"city": null, "state": null, "country": null}}}}]}}, {"id": 35749648, "seedNum": 10, "entrant": {"id": 20715057, "name": "Goob Academy | Jiub", "participants": [{"id": 19065066, "gamerTag": "Jiub", "prefix": "Goob Academy", "user": {"location": {"city": "Warner Robins", "state": "GA", "country": "United States"}}, "player": {"id": 4457617, "gamerTag": "Jiub", "prefix": "Goob Academy", "user": {"location": {"city": "Warner Robins", "state": "GA", "country": "United States"}}}}]}}, {"id": 35768690, "seedNum": 15, "entrant": {"id": 20728191, "name": "AfterKast", "participants": [{"id": 19076237, "gamerTag": "AfterKast", "prefix": null, "user": {"location": {"city": "Macon", "state": "GA", "country": "United States"}}, "player": {"id": 3467624, "gamerTag": "AfterKast", "prefix": null, "user": {"location": {"city": "Macon", "state": "GA", "country": "United States"}}}}]}}, {"id": 35712222, "seedNum": 4, "entrant": {"id": 20687735, "name": "LOL!", "participants": [{"id": 19040814, "gamerTag": "LOL!", "prefix": "", "user": {"location": {"city": "Byron", "state": "GA", "country": "United States"}}, "player": {"id": 3212772, "gamerTag": "LOL!", "prefix": "", "user": {"location": {"city": "Byron", "state": "GA", "country": "United States"}}}}]}}, {"id": 35751758, "seedNum": 13, "entrant": {"id": 20716809, "name": "Espadah | ReaperNoLimit", "participants": [{"id": 19066360, "gamerTag": "ReaperNoLimit", "prefix": "Espadah", "user": {"location": {"city": "Warner robbins", "state": "GA", "country": "United States"}}, "player": {"id": 1650376, "gamerTag": "ReaperNoLimit", "prefix": "Espadah", "user": {"location": {"city": "Warner robbins", "state": "GA", "country": "United States"}}}}]}}, {"id": 35757333, "seedNum": 6, "entrant": {"id": 20720517, "name": "Astroh", "participants": [{"id": 18873735, "gamerTag": "Astroh", "prefix": null, "user": {"location": {"city": "Byron", "state": "GA", "country": "United States"}}, "player": {"id": 1329801, "gamerTag": "Astroh", "prefix": null, "user": {"location": {"city": "Byron", "state": "GA", "country": "United States"}}}}]}}, {"id": 35782927, "seedNum": 8, "entrant": {"id": 20738083, "name": "Area_478 | BigBoss_DP", "participants": [{"id": 19084415, "gamerTag": "BigBoss_DP", "prefix": "Area_478", "user": {"location": {"city": "Macon", "state": "GA", "country": "United States"}}, "player": {"id": 146751, "gamerTag": "BigBoss_DP", "prefix": "Area_478", "user": {"location": {"city": "Macon", "state": "GA", "country": "United States"}}}}]}}, {"id": 35788668, "seedNum": 9, "entrant": {"id": 20742649, "name": "Pear", "participants": [{"id": 18873736, "gamerTag": "Pear", "prefix": null, "user": {"location": {"city": "Macon", "state": "GA", "country": "United States"}}, "player": {"id": 3535960, "gamerTag": "Pear", "prefix": null, "user": {"location": {"city": "Macon", "state": "GA", "country": "United States"}}}}]}}, {"id": 35777137, "seedNum": 11, "entrant": {"id": 20733686, "name": "JazzMo", "participants": [{"id": 19080951, "gamerTag": "JazzMo", "prefix": null, "user": {"location": {"city": "Macon", "state": "GA", "country": "United States"}}, "player": {"id": 2369252, "gamerTag": "JazzMo", "prefix": null, "user": {"location": {"city": "Macon", "state": "GA", "country": "United States"}}}}]}}, {"id": 35788879, "seedNum": 5, "entrant": {"id": 20742761, "name": "Mga | Start9er", "participants": [{"id": 19088652, "gamerTag": "Start9er", "prefix": "Mga", "user": null, "player": {"id": 4876342, "gamerTag": "Start9er", "prefix": "Mga", "user": null}}]}}, {"id": 35782139, "seedNum": 7, "entrant": {"id": 20737504, "name": "Evernight", "participants": [{"id": 19083933, "gamerTag": "Evernight", "prefix": null, "user": {"location": {"city": "Macon", "state": "GA", "country": "United States"}}, "player": {"id": 548064, "gamerTag": "Evernight", "prefix": null, "user": {"location": {"city": "Macon", "state": "GA", "country": "United States"}}}}]}}, {"id": 35788623, "seedNum": 14, "entrant": {"id": 20742608, "name": "MGA | Grapeshot", "participants": [{"id": 19088525, "gamerTag": "Grapeshot", "prefix": "MGA", "user": null, "player": {"id": 2896830, "gamerTag": "Grapeshot", "prefix": "MGA", "user": null}}]}}, {"id": 35655590, "seedNum": 16, "entrant": {"id": 20647288, "name": "slingshot", "participants": [{"id": 19005905, "gamerTag": "slingshot", "prefix": "", "user": {"location": {"city": "Fort Valley", "state": "GA", "country": "United States"}}, "player": {"id": 3830780, "gamerTag": "slingshot", "prefix": "", "user": {"location": {"city": "Fort Valley", "state": "GA", "country": "United States"}}}}]}}, {"id": 35429897, "seedNum": 17, "entrant": {"id": 20502971, "name": "SON-Reboot | SirRetro08", "participants": [{"id": 18880359, "gamerTag": "SirRetro08", "prefix": "SON-Reboot", "user": {"location": {"city": "Macon", "state": "GA", "country": "United States"}}, "player": {"id": 138105, "gamerTag": "SirRetro08", "prefix": "SON-Reboot", "user": {"location": {"city": "Macon", "state": "GA", "country": "United States"}}}}]}}]}}}