{"event": {"sets": {"pageInfo": {"totalPages": 3, "total": 33}, "nodes": [{"id": 91612706, "state": 3, "round": 2, "fullRoundText": "Winners Round 2", "completedAt": 1752964548, "winnerId": 20720517, "slots": [{"id": "91612706-0", "entrant": {"id": 20720517, "name": "Astroh", "participants": [{"id": 18873735, "gamerTag": "Astroh", "prefix": null, "user": {"location": {"city": "Byron", "state": "GA", "country": "United States"}}, "player": {"id": 1329801, "gamerTag": "Astroh", "prefix": null, "user": {"location": {"city": "Byron", "state": "GA", "country": "United States"}}}}]}, "standing": {"placement": 1, "stats": {"score": {"value": 2}}}}, {"id": "91612706-1", "entrant": {"id": 20733686, "name": "JazzMo", "participants": [{"id": 19080951, "gamerTag": "JazzMo", "prefix": null, "user": {"location": {"city": "Macon", "state": "GA", "country": "United States"}}, "player": {"id": 2369252, "gamerTag": "JazzMo", "prefix": null, "user": {"location": {"city": "Macon", "state": "GA", "country": "United States"}}}}]}, "standing": {"placement": 2, "stats": {"score": {"value": 0}}}}], "games": null}, {"id": 91612756, "state": 3, "round": -4, "fullRoundText": "Losers Round 1", "completedAt": 1752965027, "winnerId": 20733686, "slots": [{"id": "91612756-0", "entrant": {"id": 20733686, "name": "JazzMo", "participants": [{"id": 19080951, "gamerTag": "JazzMo", "prefix": null, "user": {"location": {"city": "Macon", "state": "GA", "country": "United States"}}, "player": {"id": 2369252, "gamerTag": "JazzMo", "prefix": null, "user": {"location": {"city": "Macon", "state": "GA", "country": "United States"}}}}]}, "standing": {"placement": 1, "stats": {"score": {"value": 2}}}}, {"id": "91612756-1", "entrant": {"id": 20502971, "name": "SON-Reboot | SirRetro08", "participants": [{"id": 18880359, "gamerTag": "SirRetro08", "prefix": "SON-Reboot", "user": {"location": {"city": "Macon", "state": "GA", "country": "United States"}}, "player": {"id": 138105, "gamerTag": "SirRetro08", "prefix": "SON-Reboot", "user": {"location": {"city": "Macon", "state": "GA", "country": "United States"}}}}]}, "standing": {"placement": 2, "stats": {"score": {"value": 1}}}}], "games": null}, {"id": 91612684, "state": 3, "round": 1, "fullRoundText": "Winners Round 1", "completedAt": 1752963275, "winnerId": 20647288, "slots": [{"id": "91612684-0", "entrant": {"id": 20647288, "name": "slingshot", "participants": [{"id": 19005905, "gamerTag": "slingshot", "prefix": "", "user": {"location": {"city": "Fort Valley", "state": "GA", "country": "United States"}}, "player": {"id": 3830780, "gamerTag": "slingshot", "prefix": "", "user": {"location": {"city": "Fort Valley", "state": "GA", "country": "United States"}}}}]}, "standing": {"placement": 1, "stats": {"score": {"value": null}}}}, {"id": "91612684-1", "entrant": {"id": 20502971, "name": "SON-Reboot | SirRetro08", "participants": [{"id": 18880359, "gamerTag": "SirRetro08", "prefix": "SON-Reboot", "user": {"location": {"city": "Macon", "state": "GA", "country": "United States"}}, "player": {"id": 138105, "gamerTag": "SirRetro08", "prefix": "SON-Reboot", "user": {"location": {"city": "Macon", "state": "GA", "country": "United States"}}}}]}, "standing": {"placement": 2, "stats": {"score": {"value": -1}}}}], "games": null}]}}}