{"event": {"sets": {"pageInfo": {"totalPages": 22, "total": 318}, "nodes": [{"id": 92227832, "state": 3, "round": 2, "fullRoundText": "Winners Round 2", "completedAt": 1754173942, "winnerId": 20730596, "slots": [{"id": "92227832-0", "entrant": {"id": 20730596, "name": "TTV | aj_waves", "participants": [{"id": 19078266, "gamerTag": "aj_waves", "prefix": "TTV", "user": {"location": {"city": "Statesboro", "state": "GA", "country": "United States"}}, "player": {"id": 3430874, "gamerTag": "aj_waves", "prefix": "TTV", "user": {"location": {"city": "Statesboro", "state": "GA", "country": "United States"}}}}]}, "standing": {"placement": 1, "stats": {"score": {"value": 2}}}}, {"id": "92227832-1", "entrant": {"id": 20842149, "name": "FANN", "participants": [{"id": 19178967, "gamerTag": "FANN", "prefix": "", "user": {"location": {"city": "Valdosta", "state": "GA", "country": "United States"}}, "player": {"id": 2366169, "gamerTag": "crimFANN", "prefix": "", "user": {"location": {"city": "Valdosta", "state": "GA", "country": "United States"}}}}]}, "standing": {"placement": 2, "stats": {"score": {"value": 0}}}}], "games": null}, {"id": 92227382, "state": 3, "round": 2, "fullRoundText": "Winners Round 2", "completedAt": 1754168136, "winnerId": 20488758, "slots": [{"id": "92227382-0", "entrant": {"id": 20488758, "name": "LBE | Acid @ Indigo Park", "participants": [{"id": 18867695, "gamerTag": "Acid @ Indigo Park", "prefix": "LBE", "user": {"location": {"city": null, "state": null, "country": "United States"}}, "player": {"id": 1917673, "gamerTag": "Acid @ Indigo Park", "prefix": "LBE", "user": {"location": {"city": null, "state": null, "country": "United States"}}}}]}, "standing": {"placement": 1, "stats": {"score": {"value": 0}}}}, {"id": "92227382-1", "entrant": {"id": 20724332, "name": "FClub | Conner Sanders", "participants": [{"id": 19073026, "gamerTag": "Conner Sanders", "prefix": "FClub", "user": {"location": {"city": "Brandon", "state": "MS", "country": "United States"}}, "player": {"id": 151456, "gamerTag": "Conner Sanders", "prefix": "FClub", "user": {"location": {"city": "Brandon", "state": "MS", "country": "United States"}}}}]}, "standing": {"placement": 2, "stats": {"score": {"value": -1}}}}], "games": null}, {"id": 92227192, "state": 3, "round": 2, "fullRoundText": "Winners Round 2", "completedAt": 1754167834, "winnerId": 20555303, "slots": [{"id": "92227192-0", "entrant": {"id": 20555303, "name": "MopN", "participants": [{"id": 18925707, "gamerTag": "MopN", "prefix": "", "user": {"location": {"city": "Montevallo", "state": "AL", "country": "United States"}}, "player": {"id": 180688, "gamerTag": "MopN", "prefix": "", "user": {"location": {"city": "Montevallo", "state": "AL", "country": "United States"}}}}]}, "standing": {"placement": 1, "stats": {"score": {"value": 2}}}}, {"id": "92227192-1", "entrant": {"id": 20865146, "name": "Par-i-dot Alpha", "participants": [{"id": 19199748, "gamerTag": "Par-i-dot Alpha", "prefix": "", "user": {"location": {"city": "Lithoina", "state": "GA", "country": "United States"}}, "player": {"id": 36418, "gamerTag": "Avalon", "prefix": "", "user": {"location": {"city": "Lithoina", "state": "GA", "country": "United States"}}}}]}, "standing": {"placement": 2, "stats": {"score": {"value": 0}}}}], "games": null}, {"id": 92227621, "state": 3, "round": 2, "fullRoundText": "Winners Round 2", "completedAt": 1754174819, "winnerId": 20487659, "slots": [{"id": "92227621-0", "entrant": {"id": 20487659, "name": "WIN | KornDog | CJFrozen", "participants": [{"id": 18866879, "gamerTag": "CJFrozen", "prefix": "WIN | KornDog", "user": {"location": {"city": "Rock Hill", "state": "SC", "country": "United States"}}, "player": {"id": 918277, "gamerTag": "CJFrozen", "prefix": "WIN | KornDog", "user": {"location": {"city": "Rock Hill", "state": "SC", "country": "United States"}}}}]}, "standing": {"placement": 1, "stats": {"score": {"value": 2}}}}, {"id": "92227621-1", "entrant": {"id": 20710004, "name": "DaHuey", "participants": [{"id": 19060500, "gamerTag": "DaHuey", "prefix": "", "user": {"location": {"city": "Cartersville", "state": "GA", "country": "United States"}}, "player": {"id": 1183375, "gamerTag": "DaHuey", "prefix": "", "user": {"location": {"city": "Cartersville", "state": "GA", "country": "United States"}}}}]}, "standing": {"placement": 2, "stats": {"score": {"value": 0}}}}], "games": null}, {"id": 92227833, "state": 3, "round": 2, "fullRoundText": "Winners Round 2", "completedAt": 1754174680, "winnerId": 20719693, "slots": [{"id": "92227833-0", "entrant": {"id": 20719693, "name": "PHNM | Senn", "participants": [{"id": 19068870, "gamerTag": "Senn", "prefix": "PHNM", "user": {"location": {"city": "Waxhaw", "state": "NC", "country": "United States"}}, "player": {"id": 1194511, "gamerTag": "Senn", "prefix": "PHNM", "user": {"location": {"city": "Waxhaw", "state": "NC", "country": "United States"}}}}]}, "standing": {"placement": 1, "stats": {"score": {"value": 2}}}}, {"id": "92227833-1", "entrant": {"id": 20516098, "name": "Heart", "participants": [{"id": 18891882, "gamerTag": "Heart", "prefix": "", "user": {"location": {"city": "Atlanta", "state": "GA", "country": "United States"}}, "player": {"id": 4287822, "gamerTag": "Heart", "prefix": "", "user": {"location": {"city": "Atlanta", "state": "GA", "country": "United States"}}}}]}, "standing": {"placement": 2, "stats": {"score": {"value": 0}}}}], "games": null}, {"id": 92227383, "state": 3, "round": 2, "fullRoundText": "Winners Round 2", "completedAt": 1754168324, "winnerId": 20720965, "slots": [{"id": "92227383-0", "entrant": {"id": 20720965, "name": "ROK | Surehyper", "participants": [{"id": 19070028, "gamerTag": "Surehyper", "prefix": "ROK", "user": {"location": {"city": "Miami", "state": "FL", "country": "United States"}}, "player": {"id": 1726915, "gamerTag": "Surehyper", "prefix": "ROK", "user": {"location": {"city": "Miami", "state": "FL", "country": "United States"}}}}]}, "standing": {"placement": 1, "stats": {"score": {"value": 2}}}}, {"id": "92227383-1", "entrant": {"id": 20843201, "name": "MONEY | ImNoPro", "participants": [{"id": 19180001, "gamerTag": "ImNoPro", "prefix": "MONEY", "user": {"location": {"city": "Calhoun", "state": "GA", "country": "United States"}}, "player": {"id": 2149803, "gamerTag": "ImNoPro", "prefix": "MONEY", "user": {"location": {"city": "Calhoun", "state": "GA", "country": "United States"}}}}]}, "standing": {"placement": 2, "stats": {"score": {"value": 0}}}}], "games": null}, {"id": 92227193, "state": 3, "round": 2, "fullRoundText": "Winners Round 2", "completedAt": 1754168059, "winnerId": 20488589, "slots": [{"id": "92227193-0", "entrant": {"id": 20488589, "name": "Tobe", "participants": [{"id": 18867548, "gamerTag": "Tobe", "prefix": "", "user": {"location": {"city": "Buford", "state": "GA", "country": "United States"}}, "player": {"id": 1646132, "gamerTag": "Tobe", "prefix": "", "user": {"location": {"city": "Buford", "state": "GA", "country": "United States"}}}}]}, "standing": {"placement": 1, "stats": {"score": {"value": 2}}}}, {"id": "92227193-1", "entrant": {"id": 20488008, "name": "Sacred", "participants": [{"id": 18867157, "gamerTag": "Sacred", "prefix": "", "user": {"location": {"city": null, "state": null, "country": "United States"}}, "player": {"id": 1007555, "gamerTag": "Sacred", "prefix": "", "user": {"location": {"city": null, "state": null, "country": "United States"}}}}]}, "standing": {"placement": 2, "stats": {"score": {"value": 0}}}}], "games": null}, {"id": 92227834, "state": 3, "round": 2, "fullRoundText": "Winners Round 2", "completedAt": 1754174156, "winnerId": 20703864, "slots": [{"id": "92227834-0", "entrant": {"id": 20703864, "name": "EVC | squirtleB", "participants": [{"id": 19054784, "gamerTag": "squirtleB", "prefix": "EVC", "user": {"location": {"city": null, "state": null, "country": null}}, "player": {"id": 264290, "gamerTag": "squirtleB", "prefix": "EVC", "user": {"location": {"city": null, "state": null, "country": null}}}}]}, "standing": {"placement": 1, "stats": {"score": {"value": 2}}}}, {"id": "92227834-1", "entrant": {"id": 20490196, "name": "Cute Fluffy Puppy Lover", "participants": [{"id": 18868963, "gamerTag": "Cute Fluffy Puppy Lover", "prefix": "", "user": {"location": {"city": "Atlanta", "state": "GA", "country": "United States"}}, "player": {"id": 547843, "gamerTag": "Cute Fluffy Puppy Lover", "prefix": "", "user": {"location": {"city": "Atlanta", "state": "GA", "country": "United States"}}}}]}, "standing": {"placement": 2, "stats": {"score": {"value": 1}}}}], "games": null}, {"id": 92227622, "state": 3, "round": 2, "fullRoundText": "Winners Round 2", "completedAt": 1754174391, "winnerId": 20843596, "slots": [{"id": "92227622-0", "entrant": {"id": 20611006, "name": "REAL | JoseJFB", "participants": [{"id": 18974125, "gamerTag": "JoseJFB", "prefix": "REAL", "user": {"location": {"city": "Atlanta", "state": "GA", "country": "United States"}}, "player": {"id": 29578, "gamerTag": "JoseJFB", "prefix": "REAL", "user": {"location": {"city": "Atlanta", "state": "GA", "country": "United States"}}}}]}, "standing": {"placement": 2, "stats": {"score": {"value": 1}}}}, {"id": "92227622-1", "entrant": {"id": 20843596, "name": "CeR | scruffie:))", "participants": [{"id": 19180359, "gamerTag": "scruffie:))", "prefix": "CeR", "user": {"location": {"city": "Boca raton", "state": "FL", "country": "United States"}}, "player": {"id": 1894348, "gamerTag": "scruffie:))", "prefix": "", "user": {"location": {"city": "Boca raton", "state": "FL", "country": "United States"}}}}]}, "standing": {"placement": 1, "stats": {"score": {"value": 2}}}}], "games": null}, {"id": 92227384, "state": 3, "round": 2, "fullRoundText": "Winners Round 2", "completedAt": 1754166915, "winnerId": 20662622, "slots": [{"id": "92227384-0", "entrant": {"id": 20745172, "name": "Orion | m0use", "participants": [{"id": 19090916, "gamerTag": "m0use", "prefix": "Orion", "user": {"location": {"city": "Clinton", "state": "TN", "country": "United States"}}, "player": {"id": 1471378, "gamerTag": "m0use", "prefix": "Orion", "user": {"location": {"city": "Clinton", "state": "TN", "country": "United States"}}}}]}, "standing": {"placement": 2, "stats": {"score": {"value": -1}}}}, {"id": "92227384-1", "entrant": {"id": 20662622, "name": "Free | Hue", "participants": [{"id": 19019537, "gamerTag": "Hue", "prefix": "Free", "user": {"location": {"city": "Union City", "state": "GA", "country": "United States"}}, "player": {"id": 35934, "gamerTag": "Hue", "prefix": "Free", "user": {"location": {"city": "Union City", "state": "GA", "country": "United States"}}}}]}, "standing": {"placement": 1, "stats": {"score": {"value": null}}}}], "games": null}, {"id": 92227385, "state": 3, "round": 2, "fullRoundText": "Winners Round 2", "completedAt": 1754168220, "winnerId": 20699992, "slots": [{"id": "92227385-0", "entrant": {"id": 20699992, "name": "SFS | TCS | Dany", "participants": [{"id": 19051511, "gamerTag": "Dany", "prefix": "SFS | TCS", "user": {"location": {"city": "Nashville", "state": "TN", "country": "United States"}}, "player": {"id": 606386, "gamerTag": "Dany2theny", "prefix": "TCS", "user": {"location": {"city": "Nashville", "state": "TN", "country": "United States"}}}}]}, "standing": {"placement": 1, "stats": {"score": {"value": 2}}}}, {"id": "92227385-1", "entrant": {"id": 20867239, "name": "Nestor", "participants": [{"id": 19201441, "gamerTag": "Nestor", "prefix": null, "user": {"location": {"city": "Gainesville", "state": "GA", "country": "United States"}}, "player": {"id": 1630543, "gamerTag": "Nestor", "prefix": null, "user": {"location": {"city": "Gainesville", "state": "GA", "country": "United States"}}}}]}, "standing": {"placement": 2, "stats": {"score": {"value": 0}}}}], "games": null}, {"id": 92227623, "state": 3, "round": 2, "fullRoundText": "Winners Round 2", "completedAt": 1754175154, "winnerId": 20718910, "slots": [{"id": "92227623-0", "entrant": {"id": 20718910, "name": "HyperKirby", "participants": [{"id": 19068181, "gamerTag": "HyperKirby", "prefix": null, "user": {"location": {"city": "Lawrenceville", "state": "GA", "country": "United States"}}, "player": {"id": 71079, "gamerTag": "HyperKirby", "prefix": null, "user": {"location": {"city": "Lawrenceville", "state": "GA", "country": "United States"}}}}]}, "standing": {"placement": 1, "stats": {"score": {"value": 2}}}}, {"id": "92227623-1", "entrant": {"id": 20709953, "name": "RaW | Gekyume", "participants": [{"id": 19060454, "gamerTag": "Gekyume", "prefix": "RaW", "user": {"location": {"city": "Cartersville", "state": "GA", "country": "United States"}}, "player": {"id": 1183242, "gamerTag": "Gekyume", "prefix": "RaW", "user": {"location": {"city": "Cartersville", "state": "GA", "country": "United States"}}}}]}, "standing": {"placement": 2, "stats": {"score": {"value": 0}}}}], "games": null}, {"id": 92227835, "state": 3, "round": 2, "fullRoundText": "Winners Round 2", "completedAt": 1754174403, "winnerId": 20721570, "slots": [{"id": "92227835-0", "entrant": {"id": 20721570, "name": "SmU5h | Vendetta", "participants": [{"id": 19070584, "gamerTag": "Vendetta", "prefix": "SmU5h", "user": {"location": {"city": "Duluth", "state": "GA", "country": "United States"}}, "player": {"id": 343421, "gamerTag": "Vendetta", "prefix": "SmU5h", "user": {"location": {"city": "Duluth", "state": "GA", "country": "United States"}}}}]}, "standing": {"placement": 1, "stats": {"score": {"value": 2}}}}, {"id": "92227835-1", "entrant": {"id": 20488568, "name": "promamamia", "participants": [{"id": 18867510, "gamerTag": "promamamia", "prefix": "", "user": {"location": {"city": "Alpharetta", "state": "GA", "country": "United States"}}, "player": {"id": 3548468, "gamerTag": "promamamia", "prefix": "", "user": {"location": {"city": "Alpharetta", "state": "GA", "country": "United States"}}}}]}, "standing": {"placement": 2, "stats": {"score": {"value": 0}}}}], "games": null}, {"id": 92227194, "state": 3, "round": 2, "fullRoundText": "Winners Round 2", "completedAt": 1754167689, "winnerId": 20680949, "slots": [{"id": "92227194-0", "entrant": {"id": 20680949, "name": "Ns | Xceed | Xerzal", "participants": [{"id": 19034841, "gamerTag": "Xerzal", "prefix": "Ns | Xceed", "user": {"location": {"city": "Tuscaloosa", "state": "AL", "country": "United States"}}, "player": {"id": 1760924, "gamerTag": "Xerzal", "prefix": "Ns | Xceed", "user": {"location": {"city": "Tuscaloosa", "state": "AL", "country": "United States"}}}}]}, "standing": {"placement": 1, "stats": {"score": {"value": 2}}}}, {"id": "92227194-1", "entrant": {"id": 20490815, "name": "KSU | colorful\u029a\u025e", "participants": [{"id": 18869493, "gamerTag": "colorful\u029a\u025e", "prefix": "KSU", "user": {"location": {"city": "Kennesaw", "state": "GA", "country": "United States"}}, "player": {"id": 1783074, "gamerTag": "colorful\u029a\u025e", "prefix": "KSU | RM", "user": {"location": {"city": "Kennesaw", "state": "GA", "country": "United States"}}}}]}, "standing": {"placement": 2, "stats": {"score": {"value": 1}}}}], "games": null}, {"id": 92227836, "state": 3, "round": 2, "fullRoundText": "Winners Round 2", "completedAt": 1754174136, "winnerId": 20488054, "slots": [{"id": "92227836-0", "entrant": {"id": 20488054, "name": "GUMP2 | JankTrees!", "participants": [{"id": 18867197, "gamerTag": "JankTrees!", "prefix": "GUMP2", "user": {"location": {"city": "Cartersville", "state": "GA", "country": "United States"}}, "player": {"id": 35695, "gamerTag": "JankTrees!", "prefix": "GUMP2", "user": {"location": {"city": "Cartersville", "state": "GA", "country": "United States"}}}}]}, "standing": {"placement": 1, "stats": {"score": {"value": 2}}}}, {"id": "92227836-1", "entrant": {"id": 20822777, "name": "Jeni", "participants": [{"id": 19161733, "gamerTag": "Jeni", "prefix": "", "user": {"location": {"city": null, "state": null, "country": null}}, "player": {"id": 1499467, "gamerTag": "Jeni", "prefix": "", "user": {"location": {"city": null, "state": null, "country": null}}}}]}, "standing": {"placement": 2, "stats": {"score": {"value": 1}}}}], "games": null}]}}}