{"event": {"sets": {"pageInfo": {"totalPages": 6, "total": 88}, "nodes": [{"id": 93317470, "state": 3, "round": 7, "fullRoundText": "Grand Final", "completedAt": 1756611246, "winnerId": 21088207, "slots": [{"id": "93317470-0", "entrant": {"id": 21088207, "name": "4o4 | Musa", "participants": [{"id": 19397799, "gamerTag": "Musa", "prefix": "4o4", "user": {"location": {"city": null, "state": null, "country": "United States"}}, "player": {"id": 131537, "gamerTag": "Musa", "prefix": "4o4", "user": {"location": {"city": null, "state": null, "country": "United States"}}}}]}, "standing": {"placement": 1, "stats": {"score": {"value": 3}}}}, {"id": "93317470-1", "entrant": {"id": 20893225, "name": "4o4 | MessatsuIM", "participants": [{"id": 19224033, "gamerTag": "MessatsuIM", "prefix": "4o4", "user": {"location": {"city": "Kennesaw", "state": "GA", "country": "United States"}}, "player": {"id": 3564235, "gamerTag": "MessatsuIM", "prefix": "4o4", "user": {"location": {"city": "Kennesaw", "state": "GA", "country": "United States"}}}}]}, "standing": {"placement": 2, "stats": {"score": {"value": 1}}}}], "games": null}, {"id": 93317469, "state": 3, "round": 6, "fullRoundText": "Winners Final", "completedAt": 1756609318, "winnerId": 21088207, "slots": [{"id": "93317469-0", "entrant": {"id": 20893225, "name": "4o4 | MessatsuIM", "participants": [{"id": 19224033, "gamerTag": "MessatsuIM", "prefix": "4o4", "user": {"location": {"city": "Kennesaw", "state": "GA", "country": "United States"}}, "player": {"id": 3564235, "gamerTag": "MessatsuIM", "prefix": "4o4", "user": {"location": {"city": "Kennesaw", "state": "GA", "country": "United States"}}}}]}, "standing": {"placement": 2, "stats": {"score": {"value": 1}}}}, {"id": "93317469-1", "entrant": {"id": 21088207, "name": "4o4 | Musa", "participants": [{"id": 19397799, "gamerTag": "Musa", "prefix": "4o4", "user": {"location": {"city": null, "state": null, "country": "United States"}}, "player": {"id": 131537, "gamerTag": "Musa", "prefix": "4o4", "user": {"location": {"city": null, "state": null, "country": "United States"}}}}]}, "standing": {"placement": 1, "stats": {"score": {"value": 3}}}}], "games": null}, {"id": 93317597, "state": 3, "round": -12, "fullRoundText": "Losers Final", "completedAt": 1756610604, "winnerId": 20893225, "slots": [{"id": "93317597-0", "entrant": {"id": 20893225, "name": "4o4 | MessatsuIM", "participants": [{"id": 19224033, "gamerTag": "MessatsuIM", "prefix": "4o4", "user": {"location": {"city": "Kennesaw", "state": "GA", "country": "United States"}}, "player": {"id": 3564235, "gamerTag": "MessatsuIM", "prefix": "4o4", "user": {"location": {"city": "Kennesaw", "state": "GA", "country": "United States"}}}}]}, "standing": {"placement": 1, "stats": {"score": {"value": 3}}}}, {"id": "93317597-1", "entrant": {"id": 21027734, "name": "Magneto_1080p", "participants": [{"id": 19343075, "gamerTag": "Magneto_1080p", "prefix": null, "user": {"location": {"city": "Austin", "state": "TX", "country": "United States"}}, "player": {"id": 131810, "gamerTag": "Magneto_1080p", "prefix": null, "user": {"location": {"city": "Austin", "state": "TX", "country": "United States"}}}}]}, "standing": {"placement": 2, "stats": {"score": {"value": 0}}}}], "games": null}, {"id": 93317596, "state": 3, "round": -11, "fullRoundText": "Losers Semi-Final", "completedAt": 1756610126, "winnerId": 21027734, "slots": [{"id": "93317596-0", "entrant": {"id": 21027734, "name": "Magneto_1080p", "participants": [{"id": 19343075, "gamerTag": "Magneto_1080p", "prefix": null, "user": {"location": {"city": "Austin", "state": "TX", "country": "United States"}}, "player": {"id": 131810, "gamerTag": "Magneto_1080p", "prefix": null, "user": {"location": {"city": "Austin", "state": "TX", "country": "United States"}}}}]}, "standing": {"placement": 1, "stats": {"score": {"value": 3}}}}, {"id": "93317596-1", "entrant": {"id": 21068651, "name": "Buddylikefriend", "participants": [{"id": 19380192, "gamerTag": "Buddylikefriend", "prefix": null, "user": {"location": {"city": "Atlanta", "state": "GA", "country": "United States"}}, "player": {"id": 785557, "gamerTag": "Buddylikefriend", "prefix": null, "user": {"location": {"city": "Atlanta", "state": "GA", "country": "United States"}}}}]}, "standing": {"placement": 2, "stats": {"score": {"value": 2}}}}], "games": null}, {"id": 93317467, "state": 3, "round": 5, "fullRoundText": "Winners Semi-Final", "completedAt": 1756607309, "winnerId": 20893225, "slots": [{"id": "93317467-0", "entrant": {"id": 21105576, "name": "Chaos Theory", "participants": [{"id": 19413511, "gamerTag": "Chaos Theory", "prefix": null, "user": {"location": {"city": "Atlanta", "state": "GA", "country": "United States"}}, "player": {"id": 3605408, "gamerTag": "Chaos Theory", "prefix": null, "user": {"location": {"city": "Atlanta", "state": "GA", "country": "United States"}}}}]}, "standing": {"placement": 2, "stats": {"score": {"value": 0}}}}, {"id": "93317467-1", "entrant": {"id": 20893225, "name": "4o4 | MessatsuIM", "participants": [{"id": 19224033, "gamerTag": "MessatsuIM", "prefix": "4o4", "user": {"location": {"city": "Kennesaw", "state": "GA", "country": "United States"}}, "player": {"id": 3564235, "gamerTag": "MessatsuIM", "prefix": "4o4", "user": {"location": {"city": "Kennesaw", "state": "GA", "country": "United States"}}}}]}, "standing": {"placement": 1, "stats": {"score": {"value": 3}}}}], "games": null}, {"id": 93317468, "state": 3, "round": 5, "fullRoundText": "Winners Semi-Final", "completedAt": 1756606825, "winnerId": 21088207, "slots": [{"id": "93317468-0", "entrant": {"id": 21068651, "name": "Buddylikefriend", "participants": [{"id": 19380192, "gamerTag": "Buddylikefriend", "prefix": null, "user": {"location": {"city": "Atlanta", "state": "GA", "country": "United States"}}, "player": {"id": 785557, "gamerTag": "Buddylikefriend", "prefix": null, "user": {"location": {"city": "Atlanta", "state": "GA", "country": "United States"}}}}]}, "standing": {"placement": 2, "stats": {"score": {"value": 2}}}}, {"id": "93317468-1", "entrant": {"id": 21088207, "name": "4o4 | Musa", "participants": [{"id": 19397799, "gamerTag": "Musa", "prefix": "4o4", "user": {"location": {"city": null, "state": null, "country": "United States"}}, "player": {"id": 131537, "gamerTag": "Musa", "prefix": "4o4", "user": {"location": {"city": null, "state": null, "country": "United States"}}}}]}, "standing": {"placement": 1, "stats": {"score": {"value": 3}}}}], "games": null}, {"id": 93317594, "state": 3, "round": -10, "fullRoundText": "Losers Quarter-Final", "completedAt": 1756607856, "winnerId": 21027734, "slots": [{"id": "93317594-0", "entrant": {"id": 21105576, "name": "Chaos Theory", "participants": [{"id": 19413511, "gamerTag": "Chaos Theory", "prefix": null, "user": {"location": {"city": "Atlanta", "state": "GA", "country": "United States"}}, "player": {"id": 3605408, "gamerTag": "Chaos Theory", "prefix": null, "user": {"location": {"city": "Atlanta", "state": "GA", "country": "United States"}}}}]}, "standing": {"placement": 2, "stats": {"score": {"value": 0}}}}, {"id": "93317594-1", "entrant": {"id": 21027734, "name": "Magneto_1080p", "participants": [{"id": 19343075, "gamerTag": "Magneto_1080p", "prefix": null, "user": {"location": {"city": "Austin", "state": "TX", "country": "United States"}}, "player": {"id": 131810, "gamerTag": "Magneto_1080p", "prefix": null, "user": {"location": {"city": "Austin", "state": "TX", "country": "United States"}}}}]}, "standing": {"placement": 1, "stats": {"score": {"value": 3}}}}], "games": null}, {"id": 93317595, "state": 3, "round": -10, "fullRoundText": "Losers Quarter-Final", "completedAt": 1756608646, "winnerId": 21068651, "slots": [{"id": "93317595-0", "entrant": {"id": 21068651, "name": "Buddylikefriend", "participants": [{"id": 19380192, "gamerTag": "Buddylikefriend", "prefix": null, "user": {"location": {"city": "Atlanta", "state": "GA", "country": "United States"}}, "player": {"id": 785557, "gamerTag": "Buddylikefriend", "prefix": null, "user": {"location": {"city": "Atlanta", "state": "GA", "country": "United States"}}}}]}, "standing": {"placement": 1, "stats": {"score": {"value": 3}}}}, {"id": "93317595-1", "entrant": {"id": 20984580, "name": "4o4 | Yugo", "participants": [{"id": 19304369, "gamerTag": "Yugo", "prefix": "4o4", "user": {"location": {"city": "Sandy springs", "state": "GA", "country": "United States"}}, "player": {"id": 338020, "gamerTag": "Yugo", "prefix": "4o4", "user": {"location": {"city": "Sandy springs", "state": "GA", "country": "United States"}}}}]}, "standing": {"placement": 2, "stats": {"score": {"value": 2}}}}], "games": null}, {"id": 93317592, "state": 3, "round": -9, "fullRoundText": "Losers Round 6", "completedAt": 1756607168, "winnerId": 21027734, "slots": [{"id": "93317592-0", "entrant": {"id": 21070660, "name": "EvilDED2", "participants": [{"id": 19382027, "gamerTag": "EvilDED2", "prefix": null, "user": {"location": {"city": "ATLANTA", "state": "GA", "country": "United States"}}, "player": {"id": 3002216, "gamerTag": "EvilDED2", "prefix": null, "user": {"location": {"city": "ATLANTA", "state": "GA", "country": "United States"}}}}]}, "standing": {"placement": 2, "stats": {"score": {"value": 0}}}}, {"id": "93317592-1", "entrant": {"id": 21027734, "name": "Magneto_1080p", "participants": [{"id": 19343075, "gamerTag": "Magneto_1080p", "prefix": null, "user": {"location": {"city": "Austin", "state": "TX", "country": "United States"}}, "player": {"id": 131810, "gamerTag": "Magneto_1080p", "prefix": null, "user": {"location": {"city": "Austin", "state": "TX", "country": "United States"}}}}]}, "standing": {"placement": 1, "stats": {"score": {"value": 3}}}}], "games": null}, {"id": 93317593, "state": 3, "round": -9, "fullRoundText": "Losers Round 6", "completedAt": 1756607810, "winnerId": 20984580, "slots": [{"id": "93317593-0", "entrant": {"id": 20984580, "name": "4o4 | Yugo", "participants": [{"id": 19304369, "gamerTag": "Yugo", "prefix": "4o4", "user": {"location": {"city": "Sandy springs", "state": "GA", "country": "United States"}}, "player": {"id": 338020, "gamerTag": "Yugo", "prefix": "4o4", "user": {"location": {"city": "Sandy springs", "state": "GA", "country": "United States"}}}}]}, "standing": {"placement": 1, "stats": {"score": {"value": 3}}}}, {"id": "93317593-1", "entrant": {"id": 21004898, "name": "4o4 | chrisymandias", "participants": [{"id": 19322554, "gamerTag": "chrisymandias", "prefix": "4o4", "user": {"location": {"city": "Dacula", "state": "GA", "country": "United States"}}, "player": {"id": 258173, "gamerTag": "chrisymandias", "prefix": "4o4", "user": {"location": {"city": "Dacula", "state": "GA", "country": "United States"}}}}]}, "standing": {"placement": 2, "stats": {"score": {"value": 2}}}}], "games": null}, {"id": 93317463, "state": 3, "round": 4, "fullRoundText": "Winners Quarter-Final", "completedAt": 1756606216, "winnerId": 21105576, "slots": [{"id": "93317463-0", "entrant": {"id": 21105576, "name": "Chaos Theory", "participants": [{"id": 19413511, "gamerTag": "Chaos Theory", "prefix": null, "user": {"location": {"city": "Atlanta", "state": "GA", "country": "United States"}}, "player": {"id": 3605408, "gamerTag": "Chaos Theory", "prefix": null, "user": {"location": {"city": "Atlanta", "state": "GA", "country": "United States"}}}}]}, "standing": {"placement": 1, "stats": {"score": {"value": 2}}}}, {"id": "93317463-1", "entrant": {"id": 20984580, "name": "4o4 | Yugo", "participants": [{"id": 19304369, "gamerTag": "Yugo", "prefix": "4o4", "user": {"location": {"city": "Sandy springs", "state": "GA", "country": "United States"}}, "player": {"id": 338020, "gamerTag": "Yugo", "prefix": "4o4", "user": {"location": {"city": "Sandy springs", "state": "GA", "country": "United States"}}}}]}, "standing": {"placement": 2, "stats": {"score": {"value": 1}}}}], "games": null}, {"id": 93317464, "state": 3, "round": 4, "fullRoundText": "Winners Quarter-Final", "completedAt": 1756604904, "winnerId": 20893225, "slots": [{"id": "93317464-0", "entrant": {"id": 20893225, "name": "4o4 | MessatsuIM", "participants": [{"id": 19224033, "gamerTag": "MessatsuIM", "prefix": "4o4", "user": {"location": {"city": "Kennesaw", "state": "GA", "country": "United States"}}, "player": {"id": 3564235, "gamerTag": "MessatsuIM", "prefix": "4o4", "user": {"location": {"city": "Kennesaw", "state": "GA", "country": "United States"}}}}]}, "standing": {"placement": 1, "stats": {"score": {"value": 2}}}}, {"id": "93317464-1", "entrant": {"id": 21004898, "name": "4o4 | chrisymandias", "participants": [{"id": 19322554, "gamerTag": "chrisymandias", "prefix": "4o4", "user": {"location": {"city": "Dacula", "state": "GA", "country": "United States"}}, "player": {"id": 258173, "gamerTag": "chrisymandias", "prefix": "4o4", "user": {"location": {"city": "Dacula", "state": "GA", "country": "United States"}}}}]}, "standing": {"placement": 2, "stats": {"score": {"value": 0}}}}], "games": null}, {"id": 93317465, "state": 3, "round": 4, "fullRoundText": "Winners Quarter-Final", "completedAt": 1756605299, "winnerId": 21068651, "slots": [{"id": "93317465-0", "entrant": {"id": 21068651, "name": "Buddylikefriend", "participants": [{"id": 19380192, "gamerTag": "Buddylikefriend", "prefix": null, "user": {"location": {"city": "Atlanta", "state": "GA", "country": "United States"}}, "player": {"id": 785557, "gamerTag": "Buddylikefriend", "prefix": null, "user": {"location": {"city": "Atlanta", "state": "GA", "country": "United States"}}}}]}, "standing": {"placement": 1, "stats": {"score": {"value": 2}}}}, {"id": "93317465-1", "entrant": {"id": 21070660, "name": "EvilDED2", "participants": [{"id": 19382027, "gamerTag": "EvilDED2", "prefix": null, "user": {"location": {"city": "ATLANTA", "state": "GA", "country": "United States"}}, "player": {"id": 3002216, "gamerTag": "EvilDED2", "prefix": null, "user": {"location": {"city": "ATLANTA", "state": "GA", "country": "United States"}}}}]}, "standing": {"placement": 2, "stats": {"score": {"value": 0}}}}], "games": null}, {"id": 93317466, "state": 3, "round": 4, "fullRoundText": "Winners Quarter-Final", "completedAt": 1756605700, "winnerId": 21088207, "slots": [{"id": "93317466-0", "entrant": {"id": 21027734, "name": "Magneto_1080p", "participants": [{"id": 19343075, "gamerTag": "Magneto_1080p", "prefix": null, "user": {"location": {"city": "Austin", "state": "TX", "country": "United States"}}, "player": {"id": 131810, "gamerTag": "Magneto_1080p", "prefix": null, "user": {"location": {"city": "Austin", "state": "TX", "country": "United States"}}}}]}, "standing": {"placement": 2, "stats": {"score": {"value": 0}}}}, {"id": "93317466-1", "entrant": {"id": 21088207, "name": "4o4 | Musa", "participants": [{"id": 19397799, "gamerTag": "Musa", "prefix": "4o4", "user": {"location": {"city": null, "state": null, "country": "United States"}}, "player": {"id": 131537, "gamerTag": "Musa", "prefix": "4o4", "user": {"location": {"city": null, "state": null, "country": "United States"}}}}]}, "standing": {"placement": 1, "stats": {"score": {"value": 2}}}}], "games": null}, {"id": 93317588, "state": 3, "round": -8, "fullRoundText": "Losers Round 5", "completedAt": 1756605794, "winnerId": 21070660, "slots": [{"id": "93317588-0", "entrant": {"id": 21070660, "name": "EvilDED2", "participants": [{"id": 19382027, "gamerTag": "EvilDED2", "prefix": null, "user": {"location": {"city": "ATLANTA", "state": "GA", "country": "United States"}}, "player": {"id": 3002216, "gamerTag": "EvilDED2", "prefix": null, "user": {"location": {"city": "ATLANTA", "state": "GA", "country": "United States"}}}}]}, "standing": {"placement": 1, "stats": {"score": {"value": 2}}}}, {"id": "93317588-1", "entrant": {"id": 20745468, "name": "AXPS420", "participants": [{"id": 19091173, "gamerTag": "AXPS420", "prefix": null, "user": {"location": {"city": "Atlanta", "state": "GA", "country": "United States"}}, "player": {"id": 3573620, "gamerTag": "AXPS420", "prefix": null, "user": {"location": {"city": "Atlanta", "state": "GA", "country": "United States"}}}}]}, "standing": {"placement": 2, "stats": {"score": {"value": 0}}}}], "games": null}]}}}