{"phase": {"seeds": {"pageInfo": {"totalPages": 1, "total": 5}, "nodes": [{"id": 36438136, "seedNum": 5, "entrant": {"id": 21146033, "name": "mike | mike", "participants": [{"id": 19449988, "gamerTag": "mike", "prefix": "mike", "user": {"location": {"city": "Athens", "state": "GA", "country": "United States"}}, "player": {"id": 1821403, "gamerTag": "mike", "prefix": "mike", "user": {"location": {"city": "Athens", "state": "GA", "country": "United States"}}}}]}}, {"id": 36474391, "seedNum": 2, "entrant": {"id": 21172200, "name": "bean", "participants": [{"id": 19472790, "gamerTag": "bean", "prefix": null, "user": {"location": {"city": "Athens", "state": "GA", "country": "United States"}}, "player": {"id": 3596462, "gamerTag": "bean", "prefix": null, "user": {"location": {"city": "Athens", "state": "GA", "country": "United States"}}}}]}}, {"id": 36496270, "seedNum": 3, "entrant": {"id": 21185310, "name": "ClownDono (Ant)", "participants": [{"id": 19484101, "gamerTag": "ClownDono (Ant)", "prefix": null, "user": {"location": {"city": "Covington", "state": "GA", "country": "United States"}}, "player": {"id": 3545315, "gamerTag": "ClownDono (Ant)", "prefix": null, "user": {"location": {"city": "Covington", "state": "GA", "country": "United States"}}}}]}}, {"id": 36505698, "seedNum": 1, "entrant": {"id": 21191437, "name": "Gooey", "participants": [{"id": 19489115, "gamerTag": "Gooey", "prefix": "", "user": {"location": {"city": "Athens", "state": "GA", "country": "United States"}}, "player": {"id": 1071181, "gamerTag": "Gooey", "prefix": "GRW", "user": {"location": {"city": "Athens", "state": "GA", "country": "United States"}}}}]}}, {"id": 36459748, "seedNum": 4, "entrant": {"id": 21162861, "name": "chr0matic", "participants": [{"id": 19464573, "gamerTag": "chr0matic", "prefix": "", "user": {"location": {"city": null, "state": null, "country": "United States"}}, "player": {"id": 4956519, "gamerTag": "chr0matic", "prefix": "", "user": {"location": {"city": null, "state": null, "country": "United States"}}}}]}}]}}}