{"phase": {"seeds": {"pageInfo": {"totalPages": 1, "total": 28}, "nodes": [{"id": 36738498, "seedNum": 1, "entrant": {"id": 21351574, "name": "Colbol", "participants": [{"id": 19628100, "gamerTag": "Colbol", "prefix": "", "user": {"location": {"city": "Tucker", "state": "GA", "country": "United States"}}, "player": {"id": 1009, "gamerTag": "Colbol", "prefix": "", "user": {"location": {"city": "Tucker", "state": "GA", "country": "United States"}}}}]}}, {"id": 36720695, "seedNum": 2, "entrant": {"id": 21338369, "name": "vivesthesia", "participants": [{"id": 19615890, "gamerTag": "vivesthesia", "prefix": null, "user": {"location": {"city": "Atlanta", "state": "GA", "country": "United States"}}, "player": {"id": 4395171, "gamerTag": "vivesthesia", "prefix": null, "user": {"location": {"city": "Atlanta", "state": "GA", "country": "United States"}}}}]}}, {"id": 36736698, "seedNum": 4, "entrant": {"id": 21350164, "name": "skyguy | Chris Danger", "participants": [{"id": 19626777, "gamerTag": "Chris Danger", "prefix": "skyguy", "user": {"location": {"city": "Atlanta", "state": "GA", "country": "United States"}}, "player": {"id": 2808268, "gamerTag": "Chris Danger", "prefix": "skyguy", "user": {"location": {"city": "Atlanta", "state": "GA", "country": "United States"}}}}]}}, {"id": 36738018, "seedNum": 5, "entrant": {"id": 21351302, "name": "cardd", "participants": [{"id": 19627845, "gamerTag": "cardd", "prefix": "", "user": {"location": {"city": "ATL", "state": "GA", "country": "United States"}}, "player": {"id": 34781, "gamerTag": "cardd", "prefix": "", "user": {"location": {"city": "ATL", "state": "GA", "country": "United States"}}}}]}}, {"id": 36738500, "seedNum": 6, "entrant": {"id": 21351576, "name": "69TacoTuesday69", "participants": [{"id": 19628104, "gamerTag": "69TacoTuesday69", "prefix": "", "user": {"location": {"city": "Atlanta", "state": "GA", "country": "United States"}}, "player": {"id": 158130, "gamerTag": "69TacoTuesday69", "prefix": "", "user": {"location": {"city": "Atlanta", "state": "GA", "country": "United States"}}}}]}}, {"id": 36661938, "seedNum": 9, "entrant": {"id": 21299628, "name": "N/a | C$", "participants": [{"id": 19582141, "gamerTag": "C$", "prefix": "N/a", "user": {"location": null}, "player": {"id": 228175, "gamerTag": "C$", "prefix": "N/a", "user": {"location": null}}}]}}, {"id": 36664158, "seedNum": 7, "entrant": {"id": 21301573, "name": "Wolven", "participants": [{"id": 19583618, "gamerTag": "Wolven", "prefix": null, "user": {"location": {"city": "Atlanta", "state": "GA", "country": "United States"}}, "player": {"id": 126978, "gamerTag": "Wolven", "prefix": null, "user": {"location": {"city": "Atlanta", "state": "GA", "country": "United States"}}}}]}}, {"id": 36661625, "seedNum": 12, "entrant": {"id": 21299349, "name": "diremaykr", "participants": [{"id": 19581894, "gamerTag": "diremaykr", "prefix": "", "user": {"location": {"city": "Buford", "state": "GA", "country": "United States"}}, "player": {"id": 3207366, "gamerTag": "diremaykr", "prefix": "", "user": {"location": {"city": "Buford", "state": "GA", "country": "United States"}}}}]}}, {"id": 36737072, "seedNum": 3, "entrant": {"id": 21350508, "name": "Nero", "participants": [{"id": 19627099, "gamerTag": "Nero", "prefix": "", "user": {"location": {"city": "Calgary", "state": "AB", "country": "Canada"}}, "player": {"id": 175669, "gamerTag": "Nero", "prefix": "", "user": {"location": {"city": "Calgary", "state": "AB", "country": "Canada"}}}}]}}, {"id": 36720193, "seedNum": 8, "entrant": {"id": 21337942, "name": "Monolithic", "participants": [{"id": 19615487, "gamerTag": "Monolithic", "prefix": "", "user": {"location": {"city": "", "state": "GA", "country": "United States"}}, "player": {"id": 1926775, "gamerTag": "Monolithic", "prefix": "", "user": {"location": {"city": "", "state": "GA", "country": "United States"}}}}]}}, {"id": 36736509, "seedNum": 10, "entrant": {"id": 21350089, "name": "Tipped Off | GAwes", "participants": [{"id": 19622848, "gamerTag": "GAwes", "prefix": "Tipped Off", "user": {"location": {"city": "Decatur", "state": "GA", "country": "United States"}}, "player": {"id": 19690, "gamerTag": "GAwes", "prefix": "Tipped Off", "user": {"location": {"city": "Decatur", "state": "GA", "country": "United States"}}}}]}}, {"id": 36734337, "seedNum": 11, "entrant": {"id": 21348497, "name": "cheeks", "participants": [{"id": 19625255, "gamerTag": "cheeks", "prefix": "", "user": {"location": {"city": "Greenville", "state": "SC", "country": "United States"}}, "player": {"id": 2168044, "gamerTag": "cheeks", "prefix": "", "user": {"location": {"city": "Greenville", "state": "SC", "country": "United States"}}}}]}}, {"id": 36734665, "seedNum": 13, "entrant": {"id": 21348761, "name": "citizendog", "participants": [{"id": 19625486, "gamerTag": "citizendog", "prefix": "", "user": {"location": {"city": "Monroe", "state": "GA", "country": "United States"}}, "player": {"id": 176325, "gamerTag": "citizendog", "prefix": "", "user": {"location": {"city": "Monroe", "state": "GA", "country": "United States"}}}}]}}, {"id": 36730323, "seedNum": 14, "entrant": {"id": 21345321, "name": "blaise", "participants": [{"id": 19622420, "gamerTag": "blaise", "prefix": "", "user": {"location": {"city": "douglasville", "state": "GA", "country": "United States"}}, "player": {"id": 1326121, "gamerTag": "blaise", "prefix": "", "user": {"location": {"city": "douglasville", "state": "GA", "country": "United States"}}}}]}}, {"id": 36735977, "seedNum": 15, "entrant": {"id": 21349628, "name": "Tyme", "participants": [{"id": 19626271, "gamerTag": "Tyme", "prefix": null, "user": {"location": {"city": null, "state": null, "country": null}}, "player": {"id": 325589, "gamerTag": "Tyme", "prefix": null, "user": {"location": {"city": null, "state": null, "country": null}}}}]}}, {"id": 36738001, "seedNum": 16, "entrant": {"id": 21351284, "name": "noided", "participants": [{"id": 19627830, "gamerTag": "noided", "prefix": "", "user": {"location": {"city": "Atlanta", "state": "GA", "country": "United States"}}, "player": {"id": 2586521, "gamerTag": "noided", "prefix": "", "user": {"location": {"city": "Atlanta", "state": "GA", "country": "United States"}}}}]}}, {"id": 36738696, "seedNum": 17, "entrant": {"id": 21351727, "name": "Deign", "participants": [{"id": 19628265, "gamerTag": "Deign", "prefix": "", "user": {"location": {"city": null, "state": null, "country": "United States"}}, "player": {"id": 325595, "gamerTag": "Deign", "prefix": "", "user": {"location": {"city": null, "state": null, "country": "United States"}}}}]}}, {"id": 36733905, "seedNum": 18, "entrant": {"id": 21348171, "name": "TSOAP | MuchOlmec", "participants": [{"id": 19624980, "gamerTag": "MuchOlmec", "prefix": "TSOAP", "user": {"location": {"city": "Athens", "state": "GA", "country": "United States"}}, "player": {"id": 1105460, "gamerTag": "MuchOlmec", "prefix": "TSOAP", "user": {"location": {"city": "Athens", "state": "GA", "country": "United States"}}}}]}}, {"id": 36734355, "seedNum": 19, "entrant": {"id": 21348506, "name": "KHW | Frumps", "participants": [{"id": 19625260, "gamerTag": "Frumps", "prefix": "KHW", "user": {"location": {"city": "Greenville", "state": "SC", "country": "United States"}}, "player": {"id": 2844590, "gamerTag": "Frumps", "prefix": "KHW", "user": {"location": {"city": "Greenville", "state": "SC", "country": "United States"}}}}]}}, {"id": 36736896, "seedNum": 20, "entrant": {"id": 21350347, "name": "STEEZY", "participants": [{"id": 19626950, "gamerTag": "STEEZY", "prefix": null, "user": {"location": {"city": "HELL", "state": "GA", "country": "United States"}}, "player": {"id": 2496238, "gamerTag": "STEEZY", "prefix": null, "user": {"location": {"city": "HELL", "state": "GA", "country": "United States"}}}}]}}, {"id": 36729495, "seedNum": 21, "entrant": {"id": 21344912, "name": "Permafrost", "participants": [{"id": 19622033, "gamerTag": "Permafrost", "prefix": "", "user": {"location": {"city": "Atlanta", "state": "GA", "country": "United States"}}, "player": {"id": 1256898, "gamerTag": "Permafrost", "prefix": "", "user": {"location": {"city": "Atlanta", "state": "GA", "country": "United States"}}}}]}}, {"id": 36734560, "seedNum": 22, "entrant": {"id": 21348658, "name": "Joey Christ", "participants": [{"id": 19625398, "gamerTag": "Joey Christ", "prefix": "", "user": {"location": {"city": "perry", "state": "GA", "country": "United States"}}, "player": {"id": 1920484, "gamerTag": "Joey Christ", "prefix": "", "user": {"location": {"city": "perry", "state": "GA", "country": "United States"}}}}]}}, {"id": 36710146, "seedNum": 23, "entrant": {"id": 21331122, "name": "AmbidextrousMoose", "participants": [{"id": 19609790, "gamerTag": "AmbidextrousMoose", "prefix": null, "user": {"location": {"city": "Wilmington", "state": "NC", "country": "United States"}}, "player": {"id": 3565569, "gamerTag": "AmbidextrousMoose", "prefix": null, "user": {"location": {"city": "Wilmington", "state": "NC", "country": "United States"}}}}]}}, {"id": 36661627, "seedNum": 24, "entrant": {"id": 21299351, "name": "TPS | $CAITLIN", "participants": [{"id": 19581896, "gamerTag": "$CAITLIN", "prefix": "TPS", "user": {"location": {"city": "Acworth", "state": "GA", "country": "United States"}}, "player": {"id": 3422494, "gamerTag": "$CAITLIN", "prefix": "TPS", "user": {"location": {"city": "Acworth", "state": "GA", "country": "United States"}}}}]}}, {"id": 36720863, "seedNum": 25, "entrant": {"id": 21338537, "name": "popsicle", "participants": [{"id": 19616050, "gamerTag": "popsicle", "prefix": "", "user": {"location": {"city": "Atlanta", "state": "GA", "country": "United States"}}, "player": {"id": 4435133, "gamerTag": "popsicle", "prefix": "", "user": {"location": {"city": "Atlanta", "state": "GA", "country": "United States"}}}}]}}, {"id": 36677657, "seedNum": 26, "entrant": {"id": 21311555, "name": "ICWaM | zgamer2000", "participants": [{"id": 19592174, "gamerTag": "zgamer2000", "prefix": "ICWaM", "user": {"location": {"city": "Temple", "state": "GA", "country": "United States"}}, "player": {"id": 4235718, "gamerTag": "zgamer2000", "prefix": "ICWaM", "user": {"location": {"city": "Temple", "state": "GA", "country": "United States"}}}}]}}, {"id": 36730903, "seedNum": 27, "entrant": {"id": 21345710, "name": "Zammy", "participants": [{"id": 19622750, "gamerTag": "Zammy", "prefix": "", "user": {"location": {"city": "decatur", "state": "GA", "country": "United States"}}, "player": {"id": 4089749, "gamerTag": "ZammiBarr", "prefix": null, "user": {"location": {"city": "decatur", "state": "GA", "country": "United States"}}}}]}}, {"id": 36733385, "seedNum": 28, "entrant": {"id": 21347814, "name": "BigBean", "participants": [{"id": 19624644, "gamerTag": "BigBean", "prefix": "", "user": {"location": {"city": null, "state": null, "country": "United States"}}, "player": {"id": 4988395, "gamerTag": "BigBean", "prefix": "", "user": {"location": {"city": null, "state": null, "country": "United States"}}}}]}}]}}}