{"phase": {"seeds": {"pageInfo": {"totalPages": 1, "total": 8}, "nodes": [{"id": 36524988, "seedNum": 1, "entrant": {"id": 21247566, "name": "Barbashop", "participants": [{"id": 19539075, "gamerTag": "Barbashop", "prefix": "", "user": {"location": {"city": null, "state": null, "country": null}}, "player": {"id": 2537853, "gamerTag": "Barbashop", "prefix": "", "user": {"location": {"city": null, "state": null, "country": null}}}}]}}, {"id": 36524989, "seedNum": 2, "entrant": {"id": 21245556, "name": "CFL | Benji", "participants": [{"id": 19537210, "gamerTag": "Benji", "prefix": "CFL", "user": {"location": {"city": "Orlando", "state": "FL", "country": "United States"}}, "player": {"id": 2990255, "gamerTag": "Benji", "prefix": "CFL", "user": {"location": {"city": "Orlando", "state": "FL", "country": "United States"}}}}]}}, {"id": 36524991, "seedNum": 3, "entrant": {"id": 21222121, "name": "Dubz", "participants": [{"id": 19516563, "gamerTag": "Dubz", "prefix": "", "user": {"location": {"city": "Grayson", "state": "GA", "country": "United States"}}, "player": {"id": 22583, "gamerTag": "Dubz", "prefix": "", "user": {"location": {"city": "Grayson", "state": "GA", "country": "United States"}}}}]}}, {"id": 36524995, "seedNum": 7, "entrant": {"id": 21248727, "name": "FreeDubs", "participants": [{"id": 19540133, "gamerTag": "FreeDubs", "prefix": "", "user": {"location": {"city": "Atlanta", "state": null, "country": "United States"}}, "player": {"id": 4888408, "gamerTag": "FreeDubs", "prefix": "", "user": {"location": {"city": "Atlanta", "state": null, "country": "United States"}}}}]}}, {"id": 36524990, "seedNum": 4, "entrant": {"id": 21231241, "name": "TFT | Frank", "participants": [{"id": 19524445, "gamerTag": "Frank", "prefix": "TFT", "user": {"location": {"city": "Doraville", "state": "GA", "country": "United States"}}, "player": {"id": 1227401, "gamerTag": "Terry Labonte", "prefix": "TFT", "user": {"location": {"city": "Doraville", "state": "GA", "country": "United States"}}}}]}}, {"id": 36524992, "seedNum": 5, "entrant": {"id": 21245364, "name": "Kid Kaioken", "participants": [{"id": 19537054, "gamerTag": "Kid Kaioken", "prefix": "", "user": {"location": {"city": "Norcross", "state": "GA", "country": "United States"}}, "player": {"id": 2730912, "gamerTag": "Kid Kaioken", "prefix": "", "user": {"location": {"city": "Norcross", "state": "GA", "country": "United States"}}}}]}}, {"id": 36524993, "seedNum": 6, "entrant": {"id": 21246698, "name": "Nurikami", "participants": [{"id": 19538249, "gamerTag": "Nurikami", "prefix": null, "user": {"location": {"city": "Sandy Springs", "state": "GA", "country": "United States"}}, "player": {"id": 2894467, "gamerTag": "Nurikami", "prefix": null, "user": {"location": {"city": "Sandy Springs", "state": "GA", "country": "United States"}}}}]}}, {"id": 36524994, "seedNum": 8, "entrant": {"id": 21246144, "name": "WDKL MTM | D*ron", "participants": [{"id": 19537735, "gamerTag": "D*ron", "prefix": "WDKL MTM", "user": {"location": {"city": "Smyrna", "state": "GA", "country": "United States"}}, "player": {"id": 516047, "gamerTag": "D*ron", "prefix": "WDKL MTM", "user": {"location": {"city": "Smyrna", "state": "GA", "country": "United States"}}}}]}}]}}}