{"event": {"sets": {"pageInfo": {"totalPages": 4, "total": 59}, "nodes": [{"id": 92219768, "state": 3, "round": 3, "fullRoundText": "Grand Final", "completedAt": 1754169167, "winnerId": 20500171, "slots": [{"id": "92219768-0", "entrant": {"id": 20604545, "name": "PiggyG", "participants": [{"id": 18968673, "gamerTag": "PiggyG", "prefix": "", "user": {"location": {"city": null, "state": null, "country": null}}, "player": {"id": 1453564, "gamerTag": "PiggyG", "prefix": "", "user": {"location": {"city": null, "state": null, "country": null}}}}]}, "standing": {"placement": 2, "stats": {"score": {"value": 2}}}}, {"id": "92219768-1", "entrant": {"id": 20500171, "name": "Teri", "participants": [{"id": 18877766, "gamerTag": "Teri", "prefix": "", "user": {"location": {"city": "Spartanburg", "state": "SC", "country": "United States"}}, "player": {"id": 63209, "gamerTag": "Teri", "prefix": "", "user": {"location": {"city": "Spartanburg", "state": "SC", "country": "United States"}}}}]}, "standing": {"placement": 1, "stats": {"score": {"value": 3}}}}], "games": [{"id": 31679854, "orderNum": 1, "winnerId": 20604545, "entrant1Score": null, "entrant2Score": 0, "stage": null, "selections": null}, {"id": 31679855, "orderNum": 2, "winnerId": 20500171, "entrant1Score": 0, "entrant2Score": null, "stage": null, "selections": null}, {"id": 31679856, "orderNum": 3, "winnerId": 20500171, "entrant1Score": 0, "entrant2Score": null, "stage": null, "selections": null}, {"id": 31680025, "orderNum": 4, "winnerId": 20604545, "entrant1Score": null, "entrant2Score": 0, "stage": null, "selections": null}, {"id": 31680138, "orderNum": 5, "winnerId": 20500171, "entrant1Score": null, "entrant2Score": null, "stage": null, "selections": null}]}, {"id": 92219769, "state": 3, "round": 3, "fullRoundText": "Grand Final Reset", "completedAt": 1754170263, "winnerId": 20604545, "slots": [{"id": "92219769-0", "entrant": {"id": 20500171, "name": "Teri", "participants": [{"id": 18877766, "gamerTag": "Teri", "prefix": "", "user": {"location": {"city": "Spartanburg", "state": "SC", "country": "United States"}}, "player": {"id": 63209, "gamerTag": "Teri", "prefix": "", "user": {"location": {"city": "Spartanburg", "state": "SC", "country": "United States"}}}}]}, "standing": {"placement": 2, "stats": {"score": {"value": 2}}}}, {"id": "92219769-1", "entrant": {"id": 20604545, "name": "PiggyG", "participants": [{"id": 18968673, "gamerTag": "PiggyG", "prefix": "", "user": {"location": {"city": null, "state": null, "country": null}}, "player": {"id": 1453564, "gamerTag": "PiggyG", "prefix": "", "user": {"location": {"city": null, "state": null, "country": null}}}}]}, "standing": {"placement": 1, "stats": {"score": {"value": 3}}}}], "games": [{"id": 31680507, "orderNum": 1, "winnerId": 20604545, "entrant1Score": 0, "entrant2Score": null, "stage": null, "selections": null}, {"id": 31680508, "orderNum": 2, "winnerId": 20604545, "entrant1Score": 0, "entrant2Score": null, "stage": null, "selections": null}, {"id": 31680509, "orderNum": 3, "winnerId": 20500171, "entrant1Score": null, "entrant2Score": 0, "stage": null, "selections": null}, {"id": 31680613, "orderNum": 4, "winnerId": 20500171, "entrant1Score": null, "entrant2Score": 0, "stage": null, "selections": null}, {"id": 31680803, "orderNum": 5, "winnerId": 20604545, "entrant1Score": null, "entrant2Score": null, "stage": null, "selections": null}]}, {"id": 92216703, "state": 3, "round": 3, "fullRoundText": "Winners Semi-Final", "completedAt": 1754161750, "winnerId": 20604545, "slots": [{"id": "92216703-0", "entrant": {"id": 20604545, "name": "PiggyG", "participants": [{"id": 18968673, "gamerTag": "PiggyG", "prefix": "", "user": {"location": {"city": null, "state": null, "country": null}}, "player": {"id": 1453564, "gamerTag": "PiggyG", "prefix": "", "user": {"location": {"city": null, "state": null, "country": null}}}}]}, "standing": {"placement": 1, "stats": {"score": {"value": 2}}}}, {"id": "92216703-1", "entrant": {"id": 20490280, "name": "Taylor", "participants": [{"id": 18869026, "gamerTag": "Taylor", "prefix": null, "user": {"location": {"city": "", "state": "GA", "country": "United States"}}, "player": {"id": 926445, "gamerTag": "Taylor", "prefix": null, "user": {"location": {"city": "", "state": "GA", "country": "United States"}}}}]}, "standing": {"placement": 2, "stats": {"score": {"value": 0}}}}], "games": [{"id": 31676300, "orderNum": 1, "winnerId": 20604545, "entrant1Score": null, "entrant2Score": null, "stage": null, "selections": [{"id": 46640096, "selectionType": "CHARACTER", "selectionValue": 2498, "entrant": {"id": 20490280}, "character": {"id": 2498, "name": "Fleet"}}, {"id": 46640097, "selectionType": "CHARACTER", "selectionValue": 2503, "entrant": {"id": 20604545}, "character": {"id": 2503, "name": "Clairen"}}]}, {"id": 31676301, "orderNum": 2, "winnerId": 20604545, "entrant1Score": null, "entrant2Score": null, "stage": null, "selections": [{"id": 46640098, "selectionType": "CHARACTER", "selectionValue": 2498, "entrant": {"id": 20490280}, "character": {"id": 2498, "name": "Fleet"}}, {"id": 46640099, "selectionType": "CHARACTER", "selectionValue": 2503, "entrant": {"id": 20604545}, "character": {"id": 2503, "name": "Clairen"}}]}]}, {"id": 92211910, "state": 3, "round": 3, "fullRoundText": "Winners Semi-Final", "completedAt": 1754158929, "winnerId": 20500171, "slots": [{"id": "92211910-0", "entrant": {"id": 20500171, "name": "Teri", "participants": [{"id": 18877766, "gamerTag": "Teri", "prefix": "", "user": {"location": {"city": "Spartanburg", "state": "SC", "country": "United States"}}, "player": {"id": 63209, "gamerTag": "Teri", "prefix": "", "user": {"location": {"city": "Spartanburg", "state": "SC", "country": "United States"}}}}]}, "standing": {"placement": 1, "stats": {"score": {"value": 2}}}}, {"id": "92211910-1", "entrant": {"id": 20604194, "name": "LITE | Sylver", "participants": [{"id": 18968365, "gamerTag": "Sylver", "prefix": "LITE", "user": {"location": {"city": null, "state": "GA", "country": "United States"}}, "player": {"id": 1410499, "gamerTag": "Sylver", "prefix": "LITE", "user": {"location": {"city": null, "state": "GA", "country": "United States"}}}}]}, "standing": {"placement": 2, "stats": {"score": {"value": 0}}}}], "games": null}, {"id": 92211911, "state": 3, "round": 3, "fullRoundText": "Winners Semi-Final", "completedAt": 1754158657, "winnerId": 20501478, "slots": [{"id": "92211911-0", "entrant": {"id": 20501478, "name": "Adam", "participants": [{"id": 18878962, "gamerTag": "Adam", "prefix": "", "user": {"location": {"city": "Decatur", "state": "GA", "country": "United States"}}, "player": {"id": 1521410, "gamerTag": "Adam", "prefix": "", "user": {"location": {"city": "Decatur", "state": "GA", "country": "United States"}}}}]}, "standing": {"placement": 1, "stats": {"score": {"value": 2}}}}, {"id": "92211911-1", "entrant": {"id": 20602511, "name": "Dingo", "participants": [{"id": 18967220, "gamerTag": "Dingo", "prefix": null, "user": {"location": {"city": "Augusta", "state": "GA", "country": "United States"}}, "player": {"id": 35890, "gamerTag": "Dingo", "prefix": null, "user": {"location": {"city": "Augusta", "state": "GA", "country": "United States"}}}}]}, "standing": {"placement": 2, "stats": {"score": {"value": 0}}}}], "games": null}, {"id": 92216704, "state": 3, "round": 3, "fullRoundText": "Winners Semi-Final", "completedAt": 1754162405, "winnerId": 20603930, "slots": [{"id": "92216704-0", "entrant": {"id": 20492325, "name": "Jmac", "participants": [{"id": 18870846, "gamerTag": "Jmac", "prefix": "", "user": {"location": {"city": null, "state": null, "country": "United States"}}, "player": {"id": 947560, "gamerTag": "Jmac", "prefix": "", "user": {"location": {"city": null, "state": null, "country": "United States"}}}}]}, "standing": {"placement": 2, "stats": {"score": {"value": 1}}}}, {"id": "92216704-1", "entrant": {"id": 20603930, "name": "SRN | Games & Flames", "participants": [{"id": 18968147, "gamerTag": "Games & Flames", "prefix": "SRN", "user": {"location": {"city": "Jonesboro", "state": null, "country": "United States"}}, "player": {"id": 1768109, "gamerTag": "Games & Flames", "prefix": "SRN", "user": {"location": {"city": "Jonesboro", "state": null, "country": "United States"}}}}]}, "standing": {"placement": 1, "stats": {"score": {"value": 2}}}}], "games": null}, {"id": 92216735, "state": 3, "round": -6, "fullRoundText": "Losers Quarter-Final", "completedAt": 1754163065, "winnerId": 20492325, "slots": [{"id": "92216735-0", "entrant": {"id": 20492325, "name": "Jmac", "participants": [{"id": 18870846, "gamerTag": "Jmac", "prefix": "", "user": {"location": {"city": null, "state": null, "country": "United States"}}, "player": {"id": 947560, "gamerTag": "Jmac", "prefix": "", "user": {"location": {"city": null, "state": null, "country": "United States"}}}}]}, "standing": {"placement": 1, "stats": {"score": {"value": 2}}}}, {"id": "92216735-1", "entrant": {"id": 20490277, "name": "SNRS | SmokePudding", "participants": [{"id": 18869015, "gamerTag": "SmokePudding", "prefix": "SNRS", "user": {"location": {"city": "Riverdale", "state": "GA", "country": "United States"}}, "player": {"id": 281776, "gamerTag": "SmokePudding", "prefix": "", "user": {"location": {"city": "Riverdale", "state": "GA", "country": "United States"}}}}]}, "standing": {"placement": 2, "stats": {"score": {"value": 0}}}}], "games": null}, {"id": 92211942, "state": 3, "round": -6, "fullRoundText": "Losers Quarter-Final", "completedAt": 1754159892, "winnerId": 20602511, "slots": [{"id": "92211942-0", "entrant": {"id": 20602511, "name": "Dingo", "participants": [{"id": 18967220, "gamerTag": "Dingo", "prefix": null, "user": {"location": {"city": "Augusta", "state": "GA", "country": "United States"}}, "player": {"id": 35890, "gamerTag": "Dingo", "prefix": null, "user": {"location": {"city": "Augusta", "state": "GA", "country": "United States"}}}}]}, "standing": {"placement": 1, "stats": {"score": {"value": 2}}}}, {"id": "92211942-1", "entrant": {"id": 20493557, "name": "TEASER FANCLUB | #1 TEASER FAN FOR LIFE", "participants": [{"id": 18871944, "gamerTag": "#1 TEASER FAN FOR LIFE", "prefix": "TEASER FANCLUB", "user": {"location": {"city": "Johns Creek", "state": "GA", "country": "United States"}}, "player": {"id": 181040, "gamerTag": "#1 TEASER FAN FOR LIFE", "prefix": "TEASER FANCLUB", "user": {"location": {"city": "Johns Creek", "state": "GA", "country": "United States"}}}}]}, "standing": {"placement": 2, "stats": {"score": {"value": 0}}}}], "games": null}, {"id": 92211941, "state": 3, "round": -6, "fullRoundText": "Losers Quarter-Final", "completedAt": 1754160382, "winnerId": 20564784, "slots": [{"id": "92211941-0", "entrant": {"id": 20604194, "name": "LITE | Sylver", "participants": [{"id": 18968365, "gamerTag": "Sylver", "prefix": "LITE", "user": {"location": {"city": null, "state": "GA", "country": "United States"}}, "player": {"id": 1410499, "gamerTag": "Sylver", "prefix": "LITE", "user": {"location": {"city": null, "state": "GA", "country": "United States"}}}}]}, "standing": {"placement": 2, "stats": {"score": {"value": 0}}}}, {"id": "92211941-1", "entrant": {"id": 20564784, "name": "Flux", "participants": [{"id": 18934092, "gamerTag": "Flux", "prefix": "", "user": {"location": {"city": "Atlanta", "state": "GA", "country": "United States"}}, "player": {"id": 4392219, "gamerTag": "Flux", "prefix": "", "user": {"location": {"city": "Atlanta", "state": "GA", "country": "United States"}}}}]}, "standing": {"placement": 1, "stats": {"score": {"value": 2}}}}], "games": [{"id": 31675779, "orderNum": 1, "winnerId": 20564784, "entrant1Score": 0, "entrant2Score": null, "stage": null, "selections": [{"id": 46639253, "selectionType": "CHARACTER", "selectionValue": 2502, "entrant": {"id": 20564784}, "character": {"id": 2502, "name": "Maypul"}}, {"id": 46639254, "selectionType": "CHARACTER", "selectionValue": 2619, "entrant": {"id": 20604194}, "character": {"id": 2619, "name": "Olympia"}}]}, {"id": 31675780, "orderNum": 2, "winnerId": 20564784, "entrant1Score": null, "entrant2Score": null, "stage": null, "selections": [{"id": 46639255, "selectionType": "CHARACTER", "selectionValue": 2502, "entrant": {"id": 20564784}, "character": {"id": 2502, "name": "Maypul"}}, {"id": 46639256, "selectionType": "CHARACTER", "selectionValue": 2619, "entrant": {"id": 20604194}, "character": {"id": 2619, "name": "Olympia"}}]}]}, {"id": 92216734, "state": 3, "round": -6, "fullRoundText": "Losers Quarter-Final", "completedAt": 1754163528, "winnerId": 20490280, "slots": [{"id": "92216734-0", "entrant": {"id": 20490280, "name": "Taylor", "participants": [{"id": 18869026, "gamerTag": "Taylor", "prefix": null, "user": {"location": {"city": "", "state": "GA", "country": "United States"}}, "player": {"id": 926445, "gamerTag": "Taylor", "prefix": null, "user": {"location": {"city": "", "state": "GA", "country": "United States"}}}}]}, "standing": {"placement": 1, "stats": {"score": {"value": 2}}}}, {"id": "92216734-1", "entrant": {"id": 20602640, "name": "Shenron", "participants": [{"id": 18967340, "gamerTag": "Shenron", "prefix": null, "user": {"location": {"city": "roswell", "state": "GA", "country": "United States"}}, "player": {"id": 36501, "gamerTag": "Shenron", "prefix": "PH", "user": {"location": {"city": "roswell", "state": "GA", "country": "United States"}}}}]}, "standing": {"placement": 2, "stats": {"score": {"value": 1}}}}], "games": null}, {"id": 92216732, "state": 3, "round": -5, "fullRoundText": "Losers Round 3", "completedAt": 1754162479, "winnerId": 20602640, "slots": [{"id": "92216732-0", "entrant": {"id": 20602640, "name": "Shenron", "participants": [{"id": 18967340, "gamerTag": "Shenron", "prefix": null, "user": {"location": {"city": "roswell", "state": "GA", "country": "United States"}}, "player": {"id": 36501, "gamerTag": "Shenron", "prefix": "PH", "user": {"location": {"city": "roswell", "state": "GA", "country": "United States"}}}}]}, "standing": {"placement": 1, "stats": {"score": {"value": 2}}}}, {"id": "92216732-1", "entrant": {"id": 20803404, "name": "nokotanfan23", "participants": [{"id": 19145513, "gamerTag": "nokotanfan23", "prefix": "", "user": {"location": {"city": "Loganville", "state": "GA", "country": "United States"}}, "player": {"id": 1039731, "gamerTag": "nokotanfan23", "prefix": "", "user": {"location": {"city": "Loganville", "state": "GA", "country": "United States"}}}}]}, "standing": {"placement": 2, "stats": {"score": {"value": 0}}}}], "games": null}, {"id": 92211939, "state": 3, "round": -5, "fullRoundText": "Losers Round 3", "completedAt": 1754158636, "winnerId": 20564784, "slots": [{"id": "92211939-0", "entrant": {"id": 20564784, "name": "Flux", "participants": [{"id": 18934092, "gamerTag": "Flux", "prefix": "", "user": {"location": {"city": "Atlanta", "state": "GA", "country": "United States"}}, "player": {"id": 4392219, "gamerTag": "Flux", "prefix": "", "user": {"location": {"city": "Atlanta", "state": "GA", "country": "United States"}}}}]}, "standing": {"placement": 1, "stats": {"score": {"value": 2}}}}, {"id": "92211939-1", "entrant": {"id": 20530446, "name": "CR2 | baronkorvo", "participants": [{"id": 18904700, "gamerTag": "baronkorvo", "prefix": "CR2", "user": {"location": {"city": "Bethlehem", "state": "GA", "country": "United States"}}, "player": {"id": 1186009, "gamerTag": "baronkorvo", "prefix": "CR2", "user": {"location": {"city": "Bethlehem", "state": "GA", "country": "United States"}}}}]}, "standing": {"placement": 2, "stats": {"score": {"value": 0}}}}], "games": null}, {"id": 92216733, "state": 3, "round": -5, "fullRoundText": "Losers Round 3", "completedAt": 1754162313, "winnerId": 20490277, "slots": [{"id": "92216733-0", "entrant": {"id": 20490277, "name": "SNRS | SmokePudding", "participants": [{"id": 18869015, "gamerTag": "SmokePudding", "prefix": "SNRS", "user": {"location": {"city": "Riverdale", "state": "GA", "country": "United States"}}, "player": {"id": 281776, "gamerTag": "SmokePudding", "prefix": "", "user": {"location": {"city": "Riverdale", "state": "GA", "country": "United States"}}}}]}, "standing": {"placement": 1, "stats": {"score": {"value": 2}}}}, {"id": "92216733-1", "entrant": {"id": 20495010, "name": "Alex828", "participants": [{"id": 18873284, "gamerTag": "Alex828", "prefix": "", "user": {"location": {"city": "Valdosta", "state": "GA", "country": "United States"}}, "player": {"id": 1630146, "gamerTag": "Alex828", "prefix": "", "user": {"location": {"city": "Valdosta", "state": "GA", "country": "United States"}}}}]}, "standing": {"placement": 2, "stats": {"score": {"value": 0}}}}], "games": null}, {"id": 92211940, "state": 3, "round": -5, "fullRoundText": "Losers Round 3", "completedAt": 1754159274, "winnerId": 20493557, "slots": [{"id": "92211940-0", "entrant": {"id": 20493557, "name": "TEASER FANCLUB | #1 TEASER FAN FOR LIFE", "participants": [{"id": 18871944, "gamerTag": "#1 TEASER FAN FOR LIFE", "prefix": "TEASER FANCLUB", "user": {"location": {"city": "Johns Creek", "state": "GA", "country": "United States"}}, "player": {"id": 181040, "gamerTag": "#1 TEASER FAN FOR LIFE", "prefix": "TEASER FANCLUB", "user": {"location": {"city": "Johns Creek", "state": "GA", "country": "United States"}}}}]}, "standing": {"placement": 1, "stats": {"score": {"value": 2}}}}, {"id": "92211940-1", "entrant": {"id": 20618956, "name": "P2W | bacon", "participants": [{"id": 18981400, "gamerTag": "bacon", "prefix": "P2W", "user": {"location": {"city": "Atlanta", "state": "GA", "country": "United States"}}, "player": {"id": 1686096, "gamerTag": "bacon", "prefix": "P2W", "user": {"location": {"city": "Atlanta", "state": "GA", "country": "United States"}}}}]}, "standing": {"placement": 2, "stats": {"score": {"value": 1}}}}], "games": null}, {"id": 92219767, "state": 3, "round": 2, "fullRoundText": "Winners Final", "completedAt": 1754165915, "winnerId": 20604545, "slots": [{"id": "92219767-0", "entrant": {"id": 20501478, "name": "Adam", "participants": [{"id": 18878962, "gamerTag": "Adam", "prefix": "", "user": {"location": {"city": "Decatur", "state": "GA", "country": "United States"}}, "player": {"id": 1521410, "gamerTag": "Adam", "prefix": "", "user": {"location": {"city": "Decatur", "state": "GA", "country": "United States"}}}}]}, "standing": {"placement": 2, "stats": {"score": {"value": 0}}}}, {"id": "92219767-1", "entrant": {"id": 20604545, "name": "PiggyG", "participants": [{"id": 18968673, "gamerTag": "PiggyG", "prefix": "", "user": {"location": {"city": null, "state": null, "country": null}}, "player": {"id": 1453564, "gamerTag": "PiggyG", "prefix": "", "user": {"location": {"city": null, "state": null, "country": null}}}}]}, "standing": {"placement": 1, "stats": {"score": {"value": 3}}}}], "games": [{"id": 31678229, "orderNum": 1, "winnerId": 20604545, "entrant1Score": 0, "entrant2Score": null, "stage": null, "selections": null}, {"id": 31678230, "orderNum": 2, "winnerId": 20604545, "entrant1Score": 0, "entrant2Score": null, "stage": null, "selections": null}, {"id": 31678511, "orderNum": 3, "winnerId": 20604545, "entrant1Score": null, "entrant2Score": null, "stage": null, "selections": null}]}]}}}