{"event": {"sets": {"pageInfo": {"totalPages": 1, "total": 8}, "nodes": [{"id": 92570213, "state": 3, "round": 4, "fullRoundText": "Grand Final", "completedAt": 1754958795, "winnerId": 20930332, "slots": [{"id": "92570213-0", "entrant": {"id": 20930332, "name": "Skate", "participants": [{"id": 19256820, "gamerTag": "Skate", "prefix": null, "user": {"location": {"city": null, "state": null, "country": "United States"}}, "player": {"id": 4045198, "gamerTag": "Skate", "prefix": null, "user": {"location": {"city": null, "state": null, "country": "United States"}}}}]}, "standing": {"placement": 1, "stats": {"score": {"value": 3}}}}, {"id": "92570213-1", "entrant": {"id": 20942949, "name": "OEG | EggJolk", "participants": [{"id": 19268384, "gamerTag": "EggJolk", "prefix": "OEG", "user": {"location": {"city": "Atlanta", "state": "GA", "country": "United States"}}, "player": {"id": 1009143, "gamerTag": "EggJolk", "prefix": "OEG", "user": {"location": {"city": "Atlanta", "state": "GA", "country": "United States"}}}}]}, "standing": {"placement": 2, "stats": {"score": {"value": 1}}}}], "games": null}, {"id": 92570212, "state": 3, "round": 3, "fullRoundText": "Winners Final", "completedAt": 1754957616, "winnerId": 20930332, "slots": [{"id": "92570212-0", "entrant": {"id": 20930332, "name": "Skate", "participants": [{"id": 19256820, "gamerTag": "Skate", "prefix": null, "user": {"location": {"city": null, "state": null, "country": "United States"}}, "player": {"id": 4045198, "gamerTag": "Skate", "prefix": null, "user": {"location": {"city": null, "state": null, "country": "United States"}}}}]}, "standing": {"placement": 1, "stats": {"score": {"value": 3}}}}, {"id": "92570212-1", "entrant": {"id": 20941282, "name": "Hobbit", "participants": [{"id": 19266898, "gamerTag": "Hobbit", "prefix": null, "user": {"location": {"city": null, "state": "GA", "country": "United States"}}, "player": {"id": 4025480, "gamerTag": "Hobbit", "prefix": null, "user": {"location": {"city": null, "state": "GA", "country": "United States"}}}}]}, "standing": {"placement": 2, "stats": {"score": {"value": 0}}}}], "games": null}, {"id": 92570228, "state": 3, "round": -6, "fullRoundText": "Losers Final", "completedAt": 1754958149, "winnerId": 20942949, "slots": [{"id": "92570228-0", "entrant": {"id": 20941282, "name": "Hobbit", "participants": [{"id": 19266898, "gamerTag": "Hobbit", "prefix": null, "user": {"location": {"city": null, "state": "GA", "country": "United States"}}, "player": {"id": 4025480, "gamerTag": "Hobbit", "prefix": null, "user": {"location": {"city": null, "state": "GA", "country": "United States"}}}}]}, "standing": {"placement": 2, "stats": {"score": {"value": 0}}}}, {"id": "92570228-1", "entrant": {"id": 20942949, "name": "OEG | EggJolk", "participants": [{"id": 19268384, "gamerTag": "EggJolk", "prefix": "OEG", "user": {"location": {"city": "Atlanta", "state": "GA", "country": "United States"}}, "player": {"id": 1009143, "gamerTag": "EggJolk", "prefix": "OEG", "user": {"location": {"city": "Atlanta", "state": "GA", "country": "United States"}}}}]}, "standing": {"placement": 1, "stats": {"score": {"value": 3}}}}], "games": null}, {"id": 92570227, "state": 3, "round": -5, "fullRoundText": "Losers Semi-Final", "completedAt": 1754957715, "winnerId": 20942949, "slots": [{"id": "92570227-0", "entrant": {"id": 20932248, "name": "MASH | MIKUBOMBER", "participants": [{"id": 19258568, "gamerTag": "MIKUBOMBER", "prefix": "MASH", "user": {"location": {"city": "Marietta", "state": "GA", "country": "United States"}}, "player": {"id": 4199111, "gamerTag": "MIKUBOMBER", "prefix": "MASH", "user": {"location": {"city": "Marietta", "state": "GA", "country": "United States"}}}}]}, "standing": {"placement": 2, "stats": {"score": {"value": 2}}}}, {"id": "92570227-1", "entrant": {"id": 20942949, "name": "OEG | EggJolk", "participants": [{"id": 19268384, "gamerTag": "EggJolk", "prefix": "OEG", "user": {"location": {"city": "Atlanta", "state": "GA", "country": "United States"}}, "player": {"id": 1009143, "gamerTag": "EggJolk", "prefix": "OEG", "user": {"location": {"city": "Atlanta", "state": "GA", "country": "United States"}}}}]}, "standing": {"placement": 1, "stats": {"score": {"value": 3}}}}], "games": null}, {"id": 92570210, "state": 3, "round": 2, "fullRoundText": "Winners Semi-Final", "completedAt": 1754956375, "winnerId": 20930332, "slots": [{"id": "92570210-0", "entrant": {"id": 20930332, "name": "Skate", "participants": [{"id": 19256820, "gamerTag": "Skate", "prefix": null, "user": {"location": {"city": null, "state": null, "country": "United States"}}, "player": {"id": 4045198, "gamerTag": "Skate", "prefix": null, "user": {"location": {"city": null, "state": null, "country": "United States"}}}}]}, "standing": {"placement": 1, "stats": {"score": {"value": 3}}}}, {"id": "92570210-1", "entrant": {"id": 20942949, "name": "OEG | EggJolk", "participants": [{"id": 19268384, "gamerTag": "EggJolk", "prefix": "OEG", "user": {"location": {"city": "Atlanta", "state": "GA", "country": "United States"}}, "player": {"id": 1009143, "gamerTag": "EggJolk", "prefix": "OEG", "user": {"location": {"city": "Atlanta", "state": "GA", "country": "United States"}}}}]}, "standing": {"placement": 2, "stats": {"score": {"value": 0}}}}], "games": null}, {"id": 92570211, "state": 3, "round": 2, "fullRoundText": "Winners Semi-Final", "completedAt": 1754956367, "winnerId": 20941282, "slots": [{"id": "92570211-0", "entrant": {"id": 20932248, "name": "MASH | MIKUBOMBER", "participants": [{"id": 19258568, "gamerTag": "MIKUBOMBER", "prefix": "MASH", "user": {"location": {"city": "Marietta", "state": "GA", "country": "United States"}}, "player": {"id": 4199111, "gamerTag": "MIKUBOMBER", "prefix": "MASH", "user": {"location": {"city": "Marietta", "state": "GA", "country": "United States"}}}}]}, "standing": {"placement": 2, "stats": {"score": {"value": 1}}}}, {"id": "92570211-1", "entrant": {"id": 20941282, "name": "Hobbit", "participants": [{"id": 19266898, "gamerTag": "Hobbit", "prefix": null, "user": {"location": {"city": null, "state": "GA", "country": "United States"}}, "player": {"id": 4025480, "gamerTag": "Hobbit", "prefix": null, "user": {"location": {"city": null, "state": "GA", "country": "United States"}}}}]}, "standing": {"placement": 1, "stats": {"score": {"value": 3}}}}], "games": null}, {"id": 92570225, "state": 3, "round": -4, "fullRoundText": "Losers Quarter-Final", "completedAt": 1754956856, "winnerId": 20932248, "slots": [{"id": "92570225-0", "entrant": {"id": 20932248, "name": "MASH | MIKUBOMBER", "participants": [{"id": 19258568, "gamerTag": "MIKUBOMBER", "prefix": "MASH", "user": {"location": {"city": "Marietta", "state": "GA", "country": "United States"}}, "player": {"id": 4199111, "gamerTag": "MIKUBOMBER", "prefix": "MASH", "user": {"location": {"city": "Marietta", "state": "GA", "country": "United States"}}}}]}, "standing": {"placement": 1, "stats": {"score": {"value": 3}}}}, {"id": "92570225-1", "entrant": {"id": 20930355, "name": "ZB | Juniper", "participants": [{"id": 19256840, "gamerTag": "Juniper", "prefix": "ZB", "user": {"location": {"city": "Morrow", "state": "GA", "country": "United States"}}, "player": {"id": 46895, "gamerTag": "Juniper", "prefix": "ZB", "user": {"location": {"city": "Morrow", "state": "GA", "country": "United States"}}}}]}, "standing": {"placement": 2, "stats": {"score": {"value": 0}}}}], "games": null}, {"id": 92570207, "state": 3, "round": 1, "fullRoundText": "Winners Quarter-Final", "completedAt": 1754955769, "winnerId": 20942949, "slots": [{"id": "92570207-0", "entrant": {"id": 20942949, "name": "OEG | EggJolk", "participants": [{"id": 19268384, "gamerTag": "EggJolk", "prefix": "OEG", "user": {"location": {"city": "Atlanta", "state": "GA", "country": "United States"}}, "player": {"id": 1009143, "gamerTag": "EggJolk", "prefix": "OEG", "user": {"location": {"city": "Atlanta", "state": "GA", "country": "United States"}}}}]}, "standing": {"placement": 1, "stats": {"score": {"value": 3}}}}, {"id": "92570207-1", "entrant": {"id": 20930355, "name": "ZB | Juniper", "participants": [{"id": 19256840, "gamerTag": "Juniper", "prefix": "ZB", "user": {"location": {"city": "Morrow", "state": "GA", "country": "United States"}}, "player": {"id": 46895, "gamerTag": "Juniper", "prefix": "ZB", "user": {"location": {"city": "Morrow", "state": "GA", "country": "United States"}}}}]}, "standing": {"placement": 2, "stats": {"score": {"value": 0}}}}], "games": null}]}}}