{"phase": {"seeds": {"pageInfo": {"totalPages": 1, "total": 18}, "nodes": [{"id": 36745983, "seedNum": 1, "entrant": {"id": 21356806, "name": "4o4Esports | CamPaine", "participants": [{"id": 19632902, "gamerTag": "CamPaine", "prefix": "4o4Esports", "user": {"location": {"city": "Brookhaven", "state": "GA", "country": "United States"}}, "player": {"id": 313909, "gamerTag": "CamPaine", "prefix": "4o4Esports", "user": {"location": {"city": "Brookhaven", "state": "GA", "country": "United States"}}}}]}}, {"id": 36751469, "seedNum": 2, "entrant": {"id": 21360880, "name": "Alex_dotdot", "participants": [{"id": 19636549, "gamerTag": "Alex_dotdot", "prefix": null, "user": {"location": {"city": "Tucker", "state": "GA", "country": "United States"}}, "player": {"id": 657023, "gamerTag": "Alex_dotdot", "prefix": null, "user": {"location": {"city": "Tucker", "state": "GA", "country": "United States"}}}}]}}, {"id": 36752104, "seedNum": 3, "entrant": {"id": 21361271, "name": "4o4 | Musa", "participants": [{"id": 19636901, "gamerTag": "Musa", "prefix": "4o4", "user": {"location": {"city": null, "state": null, "country": "United States"}}, "player": {"id": 131537, "gamerTag": "Musa", "prefix": "4o4", "user": {"location": {"city": null, "state": null, "country": "United States"}}}}]}}, {"id": 36731771, "seedNum": 7, "entrant": {"id": 21346425, "name": "4o4 | chrisymandias", "participants": [{"id": 19623403, "gamerTag": "chrisymandias", "prefix": "4o4", "user": {"location": {"city": "Dacula", "state": "GA", "country": "United States"}}, "player": {"id": 258173, "gamerTag": "chrisymandias", "prefix": "4o4", "user": {"location": {"city": "Dacula", "state": "GA", "country": "United States"}}}}]}}, {"id": 36750726, "seedNum": 4, "entrant": {"id": 21360359, "name": "Burboovas", "participants": [{"id": 19636087, "gamerTag": "Burboovas", "prefix": null, "user": {"location": {"city": null, "state": null, "country": null}}, "player": {"id": 3927191, "gamerTag": "Burboovas", "prefix": null, "user": {"location": {"city": null, "state": null, "country": null}}}}]}}, {"id": 36750730, "seedNum": 5, "entrant": {"id": 21360363, "name": "Stachington", "participants": [{"id": 19636092, "gamerTag": "Stachington", "prefix": null, "user": {"location": {"city": "Columbus", "state": "GA", "country": "United States"}}, "player": {"id": 138010, "gamerTag": "Stachington", "prefix": null, "user": {"location": {"city": "Columbus", "state": "GA", "country": "United States"}}}}]}}, {"id": 36745747, "seedNum": 6, "entrant": {"id": 21356623, "name": "Noodle", "participants": [{"id": 19632715, "gamerTag": "Noodle", "prefix": "", "user": {"location": {"city": "McDonough", "state": "GA", "country": "United States"}}, "player": {"id": 3029288, "gamerTag": "Noodle", "prefix": "", "user": {"location": {"city": "McDonough", "state": "GA", "country": "United States"}}}}]}}, {"id": 36751974, "seedNum": 8, "entrant": {"id": 21361140, "name": "Archway", "participants": [{"id": 19636789, "gamerTag": "Archway", "prefix": "", "user": {"location": {"city": "Sandy Springs", "state": "GA", "country": "United States"}}, "player": {"id": 1435251, "gamerTag": "Archway", "prefix": "", "user": {"location": {"city": "Sandy Springs", "state": "GA", "country": "United States"}}}}]}}, {"id": 36751942, "seedNum": 9, "entrant": {"id": 21361120, "name": "EEK!", "participants": [{"id": 19636770, "gamerTag": "EEK!", "prefix": null, "user": {"location": {"city": "Atlanta", "state": "GA", "country": "United States"}}, "player": {"id": 148794, "gamerTag": "EEK!", "prefix": null, "user": {"location": {"city": "Atlanta", "state": "GA", "country": "United States"}}}}]}}, {"id": 36750195, "seedNum": 13, "entrant": {"id": 21359939, "name": "Leon Nights", "participants": [{"id": 19635713, "gamerTag": "Leon Nights", "prefix": null, "user": {"location": {"city": "Atlanta", "state": "GA", "country": "United States"}}, "player": {"id": 4752335, "gamerTag": "Leon Nights", "prefix": null, "user": {"location": {"city": "Atlanta", "state": "GA", "country": "United States"}}}}]}}, {"id": 36749165, "seedNum": 17, "entrant": {"id": 21359090, "name": "bradido", "participants": [{"id": 19634952, "gamerTag": "bradido", "prefix": null, "user": {"location": {"city": "Roswell", "state": "GA", "country": "United States"}}, "player": {"id": 459011, "gamerTag": "bradido", "prefix": null, "user": {"location": {"city": "Roswell", "state": "GA", "country": "United States"}}}}]}}, {"id": 36751463, "seedNum": 18, "entrant": {"id": 21360876, "name": "Gelsk", "participants": [{"id": 19636547, "gamerTag": "Gelsk", "prefix": "", "user": null, "player": {"id": 4990406, "gamerTag": "Gelsk", "prefix": "", "user": null}}]}}, {"id": 36679515, "seedNum": 10, "entrant": {"id": 21313127, "name": "PunchBae", "participants": [{"id": 19593591, "gamerTag": "PunchBae", "prefix": null, "user": {"location": {"city": "Decatur", "state": "GA", "country": "United States"}}, "player": {"id": 4982963, "gamerTag": "PunchBae", "prefix": null, "user": {"location": {"city": "Decatur", "state": "GA", "country": "United States"}}}}]}}, {"id": 36733284, "seedNum": 12, "entrant": {"id": 21347710, "name": "bsharkz", "participants": [{"id": 19624546, "gamerTag": "bsharkz", "prefix": "", "user": {"location": {"city": "Atlanta", "state": "FL", "country": "United States"}}, "player": {"id": 4297884, "gamerTag": "bsharkz", "prefix": "", "user": {"location": {"city": "Atlanta", "state": "FL", "country": "United States"}}}}]}}, {"id": 36743862, "seedNum": 14, "entrant": {"id": 21355243, "name": "Pazure", "participants": [{"id": 19631448, "gamerTag": "Pazure", "prefix": null, "user": {"location": {"city": null, "state": null, "country": "United States"}}, "player": {"id": 72218, "gamerTag": "Pazure", "prefix": null, "user": {"location": {"city": null, "state": null, "country": "United States"}}}}]}}, {"id": 36750882, "seedNum": 16, "entrant": {"id": 21360500, "name": "Necro17", "participants": [{"id": 19636202, "gamerTag": "Necro17", "prefix": null, "user": {"location": {"city": "Alpharetta", "state": "GA", "country": "United States"}}, "player": {"id": 4983658, "gamerTag": "Necro17", "prefix": null, "user": {"location": {"city": "Alpharetta", "state": "GA", "country": "United States"}}}}]}}, {"id": 36711639, "seedNum": 11, "entrant": {"id": 21332179, "name": "Jonathanos", "participants": [{"id": 19610585, "gamerTag": "Jonathanos", "prefix": "", "user": {"location": {"city": "Gainesville", "state": "GA", "country": "United States"}}, "player": {"id": 4256502, "gamerTag": "Jonathanos", "prefix": "", "user": {"location": {"city": "Gainesville", "state": "GA", "country": "United States"}}}}]}}, {"id": 36749967, "seedNum": 15, "entrant": {"id": 21359723, "name": "Deph", "participants": [{"id": 19635526, "gamerTag": "Deph", "prefix": null, "user": {"location": {"city": "Atlanta", "state": "GA", "country": "United States"}}, "player": {"id": 3498977, "gamerTag": "Deph", "prefix": null, "user": {"location": {"city": "Atlanta", "state": "GA", "country": "United States"}}}}]}}]}}}