{"phase": {"seeds": {"pageInfo": {"totalPages": 1, "total": 20}, "nodes": [{"id": 35844269, "seedNum": 3, "entrant": {"id": 20772153, "name": "Buddylikefriend", "participants": [{"id": 19116834, "gamerTag": "Buddylikefriend", "prefix": null, "user": {"location": {"city": "Atlanta", "state": "GA", "country": "United States"}}, "player": {"id": 785557, "gamerTag": "Buddylikefriend", "prefix": null, "user": {"location": {"city": "Atlanta", "state": "GA", "country": "United States"}}}}]}}, {"id": 35843300, "seedNum": 2, "entrant": {"id": 20771310, "name": "4o4 | byronic zero", "participants": [{"id": 19116090, "gamerTag": "byronic zero", "prefix": "4o4", "user": {"location": {"city": "Atlanta", "state": "GA", "country": "United States"}}, "player": {"id": 3577590, "gamerTag": "byronic zero", "prefix": "4o4", "user": {"location": {"city": "Atlanta", "state": "GA", "country": "United States"}}}}]}}, {"id": 35843885, "seedNum": 4, "entrant": {"id": 20771790, "name": "4o4 | Musa", "participants": [{"id": 19116520, "gamerTag": "Musa", "prefix": "4o4", "user": {"location": {"city": null, "state": null, "country": "United States"}}, "player": {"id": 131537, "gamerTag": "Musa", "prefix": "4o4", "user": {"location": {"city": null, "state": null, "country": "United States"}}}}]}}, {"id": 35844216, "seedNum": 8, "entrant": {"id": 20772100, "name": "4o4 | chrisymandias", "participants": [{"id": 19116789, "gamerTag": "chrisymandias", "prefix": "4o4", "user": {"location": {"city": "Dacula", "state": "GA", "country": "United States"}}, "player": {"id": 258173, "gamerTag": "chrisymandias", "prefix": "4o4", "user": {"location": {"city": "Dacula", "state": "GA", "country": "United States"}}}}]}}, {"id": 35843294, "seedNum": 5, "entrant": {"id": 20771303, "name": "Burboovas", "participants": [{"id": 19116084, "gamerTag": "Burboovas", "prefix": null, "user": {"location": {"city": null, "state": null, "country": null}}, "player": {"id": 3927191, "gamerTag": "Burboovas", "prefix": null, "user": {"location": {"city": null, "state": null, "country": null}}}}]}}, {"id": 35815081, "seedNum": 6, "entrant": {"id": 20757714, "name": "scrimbo", "participants": [{"id": 19103465, "gamerTag": "scrimbo", "prefix": "", "user": {"location": {"city": "Atlanta", "state": "GA", "country": "United States"}}, "player": {"id": 4331849, "gamerTag": "scrimbo", "prefix": "", "user": {"location": {"city": "Atlanta", "state": "GA", "country": "United States"}}}}]}}, {"id": 35836182, "seedNum": 1, "entrant": {"id": 20767218, "name": "4o4 | MessatsuIM", "participants": [{"id": 19112451, "gamerTag": "MessatsuIM", "prefix": "4o4", "user": {"location": {"city": "Kennesaw", "state": "GA", "country": "United States"}}, "player": {"id": 3564235, "gamerTag": "MessatsuIM", "prefix": "4o4", "user": {"location": {"city": "Kennesaw", "state": "GA", "country": "United States"}}}}]}}, {"id": 35843004, "seedNum": 9, "entrant": {"id": 20771038, "name": "4o4 | Yugo", "participants": [{"id": 19115836, "gamerTag": "Yugo", "prefix": "4o4", "user": {"location": {"city": "Sandy springs", "state": "GA", "country": "United States"}}, "player": {"id": 338020, "gamerTag": "Yugo", "prefix": "4o4", "user": {"location": {"city": "Sandy springs", "state": "GA", "country": "United States"}}}}]}}, {"id": 35837239, "seedNum": 7, "entrant": {"id": 20767971, "name": "Noodle", "participants": [{"id": 19113179, "gamerTag": "Noodle", "prefix": null, "user": {"location": {"city": "McDonough", "state": "GA", "country": "United States"}}, "player": {"id": 3029288, "gamerTag": "Noodle", "prefix": "", "user": {"location": {"city": "McDonough", "state": "GA", "country": "United States"}}}}]}}, {"id": 35843688, "seedNum": 10, "entrant": {"id": 20771618, "name": "4o4 | KhalRhaego", "participants": [{"id": 19116361, "gamerTag": "KhalRhaego", "prefix": "4o4", "user": {"location": {"city": "Jonesboro", "state": "GA", "country": "United States"}}, "player": {"id": 4076327, "gamerTag": "KhalRhaego", "prefix": "BOLT", "user": {"location": {"city": "Jonesboro", "state": "GA", "country": "United States"}}}}]}}, {"id": 35843968, "seedNum": 11, "entrant": {"id": 20771880, "name": "MBossProductions", "participants": [{"id": 19116602, "gamerTag": "MBossProductions", "prefix": "", "user": {"location": {"city": "Norcross", "state": "GA", "country": "United States"}}, "player": {"id": 1997490, "gamerTag": "MBossProductions", "prefix": "", "user": {"location": {"city": "Norcross", "state": "GA", "country": "United States"}}}}]}}, {"id": 35844081, "seedNum": 12, "entrant": {"id": 20771974, "name": "mootcha", "participants": [{"id": 19116685, "gamerTag": "mootcha", "prefix": "", "user": {"location": {"city": "Atlanta", "state": "GA", "country": "United States"}}, "player": {"id": 629558, "gamerTag": "mootcha", "prefix": "", "user": {"location": {"city": "Atlanta", "state": "GA", "country": "United States"}}}}]}}, {"id": 35843250, "seedNum": 13, "entrant": {"id": 20771258, "name": "Air | Airplanes", "participants": [{"id": 19116046, "gamerTag": "Airplanes", "prefix": "Air", "user": {"location": {"city": "Dacula", "state": "GA", "country": "United States"}}, "player": {"id": 3872614, "gamerTag": "Airplanes", "prefix": "Air", "user": {"location": {"city": "Dacula", "state": "GA", "country": "United States"}}}}]}}, {"id": 35824970, "seedNum": 14, "entrant": {"id": 20764760, "name": "Xangief", "participants": [{"id": 19109932, "gamerTag": "Xangief", "prefix": null, "user": {"location": {"city": "Atlanta", "state": "GA", "country": "United States"}}, "player": {"id": 135082, "gamerTag": "Xangief", "prefix": null, "user": {"location": {"city": "Atlanta", "state": "GA", "country": "United States"}}}}]}}, {"id": 35842943, "seedNum": 15, "entrant": {"id": 20770998, "name": "Nightjar Ninja", "participants": [{"id": 19115797, "gamerTag": "Nightjar Ninja", "prefix": null, "user": {"location": {"city": "Atlanta", "state": "GA", "country": "United States"}}, "player": {"id": 3694663, "gamerTag": "Nightjar Ninja", "prefix": null, "user": {"location": {"city": "Atlanta", "state": "GA", "country": "United States"}}}}]}}, {"id": 35844224, "seedNum": 17, "entrant": {"id": 20772108, "name": "Killteca", "participants": [{"id": 19116794, "gamerTag": "Killteca", "prefix": null, "user": {"location": {"city": "Alpharetta", "state": "GA", "country": "United States"}}, "player": {"id": 4630213, "gamerTag": "Killteca", "prefix": null, "user": {"location": {"city": "Alpharetta", "state": "GA", "country": "United States"}}}}]}}, {"id": 35842902, "seedNum": 16, "entrant": {"id": 20770966, "name": "Pazure", "participants": [{"id": 19115768, "gamerTag": "Pazure", "prefix": null, "user": {"location": {"city": null, "state": null, "country": "United States"}}, "player": {"id": 72218, "gamerTag": "Pazure", "prefix": null, "user": {"location": {"city": null, "state": null, "country": "United States"}}}}]}}, {"id": 35844259, "seedNum": 18, "entrant": {"id": 20772144, "name": "Leon Nights", "participants": [{"id": 19116825, "gamerTag": "Leon Nights", "prefix": null, "user": {"location": {"city": "Atlanta", "state": "GA", "country": "United States"}}, "player": {"id": 4752335, "gamerTag": "Leon Nights", "prefix": null, "user": {"location": {"city": "Atlanta", "state": "GA", "country": "United States"}}}}]}}, {"id": 35844273, "seedNum": 19, "entrant": {"id": 20772159, "name": "remy", "participants": [{"id": 19116839, "gamerTag": "remy", "prefix": "", "user": null, "player": {"id": 4886042, "gamerTag": "remy", "prefix": "", "user": null}}]}}, {"id": 35844334, "seedNum": 20, "entrant": {"id": 20772213, "name": "K4", "participants": [{"id": 19116887, "gamerTag": "K4", "prefix": null, "user": {"location": {"city": "Atlanta", "state": "GA", "country": "United States"}}, "player": {"id": 3508179, "gamerTag": "K4", "prefix": null, "user": {"location": {"city": "Atlanta", "state": "GA", "country": "United States"}}}}]}}]}}}