{"phase": {"seeds": {"pageInfo": {"totalPages": 1, "total": 4}, "nodes": [{"id": 35915758, "seedNum": 4, "entrant": {"id": 20814908, "name": "GGG | Tortle", "participants": [{"id": 19154787, "gamerTag": "Tortle", "prefix": "GGG", "user": {"location": {"city": "Carrollton", "state": "GA", "country": "United States"}}, "player": {"id": 1884762, "gamerTag": "Tortle", "prefix": "GGG|DMS", "user": {"location": {"city": "Carrollton", "state": "GA", "country": "United States"}}}}]}}, {"id": 35909753, "seedNum": 2, "entrant": {"id": 20811752, "name": "Skate", "participants": [{"id": 19152090, "gamerTag": "Skate", "prefix": null, "user": {"location": {"city": null, "state": null, "country": "United States"}}, "player": {"id": 4045198, "gamerTag": "Skate", "prefix": null, "user": {"location": {"city": null, "state": null, "country": "United States"}}}}]}}, {"id": 35910294, "seedNum": 3, "entrant": {"id": 20811999, "name": "GGG|Mash|Rush | Ukiyo", "participants": [{"id": 19152289, "gamerTag": "Ukiyo", "prefix": "GGG|Mash|Rush", "user": {"location": {"city": null, "state": null, "country": null}}, "player": {"id": 4131973, "gamerTag": "Ukiyo", "prefix": "GGG|Mash|Rush", "user": {"location": {"city": null, "state": null, "country": null}}}}]}}, {"id": 35871772, "seedNum": 1, "entrant": {"id": 20787548, "name": "ZB | Sanaito", "participants": [{"id": 19131111, "gamerTag": "Sanaito", "prefix": "ZB", "user": {"location": {"city": "Fayetteville", "state": "GA", "country": "United States"}}, "player": {"id": 12761, "gamerTag": "Sanaito", "prefix": "ZB", "user": {"location": {"city": "Fayetteville", "state": "GA", "country": "United States"}}}}]}}]}}}