{"event": {"sets": {"pageInfo": {"totalPages": 22, "total": 318}, "nodes": [{"id": 92227624, "state": 3, "round": 2, "fullRoundText": "Winners Round 2", "completedAt": 1754174245, "winnerId": 20516612, "slots": [{"id": "92227624-0", "entrant": {"id": 20516612, "name": "CoolCactuS", "participants": [{"id": 18892328, "gamerTag": "CoolCactuS", "prefix": null, "user": {"location": {"city": null, "state": null, "country": "United States"}}, "player": {"id": 1885346, "gamerTag": "CoolCactuS", "prefix": "CV", "user": {"location": {"city": null, "state": null, "country": "United States"}}}}]}, "standing": {"placement": 1, "stats": {"score": {"value": 2}}}}, {"id": "92227624-1", "entrant": {"id": 20489402, "name": "LBE | Savant", "participants": [{"id": 18868251, "gamerTag": "Savant", "prefix": "LBE", "user": {"location": {"city": "Athens", "state": "GA", "country": "United States"}}, "player": {"id": 1944044, "gamerTag": "Savant", "prefix": "LBE | CC", "user": {"location": {"city": "Athens", "state": "GA", "country": "United States"}}}}]}, "standing": {"placement": 2, "stats": {"score": {"value": 0}}}}], "games": null}, {"id": 92227195, "state": 3, "round": 2, "fullRoundText": "Winners Round 2", "completedAt": 1754167438, "winnerId": 20778023, "slots": [{"id": "92227195-0", "entrant": {"id": 20778023, "name": "Barbashop", "participants": [{"id": 19122132, "gamerTag": "Barbashop", "prefix": "", "user": {"location": {"city": null, "state": null, "country": null}}, "player": {"id": 2537853, "gamerTag": "Barbashop", "prefix": "", "user": {"location": {"city": null, "state": null, "country": null}}}}]}, "standing": {"placement": 1, "stats": {"score": {"value": 2}}}}, {"id": "92227195-1", "entrant": {"id": 20493556, "name": "TEASER FANCLUB | #1 TEASER FAN FOR LIFE", "participants": [{"id": 18871944, "gamerTag": "#1 TEASER FAN FOR LIFE", "prefix": "TEASER FANCLUB", "user": {"location": {"city": "Johns Creek", "state": "GA", "country": "United States"}}, "player": {"id": 181040, "gamerTag": "#1 TEASER FAN FOR LIFE", "prefix": "TEASER FANCLUB", "user": {"location": {"city": "Johns Creek", "state": "GA", "country": "United States"}}}}]}, "standing": {"placement": 2, "stats": {"score": {"value": 0}}}}], "games": null}, {"id": 92227386, "state": 3, "round": 2, "fullRoundText": "Winners Round 2", "completedAt": 1754167938, "winnerId": 20490328, "slots": [{"id": "92227386-0", "entrant": {"id": 20490328, "name": "Nia", "participants": [{"id": 18869058, "gamerTag": "Nia", "prefix": null, "user": {"location": {"city": "Buford", "state": "GA", "country": "United States"}}, "player": {"id": 428070, "gamerTag": "Nia", "prefix": null, "user": {"location": {"city": "Buford", "state": "GA", "country": "United States"}}}}]}, "standing": {"placement": 1, "stats": {"score": {"value": 2}}}}, {"id": "92227386-1", "entrant": {"id": 20511683, "name": "BE | Derp", "participants": [{"id": 18887902, "gamerTag": "Derp", "prefix": "BE", "user": {"location": {"city": "", "state": "GA", "country": "United States"}}, "player": {"id": 2080364, "gamerTag": "Derp", "prefix": "BE", "user": {"location": {"city": "", "state": "GA", "country": "United States"}}}}]}, "standing": {"placement": 2, "stats": {"score": {"value": 0}}}}], "games": null}, {"id": 92227837, "state": 3, "round": 2, "fullRoundText": "Winners Round 2", "completedAt": 1754173966, "winnerId": 20482285, "slots": [{"id": "92227837-0", "entrant": {"id": 20482285, "name": "Ave~", "participants": [{"id": 18862343, "gamerTag": "Ave~", "prefix": "", "user": {"location": {"city": null, "state": null, "country": null}}, "player": {"id": 38830, "gamerTag": "Ave~", "prefix": "", "user": {"location": {"city": null, "state": null, "country": null}}}}]}, "standing": {"placement": 1, "stats": {"score": {"value": 0}}}}, {"id": "92227837-1", "entrant": {"id": 20535745, "name": "CHAOS", "participants": [{"id": 18909397, "gamerTag": "CHAOS", "prefix": null, "user": {"location": {"city": "Athens", "state": "GA", "country": "United States"}}, "player": {"id": 4559756, "gamerTag": "CHAOS", "prefix": null, "user": {"location": {"city": "Athens", "state": "GA", "country": "United States"}}}}]}, "standing": {"placement": 2, "stats": {"score": {"value": -1}}}}], "games": null}, {"id": 92227625, "state": 3, "round": 2, "fullRoundText": "Winners Round 2", "completedAt": 1754174992, "winnerId": 20673588, "slots": [{"id": "92227625-0", "entrant": {"id": 20673588, "name": "UTK | DBQ | HammerBro", "participants": [{"id": 19028789, "gamerTag": "HammerBro", "prefix": "UTK | DBQ", "user": {"location": {"city": "Chattanooga", "state": "TN", "country": "United States"}}, "player": {"id": 1080845, "gamerTag": "HammerBro", "prefix": "UTK | DBQ", "user": {"location": {"city": "Chattanooga", "state": "TN", "country": "United States"}}}}]}, "standing": {"placement": 1, "stats": {"score": {"value": 2}}}}, {"id": "92227625-1", "entrant": {"id": 20727086, "name": "Pretzels", "participants": [{"id": 19075221, "gamerTag": "Pretzels", "prefix": "", "user": {"location": {"city": "Montgomery", "state": "AL", "country": "United States"}}, "player": {"id": 1592960, "gamerTag": "Pretzels", "prefix": "", "user": {"location": {"city": "Montgomery", "state": "AL", "country": "United States"}}}}]}, "standing": {"placement": 2, "stats": {"score": {"value": 0}}}}], "games": null}, {"id": 92227196, "state": 3, "round": 2, "fullRoundText": "Winners Round 2", "completedAt": 1754167662, "winnerId": 20768627, "slots": [{"id": "92227196-0", "entrant": {"id": 20768627, "name": "KumaDusk", "participants": [{"id": 19113784, "gamerTag": "KumaDusk", "prefix": "", "user": {"location": {"city": "Lawrenceville", "state": "GA", "country": "United States"}}, "player": {"id": 253909, "gamerTag": "KumaDusk", "prefix": "", "user": {"location": {"city": "Lawrenceville", "state": "GA", "country": "United States"}}}}]}, "standing": {"placement": 1, "stats": {"score": {"value": 2}}}}, {"id": "92227196-1", "entrant": {"id": 20634587, "name": "Rain~", "participants": [{"id": 18995271, "gamerTag": "Rain~", "prefix": null, "user": {"location": {"city": "Atlanta", "state": "GA", "country": "United States"}}, "player": {"id": 4240164, "gamerTag": "Rain~", "prefix": null, "user": {"location": {"city": "Atlanta", "state": "GA", "country": "United States"}}}}]}, "standing": {"placement": 2, "stats": {"score": {"value": 0}}}}], "games": null}, {"id": 92227387, "state": 3, "round": 2, "fullRoundText": "Winners Round 2", "completedAt": 1754168405, "winnerId": 20709932, "slots": [{"id": "92227387-0", "entrant": {"id": 20709932, "name": "MBS | Vivid", "participants": [{"id": 19060437, "gamerTag": "Vivid", "prefix": "MBS", "user": {"location": {"city": "Atl", "state": "GA", "country": "United States"}}, "player": {"id": 499333, "gamerTag": "Vivid", "prefix": "MBS", "user": {"location": {"city": "Atl", "state": "GA", "country": "United States"}}}}]}, "standing": {"placement": 1, "stats": {"score": {"value": 2}}}}, {"id": "92227387-1", "entrant": {"id": 20493594, "name": "goopie guy", "participants": [{"id": 18871979, "gamerTag": "goopie guy", "prefix": "", "user": {"location": {"city": "Atlanta", "state": "GA", "country": "United States"}}, "player": {"id": 1159961, "gamerTag": "goopie guy", "prefix": "", "user": {"location": {"city": "Atlanta", "state": "GA", "country": "United States"}}}}]}, "standing": {"placement": 2, "stats": {"score": {"value": 0}}}}], "games": null}, {"id": 92227388, "state": 3, "round": 2, "fullRoundText": "Winners Round 2", "completedAt": 1754168227, "winnerId": 20768144, "slots": [{"id": "92227388-0", "entrant": {"id": 20768144, "name": "UNAG | WOD | Mirage", "participants": [{"id": 19113338, "gamerTag": "Mirage", "prefix": "UNAG | WOD", "user": {"location": {"city": null, "state": "AL", "country": "United States"}}, "player": {"id": 2303717, "gamerTag": "Mirage", "prefix": "UNAG | WOD", "user": {"location": {"city": null, "state": "AL", "country": "United States"}}}}]}, "standing": {"placement": 1, "stats": {"score": {"value": 2}}}}, {"id": "92227388-1", "entrant": {"id": 20654955, "name": "red dot", "participants": [{"id": 19012783, "gamerTag": "red dot", "prefix": "", "user": {"location": {"city": "Milton", "state": "GA", "country": "United States"}}, "player": {"id": 1812177, "gamerTag": "red dot", "prefix": "", "user": {"location": {"city": "Milton", "state": "GA", "country": "United States"}}}}]}, "standing": {"placement": 2, "stats": {"score": {"value": 0}}}}], "games": null}, {"id": 92227626, "state": 3, "round": 2, "fullRoundText": "Winners Round 2", "completedAt": 1754174315, "winnerId": 20488160, "slots": [{"id": "92227626-0", "entrant": {"id": 20488160, "name": "GUMP2 | Spider", "participants": [{"id": 18867233, "gamerTag": "Spider", "prefix": "GUMP2", "user": {"location": {"city": "Atlanta", "state": "GA", "country": "United States"}}, "player": {"id": 691176, "gamerTag": "Spider", "prefix": "GUMP2", "user": {"location": {"city": "Atlanta", "state": "GA", "country": "United States"}}}}]}, "standing": {"placement": 1, "stats": {"score": {"value": 2}}}}, {"id": "92227626-1", "entrant": {"id": 20492297, "name": "TFT | Frank", "participants": [{"id": 18870820, "gamerTag": "Frank", "prefix": "TFT", "user": {"location": {"city": "Doraville", "state": "GA", "country": "United States"}}, "player": {"id": 1227401, "gamerTag": "Terry Labonte", "prefix": "TFT", "user": {"location": {"city": "Doraville", "state": "GA", "country": "United States"}}}}]}, "standing": {"placement": 2, "stats": {"score": {"value": 1}}}}], "games": null}, {"id": 92227197, "state": 3, "round": 2, "fullRoundText": "Winners Round 2", "completedAt": 1754168038, "winnerId": 20644087, "slots": [{"id": "92227197-0", "entrant": {"id": 20644087, "name": "Coven | REM!!!", "participants": [{"id": 19003323, "gamerTag": "REM!!!", "prefix": "Coven", "user": {"location": {"city": "Norcross", "state": "MS", "country": "United States"}}, "player": {"id": 4726196, "gamerTag": "REM!!!", "prefix": "Coven", "user": {"location": {"city": "Norcross", "state": "MS", "country": "United States"}}}}]}, "standing": {"placement": 1, "stats": {"score": {"value": 2}}}}, {"id": "92227197-1", "entrant": {"id": 20492477, "name": "WFF | Olive", "participants": [{"id": 18870955, "gamerTag": "Olive", "prefix": "WFF", "user": {"location": {"city": "Atlanta", "state": "GA", "country": "United States"}}, "player": {"id": 1810274, "gamerTag": "Planet Of Da", "prefix": "WeFarmFrank", "user": {"location": {"city": "Atlanta", "state": "GA", "country": "United States"}}}}]}, "standing": {"placement": 2, "stats": {"score": {"value": 0}}}}], "games": null}, {"id": 92227838, "state": 3, "round": 2, "fullRoundText": "Winners Round 2", "completedAt": 1754174393, "winnerId": 20488065, "slots": [{"id": "92227838-0", "entrant": {"id": 20488065, "name": "Nut Esports | | Geemoney$", "participants": [{"id": 18867205, "gamerTag": "Geemoney$", "prefix": "Nut Esports |", "user": {"location": {"city": "Jacksonville", "state": "FL", "country": "United States"}}, "player": {"id": 252344, "gamerTag": "Geemoney$", "prefix": "", "user": {"location": {"city": "Jacksonville", "state": "FL", "country": "United States"}}}}]}, "standing": {"placement": 1, "stats": {"score": {"value": 2}}}}, {"id": "92227838-1", "entrant": {"id": 20487835, "name": "cO | Netherlord64", "participants": [{"id": 18867025, "gamerTag": "Netherlord64", "prefix": "cO", "user": {"location": {"city": "Roswell", "state": "GA", "country": "United States"}}, "player": {"id": 4586226, "gamerTag": "Netherlord64", "prefix": "", "user": {"location": {"city": "Roswell", "state": "GA", "country": "United States"}}}}]}, "standing": {"placement": 2, "stats": {"score": {"value": 0}}}}], "games": null}, {"id": 92227627, "state": 3, "round": 2, "fullRoundText": "Winners Round 2", "completedAt": 1754175307, "winnerId": 20723478, "slots": [{"id": "92227627-0", "entrant": {"id": 20723478, "name": "ROK | Karu!", "participants": [{"id": 19072257, "gamerTag": "Karu!", "prefix": "ROK", "user": {"location": {"city": null, "state": null, "country": "United States"}}, "player": {"id": 1964751, "gamerTag": "Super Awesome Duck", "prefix": "ROK", "user": {"location": {"city": null, "state": null, "country": "United States"}}}}]}, "standing": {"placement": 1, "stats": {"score": {"value": 2}}}}, {"id": "92227627-1", "entrant": {"id": 20840838, "name": "UTO | Whaley", "participants": [{"id": 19177809, "gamerTag": "Whaley", "prefix": "UTO", "user": {"location": {"city": "Stone Mountain", "state": "GA", "country": "United States"}}, "player": {"id": 2016149, "gamerTag": "Whaley", "prefix": "KSU|UTO|BLZE", "user": {"location": {"city": "Stone Mountain", "state": "GA", "country": "United States"}}}}]}, "standing": {"placement": 2, "stats": {"score": {"value": 1}}}}], "games": null}, {"id": 92227839, "state": 3, "round": 2, "fullRoundText": "Winners Round 2", "completedAt": 1754175455, "winnerId": 20566667, "slots": [{"id": "92227839-0", "entrant": {"id": 20566667, "name": "UNCG | Chugs", "participants": [{"id": 18935801, "gamerTag": "Chugs", "prefix": "UNCG", "user": {"location": {"city": "Winston-Salem", "state": "NC", "country": "United States"}}, "player": {"id": 1820508, "gamerTag": "Chugs", "prefix": "UNCG", "user": {"location": {"city": "Winston-Salem", "state": "NC", "country": "United States"}}}}]}, "standing": {"placement": 1, "stats": {"score": {"value": 2}}}}, {"id": "92227839-1", "entrant": {"id": 20488936, "name": "Boo", "participants": [{"id": 18867842, "gamerTag": "Boo", "prefix": "", "user": {"location": {"city": "Cumming", "state": "GA", "country": "United States"}}, "player": {"id": 2647915, "gamerTag": "Boo", "prefix": "", "user": {"location": {"city": "Cumming", "state": "GA", "country": "United States"}}}}]}, "standing": {"placement": 2, "stats": {"score": {"value": 1}}}}], "games": null}, {"id": 92227389, "state": 3, "round": 2, "fullRoundText": "Winners Round 2", "completedAt": 1754168001, "winnerId": 20735917, "slots": [{"id": "92227389-0", "entrant": {"id": 20735917, "name": "DTN | Fatality", "participants": [{"id": 19082720, "gamerTag": "Fatality", "prefix": "DTN", "user": {"location": {"city": "Lilburn", "state": "GA", "country": "United States"}}, "player": {"id": 15921, "gamerTag": "Fatality", "prefix": "DTN", "user": {"location": {"city": "Lilburn", "state": "GA", "country": "United States"}}}}]}, "standing": {"placement": 1, "stats": {"score": {"value": 2}}}}, {"id": "92227389-1", "entrant": {"id": 20789279, "name": "enoch", "participants": [{"id": 19132724, "gamerTag": "enoch", "prefix": "", "user": {"location": {"city": null, "state": null, "country": null}}, "player": {"id": 3679605, "gamerTag": "DavesHotAsian", "prefix": "", "user": {"location": {"city": null, "state": null, "country": null}}}}]}, "standing": {"placement": 2, "stats": {"score": {"value": 1}}}}], "games": null}, {"id": 92227198, "state": 3, "round": 2, "fullRoundText": "Winners Round 2", "completedAt": 1754168067, "winnerId": 20487903, "slots": [{"id": "92227198-0", "entrant": {"id": 20487903, "name": "DGS | spickles", "participants": [{"id": 18867085, "gamerTag": "spickles", "prefix": "DGS", "user": {"location": {"city": null, "state": null, "country": "United States"}}, "player": {"id": 1154793, "gamerTag": "spickles", "prefix": "DGS", "user": {"location": {"city": null, "state": null, "country": "United States"}}}}]}, "standing": {"placement": 1, "stats": {"score": {"value": 2}}}}, {"id": "92227198-1", "entrant": {"id": 20489324, "name": "carlop", "participants": [{"id": 18868187, "gamerTag": "carlop", "prefix": null, "user": {"location": {"city": "Johns Creek", "state": "GA", "country": "United States"}}, "player": {"id": 3431919, "gamerTag": "carlop", "prefix": null, "user": {"location": {"city": "Johns Creek", "state": "GA", "country": "United States"}}}}]}, "standing": {"placement": 2, "stats": {"score": {"value": 0}}}}], "games": null}]}}}