{"event": {"sets": {"pageInfo": {"totalPages": 22, "total": 318}, "nodes": [{"id": 92110791, "state": 3, "round": 2, "fullRoundText": "Winners Quarter-Final", "completedAt": 1754181789, "winnerId": 20690838, "slots": [{"id": "92110791-0", "entrant": {"id": 20690838, "name": "SR | Kola", "participants": [{"id": 19043759, "gamerTag": "Kola", "prefix": "SR", "user": {"location": {"city": "Duluth", "state": "GA", "country": "United States"}}, "player": {"id": 18802, "gamerTag": "Kola", "prefix": "SR", "user": {"location": {"city": "Duluth", "state": "GA", "country": "United States"}}}}]}, "standing": {"placement": 1, "stats": {"score": {"value": 2}}}}, {"id": "92110791-1", "entrant": {"id": 20495676, "name": "Hell Mode | ROB Slayer", "participants": [{"id": 18873880, "gamerTag": "ROB Slayer", "prefix": "Hell Mode", "user": {"location": {"city": "Atlanta", "state": "GA", "country": "United States"}}, "player": {"id": 2414381, "gamerTag": "ROB Slayer", "prefix": "Hell Mode", "user": {"location": {"city": "Atlanta", "state": "GA", "country": "United States"}}}}]}, "standing": {"placement": 2, "stats": {"score": {"value": 1}}}}], "games": null}, {"id": 92227617, "state": 3, "round": 2, "fullRoundText": "Winners Round 2", "completedAt": 1754174003, "winnerId": 20487980, "slots": [{"id": "92227617-0", "entrant": {"id": 20487980, "name": "crystal pg | blue dog", "participants": [{"id": 18867134, "gamerTag": "blue dog", "prefix": "crystal pg", "user": {"location": {"city": "Matthews", "state": "NC", "country": "United States"}}, "player": {"id": 2279258, "gamerTag": "blue dog", "prefix": "crystal pg", "user": {"location": {"city": "Matthews", "state": "NC", "country": "United States"}}}}]}, "standing": {"placement": 1, "stats": {"score": {"value": 2}}}}, {"id": "92227617-1", "entrant": {"id": 20653366, "name": "WFF | Happy", "participants": [{"id": 19011376, "gamerTag": "Happy", "prefix": "WFF", "user": {"location": {"city": "Peachtree CIty", "state": "GA", "country": "United States"}}, "player": {"id": 1383907, "gamerTag": "Happy", "prefix": "WFF", "user": {"location": {"city": "Peachtree CIty", "state": "GA", "country": "United States"}}}}]}, "standing": {"placement": 2, "stats": {"score": {"value": 0}}}}], "games": null}, {"id": 92227829, "state": 3, "round": 2, "fullRoundText": "Winners Round 2", "completedAt": 1754174278, "winnerId": 20773601, "slots": [{"id": "92227829-0", "entrant": {"id": 20773601, "name": "TCS BTV/WOD | Lost", "participants": [{"id": 19118053, "gamerTag": "Lost", "prefix": "TCS BTV/WOD", "user": {"location": {"city": "Scotts Hill", "state": "TN", "country": "United States"}}, "player": {"id": 1683473, "gamerTag": "Lost", "prefix": "TCS BTV/WOD", "user": {"location": {"city": "Scotts Hill", "state": "TN", "country": "United States"}}}}]}, "standing": {"placement": 1, "stats": {"score": {"value": 2}}}}, {"id": "92227829-1", "entrant": {"id": 20488255, "name": "Burlum", "participants": [{"id": 18867260, "gamerTag": "Burlum", "prefix": "", "user": {"location": {"city": "Lithia Springs", "state": "GA", "country": "United States"}}, "player": {"id": 397537, "gamerTag": "Burlum", "prefix": "", "user": {"location": {"city": "Lithia Springs", "state": "GA", "country": "United States"}}}}]}, "standing": {"placement": 2, "stats": {"score": {"value": 1}}}}], "games": null}, {"id": 92227379, "state": 3, "round": 2, "fullRoundText": "Winners Round 2", "completedAt": 1754168942, "winnerId": 20867172, "slots": [{"id": "92227379-0", "entrant": {"id": 20557775, "name": "SPANDEX", "participants": [{"id": 18927984, "gamerTag": "SPANDEX", "prefix": "", "user": {"location": {"city": "Bahama", "state": "NC", "country": "United States"}}, "player": {"id": 1467671, "gamerTag": "SPANDEX", "prefix": "", "user": {"location": {"city": "Bahama", "state": "NC", "country": "United States"}}}}]}, "standing": {"placement": 2, "stats": {"score": {"value": 1}}}}, {"id": "92227379-1", "entrant": {"id": 20867172, "name": "Trout~", "participants": [{"id": 19201389, "gamerTag": "Trout~", "prefix": "", "user": {"location": {"city": "Lawrenceville", "state": "GA", "country": "United States"}}, "player": {"id": 905410, "gamerTag": "Primary Trout~", "prefix": "", "user": {"location": {"city": "Lawrenceville", "state": "GA", "country": "United States"}}}}]}, "standing": {"placement": 1, "stats": {"score": {"value": 2}}}}], "games": null}, {"id": 92110792, "state": 3, "round": 2, "fullRoundText": "Winners Quarter-Final", "completedAt": 1754182299, "winnerId": 20718910, "slots": [{"id": "92110792-0", "entrant": {"id": 20749158, "name": "NS | BeastModePaul", "participants": [{"id": 19094723, "gamerTag": "BeastModePaul", "prefix": "NS", "user": {"location": {"city": null, "state": null, "country": null}}, "player": {"id": 1868170, "gamerTag": "BeastModePaul", "prefix": "NS", "user": {"location": {"city": null, "state": null, "country": null}}}}]}, "standing": {"placement": 2, "stats": {"score": {"value": 0}}}}, {"id": "92110792-1", "entrant": {"id": 20718910, "name": "HyperKirby", "participants": [{"id": 19068181, "gamerTag": "HyperKirby", "prefix": null, "user": {"location": {"city": "Lawrenceville", "state": "GA", "country": "United States"}}, "player": {"id": 71079, "gamerTag": "HyperKirby", "prefix": null, "user": {"location": {"city": "Lawrenceville", "state": "GA", "country": "United States"}}}}]}, "standing": {"placement": 1, "stats": {"score": {"value": 2}}}}], "games": null}, {"id": 92227189, "state": 3, "round": 2, "fullRoundText": "Winners Round 2", "completedAt": 1754166185, "winnerId": 20564504, "slots": [{"id": "92227189-0", "entrant": {"id": 20564504, "name": "SmU5h | Shaine", "participants": [{"id": 18933874, "gamerTag": "Shaine", "prefix": "SmU5h", "user": {"location": {"city": "Leesburg", "state": "GA", "country": "United States"}}, "player": {"id": 1482843, "gamerTag": "Shaine", "prefix": "SmU5h", "user": {"location": {"city": "Leesburg", "state": "GA", "country": "United States"}}}}]}, "standing": {"placement": 1, "stats": {"score": {"value": 2}}}}, {"id": "92227189-1", "entrant": {"id": 20720503, "name": "cardd", "participants": [{"id": 19069623, "gamerTag": "cardd", "prefix": "", "user": {"location": {"city": "ATL", "state": "GA", "country": "United States"}}, "player": {"id": 34781, "gamerTag": "cardd", "prefix": "", "user": {"location": {"city": "ATL", "state": "GA", "country": "United States"}}}}]}, "standing": {"placement": 2, "stats": {"score": {"value": 0}}}}], "games": null}, {"id": 92227830, "state": 3, "round": 2, "fullRoundText": "Winners Round 2", "completedAt": 1754173171, "winnerId": 20777657, "slots": [{"id": "92227830-0", "entrant": {"id": 20719697, "name": "YUUM | Fantasia", "participants": [{"id": 19068873, "gamerTag": "Fantasia", "prefix": "YUUM", "user": {"location": {"city": "Gastonia", "state": "NC", "country": "United States"}}, "player": {"id": 2114774, "gamerTag": "Fantasia", "prefix": "", "user": {"location": {"city": "Gastonia", "state": "NC", "country": "United States"}}}}]}, "standing": {"placement": 2, "stats": {"score": {"value": -1}}}}, {"id": "92227830-1", "entrant": {"id": 20777657, "name": "REAL | Apollonitus", "participants": [{"id": 19121798, "gamerTag": "Apollonitus", "prefix": "REAL", "user": {"location": {"city": "PACOIMA", "state": "CA", "country": "United States"}}, "player": {"id": 354915, "gamerTag": "Apollonitus", "prefix": "REAL", "user": {"location": {"city": "PACOIMA", "state": "CA", "country": "United States"}}}}]}, "standing": {"placement": 1, "stats": {"score": {"value": null}}}}], "games": null}, {"id": 92227380, "state": 3, "round": 2, "fullRoundText": "Winners Round 2", "completedAt": 1754167537, "winnerId": 20710303, "slots": [{"id": "92227380-0", "entrant": {"id": 20710303, "name": "iGreg!", "participants": [{"id": 19060770, "gamerTag": "iGreg!", "prefix": "", "user": {"location": {"city": "FLOWERY BR", "state": "GA", "country": "United States"}}, "player": {"id": 509710, "gamerTag": "iGreg!", "prefix": "", "user": {"location": {"city": "FLOWERY BR", "state": "GA", "country": "United States"}}}}]}, "standing": {"placement": 1, "stats": {"score": {"value": 2}}}}, {"id": "92227380-1", "entrant": {"id": 20496275, "name": "BGA | KSU | WhopperFloppers", "participants": [{"id": 18874448, "gamerTag": "WhopperFloppers", "prefix": "BGA | KSU", "user": {"location": {"city": null, "state": null, "country": "United States"}}, "player": {"id": 2564706, "gamerTag": "WhopperFloppers", "prefix": "BGA | KSU", "user": {"location": {"city": null, "state": null, "country": "United States"}}}}]}, "standing": {"placement": 2, "stats": {"score": {"value": 0}}}}], "games": null}, {"id": 92227618, "state": 3, "round": 2, "fullRoundText": "Winners Round 2", "completedAt": 1754173623, "winnerId": 20702798, "slots": [{"id": "92227618-0", "entrant": {"id": 20702798, "name": "Riddul", "participants": [{"id": 19053992, "gamerTag": "Riddul", "prefix": "", "user": {"location": {"city": null, "state": null, "country": "United States"}}, "player": {"id": 1418775, "gamerTag": "Riddul", "prefix": "", "user": {"location": {"city": null, "state": null, "country": "United States"}}}}]}, "standing": {"placement": 1, "stats": {"score": {"value": 2}}}}, {"id": "92227618-1", "entrant": {"id": 20512066, "name": "FAT | Phantomtheif", "participants": [{"id": 18888247, "gamerTag": "Phantomtheif", "prefix": "FAT", "user": {"location": {"city": "Columbus", "state": "AL", "country": "United States"}}, "player": {"id": 469237, "gamerTag": "Phantomtheif", "prefix": "FAT", "user": {"location": {"city": "Columbus", "state": "AL", "country": "United States"}}}}]}, "standing": {"placement": 2, "stats": {"score": {"value": 1}}}}], "games": null}, {"id": 92227381, "state": 3, "round": 2, "fullRoundText": "Winners Round 2", "completedAt": 1754168363, "winnerId": 20555595, "slots": [{"id": "92227381-0", "entrant": {"id": 20555595, "name": "Tavares", "participants": [{"id": 18925965, "gamerTag": "Tavares", "prefix": "", "user": {"location": {"city": "Huntsville", "state": "AL", "country": "United States"}}, "player": {"id": 234829, "gamerTag": "Tavares", "prefix": "CF | AR |", "user": {"location": {"city": "Huntsville", "state": "AL", "country": "United States"}}}}]}, "standing": {"placement": 1, "stats": {"score": {"value": 2}}}}, {"id": "92227381-1", "entrant": {"id": 20674489, "name": "Transcendent", "participants": [{"id": 19029548, "gamerTag": "Transcendent", "prefix": "", "user": {"location": {"city": "Lawrenceville", "state": "GA", "country": "United States"}}, "player": {"id": 1671724, "gamerTag": "Transcendent", "prefix": "", "user": {"location": {"city": "Lawrenceville", "state": "GA", "country": "United States"}}}}]}, "standing": {"placement": 2, "stats": {"score": {"value": 0}}}}], "games": null}, {"id": 92227619, "state": 3, "round": 2, "fullRoundText": "Winners Round 2", "completedAt": 1754175060, "winnerId": 20722062, "slots": [{"id": "92227619-0", "entrant": {"id": 20722062, "name": "YBG Don", "participants": [{"id": 19071049, "gamerTag": "YBG Don", "prefix": "", "user": {"location": {"city": "sussy amogus school", "state": "TX", "country": "United States"}}, "player": {"id": 2228357, "gamerTag": "YBG Don", "prefix": "", "user": {"location": {"city": "sussy amogus school", "state": "TX", "country": "United States"}}}}]}, "standing": {"placement": 1, "stats": {"score": {"value": 2}}}}, {"id": "92227619-1", "entrant": {"id": 20499634, "name": "sushinap", "participants": [{"id": 18877287, "gamerTag": "sushinap", "prefix": "", "user": {"location": {"city": "BIRMINGHAM", "state": "AL", "country": "United States"}}, "player": {"id": 1092449, "gamerTag": "sushinap", "prefix": "", "user": {"location": {"city": "BIRMINGHAM", "state": "AL", "country": "United States"}}}}]}, "standing": {"placement": 2, "stats": {"score": {"value": 1}}}}], "games": null}, {"id": 92227831, "state": 3, "round": 2, "fullRoundText": "Winners Round 2", "completedAt": 1754173723, "winnerId": 20554453, "slots": [{"id": "92227831-0", "entrant": {"id": 20554453, "name": "WOD | Scrafty", "participants": [{"id": 18924986, "gamerTag": "Scrafty", "prefix": "WOD", "user": {"location": {"city": "Tupelo", "state": "MS", "country": "United States"}}, "player": {"id": 159520, "gamerTag": "Scrafty", "prefix": "WOD", "user": {"location": {"city": "Tupelo", "state": "MS", "country": "United States"}}}}]}, "standing": {"placement": 1, "stats": {"score": {"value": 2}}}}, {"id": "92227831-1", "entrant": {"id": 20522394, "name": "4o4 | REAL | Nikita", "participants": [{"id": 18897526, "gamerTag": "Nikita", "prefix": "4o4 | REAL", "user": {"location": {"city": null, "state": "GA", "country": "United States"}}, "player": {"id": 1144070, "gamerTag": "Nikita", "prefix": "4o4 | REAL", "user": {"location": {"city": null, "state": "GA", "country": "United States"}}}}]}, "standing": {"placement": 2, "stats": {"score": {"value": 0}}}}], "games": null}, {"id": 92227190, "state": 3, "round": 2, "fullRoundText": "Winners Round 2", "completedAt": 1754168154, "winnerId": 20778878, "slots": [{"id": "92227190-0", "entrant": {"id": 20778878, "name": "ROK | Sneaky Pocket Golem", "participants": [{"id": 19122930, "gamerTag": "Sneaky Pocket Golem", "prefix": "ROK", "user": {"location": {"city": "Miami", "state": "FL", "country": "United States"}}, "player": {"id": 1042374, "gamerTag": "Riku", "prefix": "ROK", "user": {"location": {"city": "Miami", "state": "FL", "country": "United States"}}}}]}, "standing": {"placement": 1, "stats": {"score": {"value": 2}}}}, {"id": "92227190-1", "entrant": {"id": 20830351, "name": "Pleeploploop", "participants": [{"id": 19168887, "gamerTag": "Pleeploploop", "prefix": "", "user": {"location": {"city": "Snellville", "state": null, "country": "United States"}}, "player": {"id": 1739676, "gamerTag": "Pleeploploop", "prefix": "", "user": {"location": {"city": "Snellville", "state": null, "country": "United States"}}}}]}, "standing": {"placement": 2, "stats": {"score": {"value": 0}}}}], "games": null}, {"id": 92227191, "state": 3, "round": 2, "fullRoundText": "Winners Round 2", "completedAt": 1754167059, "winnerId": 20494615, "slots": [{"id": "92227191-0", "entrant": {"id": 20494615, "name": "PACDUECE", "participants": [{"id": 18872949, "gamerTag": "PACDUECE", "prefix": "", "user": {"location": {"city": "Valdosta", "state": "GA", "country": "United States"}}, "player": {"id": 35275, "gamerTag": "PACDUECE", "prefix": "", "user": {"location": {"city": "Valdosta", "state": "GA", "country": "United States"}}}}]}, "standing": {"placement": 1, "stats": {"score": {"value": 2}}}}, {"id": "92227191-1", "entrant": {"id": 20535710, "name": "Coraz\u00f3nCodi", "participants": [{"id": 18909366, "gamerTag": "Coraz\u00f3nCodi", "prefix": "", "user": {"location": {"city": "Stockbridge", "state": "GA", "country": "United States"}}, "player": {"id": 295892, "gamerTag": "Coraz\u00f3nCodi", "prefix": "", "user": {"location": {"city": "Stockbridge", "state": "GA", "country": "United States"}}}}]}, "standing": {"placement": 2, "stats": {"score": {"value": 1}}}}], "games": null}, {"id": 92227620, "state": 3, "round": 2, "fullRoundText": "Winners Round 2", "completedAt": 1754174119, "winnerId": 20777459, "slots": [{"id": "92227620-0", "entrant": {"id": 20777459, "name": "UAH | Otogi", "participants": [{"id": 19121590, "gamerTag": "Otogi", "prefix": "UAH", "user": {"location": {"city": "Huntsville", "state": "AL", "country": "United States"}}, "player": {"id": 3846627, "gamerTag": "Otogi", "prefix": "Argon", "user": {"location": {"city": "Huntsville", "state": "AL", "country": "United States"}}}}]}, "standing": {"placement": 1, "stats": {"score": {"value": 2}}}}, {"id": "92227620-1", "entrant": {"id": 20865147, "name": "KageGato", "participants": [{"id": 19167093, "gamerTag": "KageGato", "prefix": "", "user": {"location": {"city": "Valdosta", "state": "GA", "country": "United States"}}, "player": {"id": 1392649, "gamerTag": "KageGato", "prefix": "", "user": {"location": {"city": "Valdosta", "state": "GA", "country": "United States"}}}}]}, "standing": {"placement": 2, "stats": {"score": {"value": 0}}}}], "games": null}]}}}