{"event": {"sets": {"pageInfo": {"totalPages": 2, "total": 20}, "nodes": [{"id": 94316151, "state": 3, "round": -4, "fullRoundText": "Losers Round 1", "completedAt": 1758852495, "winnerId": 21342132, "slots": [{"id": "94316151-0", "entrant": {"id": 21342132, "name": "BOLT | KhalRhaego", "participants": [{"id": 19619295, "gamerTag": "KhalRhaego", "prefix": "BOLT", "user": {"location": {"city": "Jonesboro", "state": "GA", "country": "United States"}}, "player": {"id": 4076327, "gamerTag": "KhalRhaego", "prefix": "BOLT", "user": {"location": {"city": "Jonesboro", "state": "GA", "country": "United States"}}}}]}, "standing": {"placement": 1, "stats": {"score": {"value": 2}}}}, {"id": "94316151-1", "entrant": {"id": 21031439, "name": "Nurikami", "participants": [{"id": 19346572, "gamerTag": "Nurikami", "prefix": null, "user": {"location": {"city": "Sandy Springs", "state": "GA", "country": "United States"}}, "player": {"id": 2894467, "gamerTag": "Nurikami", "prefix": null, "user": {"location": {"city": "Sandy Springs", "state": "GA", "country": "United States"}}}}]}, "standing": {"placement": 2, "stats": {"score": {"value": 1}}}}], "games": null}, {"id": 94316152, "state": 3, "round": -4, "fullRoundText": "Losers Round 1", "completedAt": 1758852860, "winnerId": 21198010, "slots": [{"id": "94316152-0", "entrant": {"id": 21198010, "name": "yeat | bussdowncelery", "participants": [{"id": 19495045, "gamerTag": "bussdowncelery", "prefix": "yeat", "user": {"location": {"city": "Atlanta", "state": "GA", "country": "United States"}}, "player": {"id": 2794623, "gamerTag": "bussdowncelery", "prefix": "yeat", "user": {"location": {"city": "Atlanta", "state": "GA", "country": "United States"}}}}]}, "standing": {"placement": 1, "stats": {"score": {"value": 2}}}}, {"id": "94316152-1", "entrant": {"id": 21382127, "name": "MILLANO", "participants": [{"id": 19655353, "gamerTag": "MILLANO", "prefix": "", "user": null, "player": {"id": 4125846, "gamerTag": "MILLANO", "prefix": "", "user": null}}]}, "standing": {"placement": 2, "stats": {"score": {"value": 0}}}}], "games": null}, {"id": 94316113, "state": 3, "round": 1, "fullRoundText": "Winners Round 1", "completedAt": 1758850881, "winnerId": 21198010, "slots": [{"id": "94316113-0", "entrant": {"id": 21198010, "name": "yeat | bussdowncelery", "participants": [{"id": 19495045, "gamerTag": "bussdowncelery", "prefix": "yeat", "user": {"location": {"city": "Atlanta", "state": "GA", "country": "United States"}}, "player": {"id": 2794623, "gamerTag": "bussdowncelery", "prefix": "yeat", "user": {"location": {"city": "Atlanta", "state": "GA", "country": "United States"}}}}]}, "standing": {"placement": 1, "stats": {"score": {"value": null}}}}, {"id": "94316113-1", "entrant": {"id": 21243852, "name": "FFonFFon", "participants": [{"id": 19535786, "gamerTag": "FFonFFon", "prefix": "", "user": {"location": {"city": "Lithonia", "state": "GA", "country": "United States"}}, "player": {"id": 4972213, "gamerTag": "FFonFFon", "prefix": "", "user": {"location": {"city": "Lithonia", "state": "GA", "country": "United States"}}}}]}, "standing": {"placement": 2, "stats": {"score": {"value": -1}}}}], "games": null}, {"id": 94316117, "state": 3, "round": 1, "fullRoundText": "Winners Round 1", "completedAt": 1758852747, "winnerId": 21345602, "slots": [{"id": "94316117-0", "entrant": {"id": 21031439, "name": "Nurikami", "participants": [{"id": 19346572, "gamerTag": "Nurikami", "prefix": null, "user": {"location": {"city": "Sandy Springs", "state": "GA", "country": "United States"}}, "player": {"id": 2894467, "gamerTag": "Nurikami", "prefix": null, "user": {"location": {"city": "Sandy Springs", "state": "GA", "country": "United States"}}}}]}, "standing": {"placement": 2, "stats": {"score": {"value": 1}}}}, {"id": "94316117-1", "entrant": {"id": 21345602, "name": "BMG | Lil Capped", "participants": [{"id": 19622649, "gamerTag": "Lil Capped", "prefix": "BMG", "user": {"location": {"city": "Atlanta", "state": "GA", "country": "United States"}}, "player": {"id": 263559, "gamerTag": "Lil Capped", "prefix": "BMG", "user": {"location": {"city": "Atlanta", "state": "GA", "country": "United States"}}}}]}, "standing": {"placement": 1, "stats": {"score": {"value": 2}}}}], "games": null}, {"id": 94316119, "state": 3, "round": 1, "fullRoundText": "Winners Round 1", "completedAt": 1758852212, "winnerId": 21348972, "slots": [{"id": "94316119-0", "entrant": {"id": 21348972, "name": "Buddy3k", "participants": [{"id": 19625680, "gamerTag": "Buddy3k", "prefix": "", "user": {"location": {"city": "Atlanta", "state": "GA", "country": "United States"}}, "player": {"id": 4443794, "gamerTag": "Buddy3k", "prefix": "", "user": {"location": {"city": "Atlanta", "state": "GA", "country": "United States"}}}}]}, "standing": {"placement": 1, "stats": {"score": {"value": 2}}}}, {"id": "94316119-1", "entrant": {"id": 21382127, "name": "MILLANO", "participants": [{"id": 19655353, "gamerTag": "MILLANO", "prefix": "", "user": null, "player": {"id": 4125846, "gamerTag": "MILLANO", "prefix": "", "user": null}}]}, "standing": {"placement": 2, "stats": {"score": {"value": 0}}}}], "games": null}]}}}