{"phase": {"seeds": {"pageInfo": {"totalPages": 1, "total": 12}, "nodes": [{"id": 36800385, "seedNum": 1, "entrant": {"id": 21394633, "name": "TTV | aj_waves", "participants": [{"id": 19666047, "gamerTag": "aj_waves", "prefix": "TTV", "user": {"location": {"city": "Statesboro", "state": "GA", "country": "United States"}}, "player": {"id": 3430874, "gamerTag": "aj_waves", "prefix": "TTV", "user": {"location": {"city": "Statesboro", "state": "GA", "country": "United States"}}}}]}}, {"id": 36805490, "seedNum": 2, "entrant": {"id": 21398585, "name": "Mr.Yello", "participants": [{"id": 19669439, "gamerTag": "Mr.Yello", "prefix": null, "user": {"location": {"city": "Butterfly Lounge", "state": "GA", "country": "United States"}}, "player": {"id": 1832805, "gamerTag": "Mr.Yello", "prefix": null, "user": {"location": {"city": "Butterfly Lounge", "state": "GA", "country": "United States"}}}}]}}, {"id": 36805283, "seedNum": 3, "entrant": {"id": 21398393, "name": "LeoRR", "participants": [{"id": 19669282, "gamerTag": "LeoRR", "prefix": "", "user": {"location": {"city": "", "state": "GA", "country": "United States"}}, "player": {"id": 1378523, "gamerTag": "LeoRR", "prefix": "", "user": {"location": {"city": "", "state": "GA", "country": "United States"}}}}]}}, {"id": 36805155, "seedNum": 5, "entrant": {"id": 21398283, "name": "Tiller Wail", "participants": [{"id": 19669183, "gamerTag": "Tiller Wail", "prefix": "", "user": {"location": {"city": "Statesboro", "state": "GA", "country": "United States"}}, "player": {"id": 981821, "gamerTag": "Tiller Wail", "prefix": "", "user": {"location": {"city": "Statesboro", "state": "GA", "country": "United States"}}}}]}}, {"id": 36665628, "seedNum": 4, "entrant": {"id": 21302826, "name": "REDD", "participants": [{"id": 19584787, "gamerTag": "REDD", "prefix": "", "user": {"location": {"city": "Valdosta", "state": "GA", "country": "United States"}}, "player": {"id": 1305309, "gamerTag": "REDD", "prefix": "", "user": {"location": {"city": "Valdosta", "state": "GA", "country": "United States"}}}}]}}, {"id": 36796063, "seedNum": 6, "entrant": {"id": 21391593, "name": "R0CK", "participants": [{"id": 19663728, "gamerTag": "R0CK", "prefix": "", "user": {"location": {"city": "Augusta", "state": "GA", "country": "United States"}}, "player": {"id": 1792035, "gamerTag": "R0CK", "prefix": "", "user": {"location": {"city": "Augusta", "state": "GA", "country": "United States"}}}}]}}, {"id": 36805886, "seedNum": 10, "entrant": {"id": 21398943, "name": "turtletown", "participants": [{"id": 19669733, "gamerTag": "turtletown", "prefix": null, "user": {"location": {"city": "Guyton", "state": "GA", "country": "United States"}}, "player": {"id": 4718569, "gamerTag": "turtletown", "prefix": null, "user": {"location": {"city": "Guyton", "state": "GA", "country": "United States"}}}}]}}, {"id": 36805142, "seedNum": 11, "entrant": {"id": 21398269, "name": "SuperJC25", "participants": [{"id": 19669169, "gamerTag": "SuperJC25", "prefix": null, "user": {"location": {"city": "Blufffton", "state": "GA", "country": "United States"}}, "player": {"id": 2688660, "gamerTag": "SuperJC25", "prefix": null, "user": {"location": {"city": "Blufffton", "state": "GA", "country": "United States"}}}}]}}, {"id": 36805555, "seedNum": 7, "entrant": {"id": 21398647, "name": "Feltinooo (Felt)", "participants": [{"id": 19669485, "gamerTag": "Feltinooo (Felt)", "prefix": null, "user": {"location": {"city": "Statesboro", "state": "GA", "country": "United States"}}, "player": {"id": 3743600, "gamerTag": "Feltinooo (Felt)", "prefix": null, "user": {"location": {"city": "Statesboro", "state": "GA", "country": "United States"}}}}]}}, {"id": 36805207, "seedNum": 8, "entrant": {"id": 21398321, "name": "b", "participants": [{"id": 19669223, "gamerTag": "b", "prefix": null, "user": {"location": {"city": "Statesboro", "state": "GA", "country": "United States"}}, "player": {"id": 3092368, "gamerTag": "b", "prefix": null, "user": {"location": {"city": "Statesboro", "state": "GA", "country": "United States"}}}}]}}, {"id": 36805891, "seedNum": 9, "entrant": {"id": 21398949, "name": "Lupo", "participants": [{"id": 19669737, "gamerTag": "Lupo", "prefix": "", "user": {"location": {"city": null, "state": null, "country": null}}, "player": {"id": 3848849, "gamerTag": "Lupo", "prefix": "", "user": {"location": {"city": null, "state": null, "country": null}}}}]}}, {"id": 36805719, "seedNum": 12, "entrant": {"id": 21398803, "name": "SULearner", "participants": [{"id": 19669618, "gamerTag": "SULearner", "prefix": "", "user": {"location": null}, "player": {"id": 4996281, "gamerTag": "SULearner", "prefix": "", "user": {"location": null}}}]}}]}}}