{"event": {"sets": {"pageInfo": {"totalPages": 2, "total": 24}, "nodes": [{"id": 93192380, "state": 3, "round": -4, "fullRoundText": "Losers Round 2", "completedAt": 1756428239, "winnerId": 21094234, "slots": [{"id": "93192380-0", "entrant": {"id": 21094234, "name": "OGC | bune", "participants": [{"id": 19403326, "gamerTag": "bune", "prefix": "OGC", "user": {"location": {"city": "Macon", "state": "GA", "country": "United States"}}, "player": {"id": 3054829, "gamerTag": "bune", "prefix": "OGC", "user": {"location": {"city": "Macon", "state": "GA", "country": "United States"}}}}]}, "standing": {"placement": 1, "stats": {"score": {"value": 3}}}}, {"id": "93192380-1", "entrant": {"id": 21100007, "name": "NMBS | roshi", "participants": [{"id": 19408481, "gamerTag": "roshi", "prefix": "NMBS", "user": {"location": {"city": "Atlanta", "state": "GA", "country": "United States"}}, "player": {"id": 37667, "gamerTag": "roshi", "prefix": "NMBS", "user": {"location": {"city": "Atlanta", "state": "GA", "country": "United States"}}}}]}, "standing": {"placement": 2, "stats": {"score": {"value": 1}}}}], "games": [{"id": 32208539, "orderNum": 1, "winnerId": 21100007, "entrant1Score": 0, "entrant2Score": null, "stage": null, "selections": [{"id": 47466921, "selectionType": "CHARACTER", "selectionValue": 6, "entrant": {"id": 21094234}, "character": {"id": 6, "name": "Fox"}}, {"id": 47466922, "selectionType": "CHARACTER", "selectionValue": 14, "entrant": {"id": 21100007}, "character": {"id": 14, "name": "Marth"}}]}, {"id": 32208540, "orderNum": 2, "winnerId": 21094234, "entrant1Score": null, "entrant2Score": 0, "stage": null, "selections": [{"id": 47466923, "selectionType": "CHARACTER", "selectionValue": 6, "entrant": {"id": 21094234}, "character": {"id": 6, "name": "Fox"}}, {"id": 47466924, "selectionType": "CHARACTER", "selectionValue": 14, "entrant": {"id": 21100007}, "character": {"id": 14, "name": "Marth"}}]}, {"id": 32208541, "orderNum": 3, "winnerId": 21094234, "entrant1Score": null, "entrant2Score": 0, "stage": null, "selections": [{"id": 47466925, "selectionType": "CHARACTER", "selectionValue": 6, "entrant": {"id": 21094234}, "character": {"id": 6, "name": "Fox"}}, {"id": 47466926, "selectionType": "CHARACTER", "selectionValue": 14, "entrant": {"id": 21100007}, "character": {"id": 14, "name": "Marth"}}]}, {"id": 32208542, "orderNum": 4, "winnerId": 21094234, "entrant1Score": null, "entrant2Score": 0, "stage": null, "selections": [{"id": 47466927, "selectionType": "CHARACTER", "selectionValue": 6, "entrant": {"id": 21094234}, "character": {"id": 6, "name": "Fox"}}, {"id": 47466928, "selectionType": "CHARACTER", "selectionValue": 14, "entrant": {"id": 21100007}, "character": {"id": 14, "name": "Marth"}}]}]}, {"id": 93192381, "state": 3, "round": -4, "fullRoundText": "Losers Round 2", "completedAt": 1756428659, "winnerId": 21104228, "slots": [{"id": "93192381-0", "entrant": {"id": 21104228, "name": "2ndary | Errant", "participants": [{"id": 19412393, "gamerTag": "Errant", "prefix": "2ndary", "user": {"location": {"city": "Atlanta", "state": "GA", "country": "United States"}}, "player": {"id": 2823413, "gamerTag": "Errant", "prefix": "2ndary", "user": {"location": {"city": "Atlanta", "state": "GA", "country": "United States"}}}}]}, "standing": {"placement": 1, "stats": {"score": {"value": 3}}}}, {"id": "93192381-1", "entrant": {"id": 21084636, "name": "The Hive | braxton", "participants": [{"id": 19394639, "gamerTag": "braxton", "prefix": "The Hive", "user": {"location": {"city": "Atlanta", "state": "GA", "country": "United States"}}, "player": {"id": 1037821, "gamerTag": "braxton", "prefix": "The Hive", "user": {"location": {"city": "Atlanta", "state": "GA", "country": "United States"}}}}]}, "standing": {"placement": 2, "stats": {"score": {"value": 2}}}}], "games": null}, {"id": 93192382, "state": 3, "round": -4, "fullRoundText": "Losers Round 2", "completedAt": 1756428159, "winnerId": 21084639, "slots": [{"id": "93192382-0", "entrant": {"id": 21084639, "name": "DD | Kingpoyothefirst", "participants": [{"id": 19394641, "gamerTag": "Kingpoyothefirst", "prefix": "DD", "user": {"location": {"city": null, "state": null, "country": null}}, "player": {"id": 2934299, "gamerTag": "Kingpoyothefirst", "prefix": "DD", "user": {"location": {"city": null, "state": null, "country": null}}}}]}, "standing": {"placement": 1, "stats": {"score": {"value": 3}}}}, {"id": "93192382-1", "entrant": {"id": 21100375, "name": "ATL | Mid", "participants": [{"id": 19408800, "gamerTag": "Mid", "prefix": "ATL", "user": {"location": {"city": "Atlanta", "state": "GA", "country": "United States"}}, "player": {"id": 1122267, "gamerTag": "Mid", "prefix": "ATL", "user": {"location": {"city": "Atlanta", "state": "GA", "country": "United States"}}}}]}, "standing": {"placement": 2, "stats": {"score": {"value": 0}}}}], "games": null}, {"id": 93192376, "state": 3, "round": -3, "fullRoundText": "Losers Round 1", "completedAt": 1756427256, "winnerId": 21100007, "slots": [{"id": "93192376-0", "entrant": {"id": 21100281, "name": "TPS | $CAIT", "participants": [{"id": 19408729, "gamerTag": "$CAIT", "prefix": "TPS", "user": {"location": {"city": "Kennesaw", "state": "GA", "country": "United States"}}, "player": {"id": 3422494, "gamerTag": "$CAITLIN", "prefix": "TPS", "user": {"location": {"city": "Kennesaw", "state": "GA", "country": "United States"}}}}]}, "standing": {"placement": 2, "stats": {"score": {"value": 0}}}}, {"id": "93192376-1", "entrant": {"id": 21100007, "name": "NMBS | roshi", "participants": [{"id": 19408481, "gamerTag": "roshi", "prefix": "NMBS", "user": {"location": {"city": "Atlanta", "state": "GA", "country": "United States"}}, "player": {"id": 37667, "gamerTag": "roshi", "prefix": "NMBS", "user": {"location": {"city": "Atlanta", "state": "GA", "country": "United States"}}}}]}, "standing": {"placement": 1, "stats": {"score": {"value": 3}}}}], "games": [{"id": 32207355, "orderNum": 1, "winnerId": 21100007, "entrant1Score": 0, "entrant2Score": null, "stage": null, "selections": [{"id": 47465416, "selectionType": "CHARACTER", "selectionValue": 14, "entrant": {"id": 21100007}, "character": {"id": 14, "name": "Marth"}}, {"id": 47465417, "selectionType": "CHARACTER", "selectionValue": 2, "entrant": {"id": 21100281}, "character": {"id": 2, "name": "Captain Falcon"}}]}, {"id": 32207356, "orderNum": 2, "winnerId": 21100007, "entrant1Score": 0, "entrant2Score": null, "stage": null, "selections": [{"id": 47465418, "selectionType": "CHARACTER", "selectionValue": 14, "entrant": {"id": 21100007}, "character": {"id": 14, "name": "Marth"}}, {"id": 47465419, "selectionType": "CHARACTER", "selectionValue": 2, "entrant": {"id": 21100281}, "character": {"id": 2, "name": "Captain Falcon"}}]}, {"id": 32207357, "orderNum": 3, "winnerId": 21100007, "entrant1Score": 0, "entrant2Score": null, "stage": null, "selections": [{"id": 47465420, "selectionType": "CHARACTER", "selectionValue": 14, "entrant": {"id": 21100007}, "character": {"id": 14, "name": "Marth"}}, {"id": 47465421, "selectionType": "CHARACTER", "selectionValue": 2, "entrant": {"id": 21100281}, "character": {"id": 2, "name": "Captain Falcon"}}]}]}, {"id": 93192343, "state": 3, "round": 1, "fullRoundText": "Winners Round 1", "completedAt": 1756426576, "winnerId": 21084639, "slots": [{"id": "93192343-0", "entrant": {"id": 21084639, "name": "DD | Kingpoyothefirst", "participants": [{"id": 19394641, "gamerTag": "Kingpoyothefirst", "prefix": "DD", "user": {"location": {"city": null, "state": null, "country": null}}, "player": {"id": 2934299, "gamerTag": "Kingpoyothefirst", "prefix": "DD", "user": {"location": {"city": null, "state": null, "country": null}}}}]}, "standing": {"placement": 1, "stats": {"score": {"value": 3}}}}, {"id": "93192343-1", "entrant": {"id": 21099252, "name": "Juan J. Steven's", "participants": [{"id": 19407712, "gamerTag": "Juan J. Steven's", "prefix": null, "user": {"location": {"city": "atlanta", "state": "GA", "country": "United States"}}, "player": {"id": 3318064, "gamerTag": "Guts", "prefix": "\u72a0\u7272\u306e\u70d9\u5370", "user": {"location": {"city": "atlanta", "state": "GA", "country": "United States"}}}}]}, "standing": {"placement": 2, "stats": {"score": {"value": 0}}}}], "games": null}, {"id": 93192344, "state": 3, "round": 1, "fullRoundText": "Winners Round 1", "completedAt": 1756426366, "winnerId": 21102997, "slots": [{"id": "93192344-0", "entrant": {"id": 21102997, "name": "sanrio enjoyer", "participants": [{"id": 19411270, "gamerTag": "sanrio enjoyer", "prefix": null, "user": {"location": {"city": "Atlanta", "state": "GA", "country": "United States"}}, "player": {"id": 4933308, "gamerTag": "sanrio enjoyer", "prefix": null, "user": {"location": {"city": "Atlanta", "state": "GA", "country": "United States"}}}}]}, "standing": {"placement": 1, "stats": {"score": {"value": 3}}}}, {"id": "93192344-1", "entrant": {"id": 21100281, "name": "TPS | $CAIT", "participants": [{"id": 19408729, "gamerTag": "$CAIT", "prefix": "TPS", "user": {"location": {"city": "Kennesaw", "state": "GA", "country": "United States"}}, "player": {"id": 3422494, "gamerTag": "$CAITLIN", "prefix": "TPS", "user": {"location": {"city": "Kennesaw", "state": "GA", "country": "United States"}}}}]}, "standing": {"placement": 2, "stats": {"score": {"value": 0}}}}], "games": null}, {"id": 93192345, "state": 3, "round": 1, "fullRoundText": "Winners Round 1", "completedAt": 1756427240, "winnerId": 21104228, "slots": [{"id": "93192345-0", "entrant": {"id": 21104228, "name": "2ndary | Errant", "participants": [{"id": 19412393, "gamerTag": "Errant", "prefix": "2ndary", "user": {"location": {"city": "Atlanta", "state": "GA", "country": "United States"}}, "player": {"id": 2823413, "gamerTag": "Errant", "prefix": "2ndary", "user": {"location": {"city": "Atlanta", "state": "GA", "country": "United States"}}}}]}, "standing": {"placement": 1, "stats": {"score": {"value": 3}}}}, {"id": "93192345-1", "entrant": {"id": 21100007, "name": "NMBS | roshi", "participants": [{"id": 19408481, "gamerTag": "roshi", "prefix": "NMBS", "user": {"location": {"city": "Atlanta", "state": "GA", "country": "United States"}}, "player": {"id": 37667, "gamerTag": "roshi", "prefix": "NMBS", "user": {"location": {"city": "Atlanta", "state": "GA", "country": "United States"}}}}]}, "standing": {"placement": 2, "stats": {"score": {"value": 0}}}}], "games": [{"id": 32207341, "orderNum": 1, "winnerId": 21104228, "entrant1Score": null, "entrant2Score": 0, "stage": null, "selections": [{"id": 47465398, "selectionType": "CHARACTER", "selectionValue": 2, "entrant": {"id": 21100007}, "character": {"id": 2, "name": "Captain Falcon"}}, {"id": 47465399, "selectionType": "CHARACTER", "selectionValue": 14, "entrant": {"id": 21104228}, "character": {"id": 14, "name": "Marth"}}]}, {"id": 32207342, "orderNum": 2, "winnerId": 21104228, "entrant1Score": null, "entrant2Score": 0, "stage": null, "selections": [{"id": 47465400, "selectionType": "CHARACTER", "selectionValue": 2, "entrant": {"id": 21100007}, "character": {"id": 2, "name": "Captain Falcon"}}, {"id": 47465401, "selectionType": "CHARACTER", "selectionValue": 14, "entrant": {"id": 21104228}, "character": {"id": 14, "name": "Marth"}}]}, {"id": 32207343, "orderNum": 3, "winnerId": 21104228, "entrant1Score": null, "entrant2Score": 0, "stage": null, "selections": [{"id": 47465402, "selectionType": "CHARACTER", "selectionValue": 2, "entrant": {"id": 21100007}, "character": {"id": 2, "name": "Captain Falcon"}}, {"id": 47465403, "selectionType": "CHARACTER", "selectionValue": 14, "entrant": {"id": 21104228}, "character": {"id": 14, "name": "Marth"}}]}]}, {"id": 93192347, "state": 3, "round": 1, "fullRoundText": "Winners Round 1", "completedAt": 1756426542, "winnerId": 21094234, "slots": [{"id": "93192347-0", "entrant": {"id": 21094234, "name": "OGC | bune", "participants": [{"id": 19403326, "gamerTag": "bune", "prefix": "OGC", "user": {"location": {"city": "Macon", "state": "GA", "country": "United States"}}, "player": {"id": 3054829, "gamerTag": "bune", "prefix": "OGC", "user": {"location": {"city": "Macon", "state": "GA", "country": "United States"}}}}]}, "standing": {"placement": 1, "stats": {"score": {"value": 3}}}}, {"id": "93192347-1", "entrant": {"id": 21084636, "name": "The Hive | braxton", "participants": [{"id": 19394639, "gamerTag": "braxton", "prefix": "The Hive", "user": {"location": {"city": "Atlanta", "state": "GA", "country": "United States"}}, "player": {"id": 1037821, "gamerTag": "braxton", "prefix": "The Hive", "user": {"location": {"city": "Atlanta", "state": "GA", "country": "United States"}}}}]}, "standing": {"placement": 2, "stats": {"score": {"value": 1}}}}], "games": null}, {"id": 93192349, "state": 3, "round": 1, "fullRoundText": "Winners Round 1", "completedAt": 1756426677, "winnerId": 21083657, "slots": [{"id": "93192349-0", "entrant": {"id": 21083657, "name": "EVIL | Alas", "participants": [{"id": 19393868, "gamerTag": "Alas", "prefix": "EVIL", "user": {"location": {"city": null, "state": null, "country": null}}, "player": {"id": 25946, "gamerTag": "Alas", "prefix": "EVIL", "user": {"location": {"city": null, "state": null, "country": null}}}}]}, "standing": {"placement": 1, "stats": {"score": {"value": 3}}}}, {"id": "93192349-1", "entrant": {"id": 21100375, "name": "ATL | Mid", "participants": [{"id": 19408800, "gamerTag": "Mid", "prefix": "ATL", "user": {"location": {"city": "Atlanta", "state": "GA", "country": "United States"}}, "player": {"id": 1122267, "gamerTag": "Mid", "prefix": "ATL", "user": {"location": {"city": "Atlanta", "state": "GA", "country": "United States"}}}}]}, "standing": {"placement": 2, "stats": {"score": {"value": 1}}}}], "games": null}]}}}