{"event": {"sets": {"pageInfo": {"totalPages": 2, "total": 28}, "nodes": [{"id": 93620456, "state": 3, "round": -4, "fullRoundText": "Losers Round 2", "completedAt": 1757267408, "winnerId": 21194549, "slots": [{"id": "93620456-0", "entrant": {"id": 21194549, "name": "Gohan Blanco", "participants": [{"id": 19492045, "gamerTag": "Gohan Blanco", "prefix": null, "user": {"location": {"city": null, "state": null, "country": "United States"}}, "player": {"id": 2413038, "gamerTag": "Gohan Blanco", "prefix": null, "user": {"location": {"city": null, "state": null, "country": "United States"}}}}]}, "standing": {"placement": 1, "stats": {"score": {"value": 2}}}}, {"id": "93620456-1", "entrant": {"id": 21183347, "name": "CV | NiNE", "participants": [{"id": 19482454, "gamerTag": "NiNE", "prefix": "CV", "user": {"location": {"city": "Augusta", "state": "GA", "country": "United States"}}, "player": {"id": 25337, "gamerTag": "NiNE", "prefix": "CV", "user": {"location": {"city": "Augusta", "state": "GA", "country": "United States"}}}}]}, "standing": {"placement": 2, "stats": {"score": {"value": 0}}}}], "games": null}, {"id": 93620457, "state": 3, "round": -4, "fullRoundText": "Losers Round 2", "completedAt": 1757267766, "winnerId": 21191909, "slots": [{"id": "93620457-0", "entrant": {"id": 21191909, "name": "DATA | Dirty Llama", "participants": [{"id": 19489558, "gamerTag": "Dirty Llama", "prefix": "DATA", "user": {"location": {"city": "Atlanta", "state": "GA", "country": "United States"}}, "player": {"id": 157755, "gamerTag": "Dirty Llama", "prefix": "DATA", "user": {"location": {"city": "Atlanta", "state": "GA", "country": "United States"}}}}]}, "standing": {"placement": 1, "stats": {"score": {"value": 2}}}}, {"id": "93620457-1", "entrant": {"id": 21161293, "name": "Nave", "participants": [{"id": 19463205, "gamerTag": "Nave", "prefix": "", "user": {"location": {"city": null, "state": null, "country": "United States"}}, "player": {"id": 4956370, "gamerTag": "Nave", "prefix": "", "user": {"location": {"city": null, "state": null, "country": "United States"}}}}]}, "standing": {"placement": 2, "stats": {"score": {"value": 0}}}}], "games": null}, {"id": 93620458, "state": 3, "round": -4, "fullRoundText": "Losers Round 2", "completedAt": 1757268064, "winnerId": 21090482, "slots": [{"id": "93620458-0", "entrant": {"id": 21090482, "name": "ATLRiot", "participants": [{"id": 19399903, "gamerTag": "ATLRiot", "prefix": null, "user": {"location": {"city": "Augusta", "state": "GA", "country": "United States"}}, "player": {"id": 2057913, "gamerTag": "ATLRiot", "prefix": "", "user": {"location": {"city": "Augusta", "state": "GA", "country": "United States"}}}}]}, "standing": {"placement": 1, "stats": {"score": {"value": 2}}}}, {"id": "93620458-1", "entrant": {"id": 21141057, "name": "Yamcha157", "participants": [{"id": 19445623, "gamerTag": "Yamcha157", "prefix": null, "user": {"location": {"city": null, "state": null, "country": null}}, "player": {"id": 3440866, "gamerTag": "Yamcha157", "prefix": null, "user": {"location": {"city": null, "state": null, "country": null}}}}]}, "standing": {"placement": 2, "stats": {"score": {"value": 1}}}}], "games": null}, {"id": 93620452, "state": 3, "round": -3, "fullRoundText": "Losers Round 1", "completedAt": 1757267061, "winnerId": 21183347, "slots": [{"id": "93620452-0", "entrant": {"id": 21183347, "name": "CV | NiNE", "participants": [{"id": 19482454, "gamerTag": "NiNE", "prefix": "CV", "user": {"location": {"city": "Augusta", "state": "GA", "country": "United States"}}, "player": {"id": 25337, "gamerTag": "NiNE", "prefix": "CV", "user": {"location": {"city": "Augusta", "state": "GA", "country": "United States"}}}}]}, "standing": {"placement": 1, "stats": {"score": {"value": 2}}}}, {"id": "93620452-1", "entrant": {"id": 21154079, "name": "RKG | Mr.Otter", "participants": [{"id": 19456864, "gamerTag": "Mr.Otter", "prefix": "RKG", "user": {"location": {"city": "Anderson", "state": "SC", "country": "United States"}}, "player": {"id": 2819418, "gamerTag": "Mr.Otter", "prefix": "RKG", "user": {"location": {"city": "Anderson", "state": "SC", "country": "United States"}}}}]}, "standing": {"placement": 2, "stats": {"score": {"value": 1}}}}], "games": null}, {"id": 93620453, "state": 3, "round": -3, "fullRoundText": "Losers Round 1", "completedAt": 1757267222, "winnerId": 21161293, "slots": [{"id": "93620453-0", "entrant": {"id": 21161293, "name": "Nave", "participants": [{"id": 19463205, "gamerTag": "Nave", "prefix": "", "user": {"location": {"city": null, "state": null, "country": "United States"}}, "player": {"id": 4956370, "gamerTag": "Nave", "prefix": "", "user": {"location": {"city": null, "state": null, "country": "United States"}}}}]}, "standing": {"placement": 1, "stats": {"score": {"value": 2}}}}, {"id": "93620453-1", "entrant": {"id": 21186049, "name": "SCF | Uncle Duke", "participants": [{"id": 19484706, "gamerTag": "Uncle Duke", "prefix": "SCF", "user": {"location": {"city": "Barnwell", "state": "SC", "country": "United States"}}, "player": {"id": 71346, "gamerTag": "Uncle Duke", "prefix": "SCF", "user": {"location": {"city": "Barnwell", "state": "SC", "country": "United States"}}}}]}, "standing": {"placement": 2, "stats": {"score": {"value": 0}}}}], "games": null}, {"id": 93620454, "state": 3, "round": -3, "fullRoundText": "Losers Round 1", "completedAt": 1757266871, "winnerId": 21141057, "slots": [{"id": "93620454-0", "entrant": {"id": 21161015, "name": "Greenbean", "participants": [{"id": 19462966, "gamerTag": "Greenbean", "prefix": null, "user": {"location": {"city": "Augusta", "state": "GA", "country": "United States"}}, "player": {"id": 2249747, "gamerTag": "Greenbean", "prefix": null, "user": {"location": {"city": "Augusta", "state": "GA", "country": "United States"}}}}]}, "standing": {"placement": 2, "stats": {"score": {"value": 0}}}}, {"id": "93620454-1", "entrant": {"id": 21141057, "name": "Yamcha157", "participants": [{"id": 19445623, "gamerTag": "Yamcha157", "prefix": null, "user": {"location": {"city": null, "state": null, "country": null}}, "player": {"id": 3440866, "gamerTag": "Yamcha157", "prefix": null, "user": {"location": {"city": null, "state": null, "country": null}}}}]}, "standing": {"placement": 1, "stats": {"score": {"value": 2}}}}], "games": null}, {"id": 93620419, "state": 3, "round": 1, "fullRoundText": "Winners Round 1", "completedAt": 1757266594, "winnerId": 21090482, "slots": [{"id": "93620419-0", "entrant": {"id": 21090482, "name": "ATLRiot", "participants": [{"id": 19399903, "gamerTag": "ATLRiot", "prefix": null, "user": {"location": {"city": "Augusta", "state": "GA", "country": "United States"}}, "player": {"id": 2057913, "gamerTag": "ATLRiot", "prefix": "", "user": {"location": {"city": "Augusta", "state": "GA", "country": "United States"}}}}]}, "standing": {"placement": 1, "stats": {"score": {"value": 2}}}}, {"id": "93620419-1", "entrant": {"id": 21190298, "name": "cheddarcola", "participants": [{"id": 19488143, "gamerTag": "cheddarcola", "prefix": null, "user": {"location": {"city": null, "state": null, "country": "United States"}}, "player": {"id": 4724537, "gamerTag": "cheddarcola", "prefix": null, "user": {"location": {"city": null, "state": null, "country": "United States"}}}}]}, "standing": {"placement": 2, "stats": {"score": {"value": 0}}}}], "games": null}, {"id": 93620420, "state": 3, "round": 1, "fullRoundText": "Winners Round 1", "completedAt": 1757266072, "winnerId": 21191909, "slots": [{"id": "93620420-0", "entrant": {"id": 21191909, "name": "DATA | Dirty Llama", "participants": [{"id": 19489558, "gamerTag": "Dirty Llama", "prefix": "DATA", "user": {"location": {"city": "Atlanta", "state": "GA", "country": "United States"}}, "player": {"id": 157755, "gamerTag": "Dirty Llama", "prefix": "DATA", "user": {"location": {"city": "Atlanta", "state": "GA", "country": "United States"}}}}]}, "standing": {"placement": 1, "stats": {"score": {"value": 2}}}}, {"id": "93620420-1", "entrant": {"id": 21183347, "name": "CV | NiNE", "participants": [{"id": 19482454, "gamerTag": "NiNE", "prefix": "CV", "user": {"location": {"city": "Augusta", "state": "GA", "country": "United States"}}, "player": {"id": 25337, "gamerTag": "NiNE", "prefix": "CV", "user": {"location": {"city": "Augusta", "state": "GA", "country": "United States"}}}}]}, "standing": {"placement": 2, "stats": {"score": {"value": 0}}}}], "games": null}, {"id": 93620421, "state": 3, "round": 1, "fullRoundText": "Winners Round 1", "completedAt": 1757266261, "winnerId": 21148768, "slots": [{"id": "93620421-0", "entrant": {"id": 21148768, "name": "Wide Open Wound", "participants": [{"id": 19452302, "gamerTag": "Wide Open Wound", "prefix": null, "user": {"location": {"city": "Warrenville", "state": "SC", "country": "United States"}}, "player": {"id": 2416627, "gamerTag": "Wide Open Wound", "prefix": null, "user": {"location": {"city": "Warrenville", "state": "SC", "country": "United States"}}}}]}, "standing": {"placement": 1, "stats": {"score": {"value": 2}}}}, {"id": "93620421-1", "entrant": {"id": 21154079, "name": "RKG | Mr.Otter", "participants": [{"id": 19456864, "gamerTag": "Mr.Otter", "prefix": "RKG", "user": {"location": {"city": "Anderson", "state": "SC", "country": "United States"}}, "player": {"id": 2819418, "gamerTag": "Mr.Otter", "prefix": "RKG", "user": {"location": {"city": "Anderson", "state": "SC", "country": "United States"}}}}]}, "standing": {"placement": 2, "stats": {"score": {"value": 0}}}}], "games": null}, {"id": 93620422, "state": 3, "round": 1, "fullRoundText": "Winners Round 1", "completedAt": 1757266315, "winnerId": 21185862, "slots": [{"id": "93620422-0", "entrant": {"id": 21185862, "name": "Licorice", "participants": [{"id": 19484530, "gamerTag": "Licorice", "prefix": "", "user": {"location": {"city": null, "state": "GA", "country": "United States"}}, "player": {"id": 3559388, "gamerTag": "Licorice", "prefix": "", "user": {"location": {"city": null, "state": "GA", "country": "United States"}}}}]}, "standing": {"placement": 1, "stats": {"score": {"value": 2}}}}, {"id": "93620422-1", "entrant": {"id": 21161293, "name": "Nave", "participants": [{"id": 19463205, "gamerTag": "Nave", "prefix": "", "user": {"location": {"city": null, "state": null, "country": "United States"}}, "player": {"id": 4956370, "gamerTag": "Nave", "prefix": "", "user": {"location": {"city": null, "state": null, "country": "United States"}}}}]}, "standing": {"placement": 2, "stats": {"score": {"value": 0}}}}], "games": null}, {"id": 93620423, "state": 3, "round": 1, "fullRoundText": "Winners Round 1", "completedAt": 1757266458, "winnerId": 21194549, "slots": [{"id": "93620423-0", "entrant": {"id": 21186049, "name": "SCF | Uncle Duke", "participants": [{"id": 19484706, "gamerTag": "Uncle Duke", "prefix": "SCF", "user": {"location": {"city": "Barnwell", "state": "SC", "country": "United States"}}, "player": {"id": 71346, "gamerTag": "Uncle Duke", "prefix": "SCF", "user": {"location": {"city": "Barnwell", "state": "SC", "country": "United States"}}}}]}, "standing": {"placement": 2, "stats": {"score": {"value": 1}}}}, {"id": "93620423-1", "entrant": {"id": 21194549, "name": "Gohan Blanco", "participants": [{"id": 19492045, "gamerTag": "Gohan Blanco", "prefix": null, "user": {"location": {"city": null, "state": null, "country": "United States"}}, "player": {"id": 2413038, "gamerTag": "Gohan Blanco", "prefix": null, "user": {"location": {"city": null, "state": null, "country": "United States"}}}}]}, "standing": {"placement": 1, "stats": {"score": {"value": 2}}}}], "games": null}, {"id": 93620424, "state": 3, "round": 1, "fullRoundText": "Winners Round 1", "completedAt": 1757266231, "winnerId": 21152908, "slots": [{"id": "93620424-0", "entrant": {"id": 21152908, "name": "DELETERIOUS", "participants": [{"id": 19455940, "gamerTag": "DELETERIOUS", "prefix": "", "user": {"location": {"city": "Fort Gordon", "state": "GA", "country": "United States"}}, "player": {"id": 3292722, "gamerTag": "DELETERIOUS", "prefix": "", "user": {"location": {"city": "Fort Gordon", "state": "GA", "country": "United States"}}}}]}, "standing": {"placement": 1, "stats": {"score": {"value": 2}}}}, {"id": "93620424-1", "entrant": {"id": 21161015, "name": "Greenbean", "participants": [{"id": 19462966, "gamerTag": "Greenbean", "prefix": null, "user": {"location": {"city": "Augusta", "state": "GA", "country": "United States"}}, "player": {"id": 2249747, "gamerTag": "Greenbean", "prefix": null, "user": {"location": {"city": "Augusta", "state": "GA", "country": "United States"}}}}]}, "standing": {"placement": 2, "stats": {"score": {"value": 0}}}}], "games": null}, {"id": 93620425, "state": 3, "round": 1, "fullRoundText": "Winners Round 1", "completedAt": 1757266284, "winnerId": 21077172, "slots": [{"id": "93620425-0", "entrant": {"id": 21077172, "name": "Gorduri Cap", "participants": [{"id": 19387925, "gamerTag": "Gorduri Cap", "prefix": "", "user": {"location": {"city": "", "state": "AK", "country": "United States"}}, "player": {"id": 2068683, "gamerTag": "Spauldo", "prefix": "", "user": {"location": {"city": "", "state": "AK", "country": "United States"}}}}]}, "standing": {"placement": 1, "stats": {"score": {"value": 2}}}}, {"id": "93620425-1", "entrant": {"id": 21141057, "name": "Yamcha157", "participants": [{"id": 19445623, "gamerTag": "Yamcha157", "prefix": null, "user": {"location": {"city": null, "state": null, "country": null}}, "player": {"id": 3440866, "gamerTag": "Yamcha157", "prefix": null, "user": {"location": {"city": null, "state": null, "country": null}}}}]}, "standing": {"placement": 2, "stats": {"score": {"value": 1}}}}], "games": null}]}}}