{"event": {"sets": {"pageInfo": {"totalPages": 2, "total": 21}, "nodes": [{"id": 94727849, "state": 3, "round": 2, "fullRoundText": "Round 2", "completedAt": 1759710955, "winnerId": 21420924, "slots": [{"id": "94727849-0", "entrant": {"id": 21420924, "name": "Kemono", "participants": [{"id": 19688975, "gamerTag": "Kemono", "prefix": "", "user": {"location": {"city": null, "state": null, "country": null}}, "player": {"id": 1700140, "gamerTag": "Kemono", "prefix": "", "user": {"location": {"city": null, "state": null, "country": null}}}}]}, "standing": {"placement": 1, "stats": {"score": {"value": 2}}}}, {"id": "94727849-1", "entrant": {"id": 21473894, "name": "Noobyoulus", "participants": [{"id": 19734092, "gamerTag": "Noobyoulus", "prefix": "", "user": {"location": {"city": null, "state": "SC", "country": "United States"}}, "player": {"id": 4134317, "gamerTag": "Noobyoulus", "prefix": "", "user": {"location": {"city": null, "state": "SC", "country": "United States"}}}}]}, "standing": {"placement": 2, "stats": {"score": {"value": 0}}}}], "games": null}, {"id": 94727850, "state": 3, "round": 2, "fullRoundText": "Round 2", "completedAt": 1759713615, "winnerId": 21471829, "slots": [{"id": "94727850-0", "entrant": {"id": 21421145, "name": "Kirbyfan", "participants": [{"id": 19689154, "gamerTag": "Kirbyfan", "prefix": null, "user": {"location": {"city": "Savannah", "state": "GA", "country": "United States"}}, "player": {"id": 2195459, "gamerTag": "Kirbyfan", "prefix": null, "user": {"location": {"city": "Savannah", "state": "GA", "country": "United States"}}}}]}, "standing": {"placement": 2, "stats": {"score": {"value": 0}}}}, {"id": "94727850-1", "entrant": {"id": 21471829, "name": "an ewok", "participants": [{"id": 19732275, "gamerTag": "an ewok", "prefix": "", "user": {"location": {"city": "Granite Bay", "state": "CA", "country": "United States"}}, "player": {"id": 40417, "gamerTag": "an ewok", "prefix": "", "user": {"location": {"city": "Granite Bay", "state": "CA", "country": "United States"}}}}]}, "standing": {"placement": 1, "stats": {"score": {"value": 2}}}}], "games": null}, {"id": 94727851, "state": 3, "round": 2, "fullRoundText": "Round 2", "completedAt": 1759707261, "winnerId": 21420848, "slots": [{"id": "94727851-0", "entrant": {"id": 21420985, "name": "Yusei", "participants": [{"id": 19689021, "gamerTag": "Yusei", "prefix": "", "user": {"location": {"city": "Fort Stewart", "state": "GA", "country": "United States"}}, "player": {"id": 7817, "gamerTag": "Yusei", "prefix": "", "user": {"location": {"city": "Fort Stewart", "state": "GA", "country": "United States"}}}}]}, "standing": {"placement": 2, "stats": {"score": {"value": 0}}}}, {"id": "94727851-1", "entrant": {"id": 21420848, "name": "Bumble", "participants": [{"id": 19688923, "gamerTag": "Bumble", "prefix": "", "user": {"location": {"city": "Savannah", "state": "GA", "country": "United States"}}, "player": {"id": 1169889, "gamerTag": "Bumble", "prefix": "", "user": {"location": {"city": "Savannah", "state": "GA", "country": "United States"}}}}]}, "standing": {"placement": 1, "stats": {"score": {"value": 2}}}}], "games": null}, {"id": 94727846, "state": 3, "round": 1, "fullRoundText": "Round 1", "completedAt": 1759710551, "winnerId": 21421145, "slots": [{"id": "94727846-0", "entrant": {"id": 21421145, "name": "Kirbyfan", "participants": [{"id": 19689154, "gamerTag": "Kirbyfan", "prefix": null, "user": {"location": {"city": "Savannah", "state": "GA", "country": "United States"}}, "player": {"id": 2195459, "gamerTag": "Kirbyfan", "prefix": null, "user": {"location": {"city": "Savannah", "state": "GA", "country": "United States"}}}}]}, "standing": {"placement": 1, "stats": {"score": {"value": 2}}}}, {"id": "94727846-1", "entrant": {"id": 21473894, "name": "Noobyoulus", "participants": [{"id": 19734092, "gamerTag": "Noobyoulus", "prefix": "", "user": {"location": {"city": null, "state": "SC", "country": "United States"}}, "player": {"id": 4134317, "gamerTag": "Noobyoulus", "prefix": "", "user": {"location": {"city": null, "state": "SC", "country": "United States"}}}}]}, "standing": {"placement": 2, "stats": {"score": {"value": 1}}}}], "games": null}, {"id": 94727847, "state": 3, "round": 1, "fullRoundText": "Round 1", "completedAt": 1759711374, "winnerId": 21420985, "slots": [{"id": "94727847-0", "entrant": {"id": 21420985, "name": "Yusei", "participants": [{"id": 19689021, "gamerTag": "Yusei", "prefix": "", "user": {"location": {"city": "Fort Stewart", "state": "GA", "country": "United States"}}, "player": {"id": 7817, "gamerTag": "Yusei", "prefix": "", "user": {"location": {"city": "Fort Stewart", "state": "GA", "country": "United States"}}}}]}, "standing": {"placement": 1, "stats": {"score": {"value": 2}}}}, {"id": "94727847-1", "entrant": {"id": 21473766, "name": "G0053 | Fire_eyes", "participants": [{"id": 19733972, "gamerTag": "Fire_eyes", "prefix": "G0053", "user": {"location": {"city": null, "state": "GA", "country": "United States"}}, "player": {"id": 5007155, "gamerTag": "Fire_eyes", "prefix": "G0053", "user": {"location": {"city": null, "state": "GA", "country": "United States"}}}}]}, "standing": {"placement": 2, "stats": {"score": {"value": 0}}}}], "games": null}, {"id": 94727848, "state": 3, "round": 1, "fullRoundText": "Round 1", "completedAt": 1759710604, "winnerId": 21471829, "slots": [{"id": "94727848-0", "entrant": {"id": 21420848, "name": "Bumble", "participants": [{"id": 19688923, "gamerTag": "Bumble", "prefix": "", "user": {"location": {"city": "Savannah", "state": "GA", "country": "United States"}}, "player": {"id": 1169889, "gamerTag": "Bumble", "prefix": "", "user": {"location": {"city": "Savannah", "state": "GA", "country": "United States"}}}}]}, "standing": {"placement": 2, "stats": {"score": {"value": 0}}}}, {"id": "94727848-1", "entrant": {"id": 21471829, "name": "an ewok", "participants": [{"id": 19732275, "gamerTag": "an ewok", "prefix": "", "user": {"location": {"city": "Granite Bay", "state": "CA", "country": "United States"}}, "player": {"id": 40417, "gamerTag": "an ewok", "prefix": "", "user": {"location": {"city": "Granite Bay", "state": "CA", "country": "United States"}}}}]}, "standing": {"placement": 1, "stats": {"score": {"value": 2}}}}], "games": null}]}}}