{"phase": {"seeds": {"pageInfo": {"totalPages": 1, "total": 7}, "nodes": [{"id": 36715468, "seedNum": 1, "entrant": {"id": 21334716, "name": "Licorice", "participants": [{"id": 19612591, "gamerTag": "Licorice", "prefix": "", "user": {"location": {"city": null, "state": "GA", "country": "United States"}}, "player": {"id": 3559388, "gamerTag": "Licorice", "prefix": "", "user": {"location": {"city": null, "state": "GA", "country": "United States"}}}}]}}, {"id": 36719162, "seedNum": 2, "entrant": {"id": 21337068, "name": "HAND$OME", "participants": [{"id": 19614681, "gamerTag": "HAND$OME", "prefix": null, "user": {"location": {"city": null, "state": "GA", "country": "United States"}}, "player": {"id": 813037, "gamerTag": "HAND$OME", "prefix": null, "user": {"location": {"city": null, "state": "GA", "country": "United States"}}}}]}}, {"id": 36547026, "seedNum": 3, "entrant": {"id": 21217606, "name": "ATLRiot", "participants": [{"id": 19512632, "gamerTag": "ATLRiot", "prefix": "", "user": {"location": {"city": "Augusta", "state": "GA", "country": "United States"}}, "player": {"id": 2057913, "gamerTag": "ATLRiot", "prefix": "", "user": {"location": {"city": "Augusta", "state": "GA", "country": "United States"}}}}]}}, {"id": 36658197, "seedNum": 6, "entrant": {"id": 21296791, "name": "Dr Roach", "participants": [{"id": 19579556, "gamerTag": "Dr Roach", "prefix": null, "user": {"location": {"city": "Hepzibah", "state": "GA", "country": "United States"}}, "player": {"id": 4677857, "gamerTag": "Dr Roach", "prefix": null, "user": {"location": {"city": "Hepzibah", "state": "GA", "country": "United States"}}}}]}}, {"id": 36614474, "seedNum": 4, "entrant": {"id": 21265599, "name": "Yamcha157", "participants": [{"id": 19554252, "gamerTag": "Yamcha157", "prefix": null, "user": {"location": {"city": null, "state": null, "country": null}}, "player": {"id": 3440866, "gamerTag": "Yamcha157", "prefix": null, "user": {"location": {"city": null, "state": null, "country": null}}}}]}}, {"id": 36719881, "seedNum": 5, "entrant": {"id": 21337675, "name": "CV | NiNE", "participants": [{"id": 19615235, "gamerTag": "NiNE", "prefix": "CV", "user": {"location": {"city": "Augusta", "state": "GA", "country": "United States"}}, "player": {"id": 25337, "gamerTag": "NiNE", "prefix": "CV", "user": {"location": {"city": "Augusta", "state": "GA", "country": "United States"}}}}]}}, {"id": 36648218, "seedNum": 7, "entrant": {"id": 21290344, "name": "Greenbean", "participants": [{"id": 19573931, "gamerTag": "Greenbean", "prefix": null, "user": {"location": {"city": "Augusta", "state": "GA", "country": "United States"}}, "player": {"id": 2249747, "gamerTag": "Greenbean", "prefix": null, "user": {"location": {"city": "Augusta", "state": "GA", "country": "United States"}}}}]}}]}}}