{"phase": {"seeds": {"pageInfo": {"totalPages": 1, "total": 5}, "nodes": [{"id": 36356664, "seedNum": 3, "entrant": {"id": 21091259, "name": "Boo", "participants": [{"id": 19400603, "gamerTag": "Boo", "prefix": "", "user": {"location": {"city": "Cumming", "state": "GA", "country": "United States"}}, "player": {"id": 2647915, "gamerTag": "Boo", "prefix": "", "user": {"location": {"city": "Cumming", "state": "GA", "country": "United States"}}}}]}}, {"id": 36357606, "seedNum": 4, "entrant": {"id": 21092183, "name": "promamamia", "participants": [{"id": 19401435, "gamerTag": "promamamia", "prefix": "", "user": {"location": {"city": "Alpharetta", "state": "GA", "country": "United States"}}, "player": {"id": 3548468, "gamerTag": "promamamia", "prefix": "", "user": {"location": {"city": "Alpharetta", "state": "GA", "country": "United States"}}}}]}}, {"id": 36358946, "seedNum": 1, "entrant": {"id": 21093250, "name": "GUMP2 | JankTrees!", "participants": [{"id": 19400634, "gamerTag": "JankTrees!", "prefix": "GUMP2", "user": {"location": {"city": "Cartersville", "state": "GA", "country": "United States"}}, "player": {"id": 35695, "gamerTag": "JankTrees!", "prefix": "GUMP2", "user": {"location": {"city": "Cartersville", "state": "GA", "country": "United States"}}}}]}}, {"id": 36359203, "seedNum": 2, "entrant": {"id": 21093456, "name": "Barbashop", "participants": [{"id": 19402230, "gamerTag": "Barbashop", "prefix": "", "user": {"location": {"city": null, "state": null, "country": null}}, "player": {"id": 2537853, "gamerTag": "Barbashop", "prefix": "", "user": {"location": {"city": null, "state": null, "country": null}}}}]}}, {"id": 36359187, "seedNum": 5, "entrant": {"id": 21093439, "name": "Zarek", "participants": [{"id": 19402585, "gamerTag": "Zarek", "prefix": "", "user": {"location": {"city": "Atlanta", "state": "GA", "country": "United States"}}, "player": {"id": 405682, "gamerTag": "Zarek", "prefix": "", "user": {"location": {"city": "Atlanta", "state": "GA", "country": "United States"}}}}]}}]}}}