{"phase": {"seeds": {"pageInfo": {"totalPages": 1, "total": 35}, "nodes": [{"id": 36964312, "seedNum": 1, "entrant": {"id": 21510452, "name": "DTN | Jahzz0", "participants": [{"id": 19766841, "gamerTag": "Jahzz0", "prefix": "DTN", "user": {"location": {"city": null, "state": null, "country": "United States"}}, "player": {"id": 946548, "gamerTag": "Jahzz0", "prefix": "DTN", "user": {"location": {"city": null, "state": null, "country": "United States"}}}}]}}, {"id": 36956116, "seedNum": 2, "entrant": {"id": 21504037, "name": "Hell Mode | ROB Slayer", "participants": [{"id": 19761004, "gamerTag": "ROB Slayer", "prefix": "Hell Mode", "user": {"location": {"city": "Atlanta", "state": "GA", "country": "United States"}}, "player": {"id": 2414381, "gamerTag": "ROB Slayer", "prefix": "Hell Mode", "user": {"location": {"city": "Atlanta", "state": "GA", "country": "United States"}}}}]}}, {"id": 36964836, "seedNum": 5, "entrant": {"id": 21510831, "name": "KumaDusk", "participants": [{"id": 19767167, "gamerTag": "KumaDusk", "prefix": "", "user": {"location": {"city": "Lawrenceville", "state": "GA", "country": "United States"}}, "player": {"id": 253909, "gamerTag": "KumaDusk", "prefix": "", "user": {"location": {"city": "Lawrenceville", "state": "GA", "country": "United States"}}}}]}}, {"id": 36964576, "seedNum": 3, "entrant": {"id": 21510624, "name": "Tobe", "participants": [{"id": 19756989, "gamerTag": "Tobe", "prefix": "", "user": {"location": {"city": "Buford", "state": "GA", "country": "United States"}}, "player": {"id": 1646132, "gamerTag": "Tobe", "prefix": "", "user": {"location": {"city": "Buford", "state": "GA", "country": "United States"}}}}]}}, {"id": 36944833, "seedNum": 4, "entrant": {"id": 21494989, "name": "everyone else", "participants": [{"id": 19753001, "gamerTag": "everyone else", "prefix": "", "user": {"location": {"city": "Alpharetta", "state": "GA", "country": "United States"}}, "player": {"id": 1253838, "gamerTag": "everyone else", "prefix": "", "user": {"location": {"city": "Alpharetta", "state": "GA", "country": "United States"}}}}]}}, {"id": 36962155, "seedNum": 21, "entrant": {"id": 21508769, "name": "promamamia", "participants": [{"id": 19765305, "gamerTag": "promamamia", "prefix": "", "user": {"location": {"city": "Alpharetta", "state": "GA", "country": "United States"}}, "player": {"id": 3548468, "gamerTag": "promamamia", "prefix": "", "user": {"location": {"city": "Alpharetta", "state": "GA", "country": "United States"}}}}]}}, {"id": 36957608, "seedNum": 7, "entrant": {"id": 21505179, "name": "DBQ | SoloJones", "participants": [{"id": 19762046, "gamerTag": "SoloJones", "prefix": "DBQ", "user": {"location": {"city": "Greenville", "state": "SC", "country": "United States"}}, "player": {"id": 1183062, "gamerTag": "SoloJones", "prefix": "DBQ", "user": {"location": {"city": "Greenville", "state": "SC", "country": "United States"}}}}]}}, {"id": 36963054, "seedNum": 8, "entrant": {"id": 21509533, "name": "GUMP2 | JankTrees!", "participants": [{"id": 19766008, "gamerTag": "JankTrees!", "prefix": "GUMP2", "user": {"location": {"city": "Cartersville", "state": "GA", "country": "United States"}}, "player": {"id": 35695, "gamerTag": "JankTrees!", "prefix": "GUMP2", "user": {"location": {"city": "Cartersville", "state": "GA", "country": "United States"}}}}]}}, {"id": 36961150, "seedNum": 6, "entrant": {"id": 21507869, "name": "GUMP2 | ToxiC", "participants": [{"id": 19764439, "gamerTag": "ToxiC", "prefix": "GUMP2", "user": {"location": {"city": "Marietta", "state": "GA", "country": "United States"}}, "player": {"id": 2585804, "gamerTag": "ToxiC", "prefix": "GUMP2", "user": {"location": {"city": "Marietta", "state": "GA", "country": "United States"}}}}]}}, {"id": 36964906, "seedNum": 9, "entrant": {"id": 21510896, "name": "KUMA| | Steamedklams", "participants": [{"id": 19767217, "gamerTag": "Steamedklams", "prefix": "KUMA|", "user": {"location": {"city": null, "state": null, "country": "United States"}}, "player": {"id": 997285, "gamerTag": "Steamedklams", "prefix": "KUMA|", "user": {"location": {"city": null, "state": null, "country": "United States"}}}}]}}, {"id": 36964257, "seedNum": 10, "entrant": {"id": 21510396, "name": "CFL | Benji", "participants": [{"id": 19766788, "gamerTag": "Benji", "prefix": "CFL", "user": {"location": {"city": "Orlando", "state": "FL", "country": "United States"}}, "player": {"id": 2990255, "gamerTag": "Benji", "prefix": "CFL", "user": {"location": {"city": "Orlando", "state": "FL", "country": "United States"}}}}]}}, {"id": 36963158, "seedNum": 12, "entrant": {"id": 21509615, "name": "pristinetao", "participants": [{"id": 19766076, "gamerTag": "pristinetao", "prefix": "", "user": {"location": {"city": null, "state": null, "country": null}}, "player": {"id": 2721225, "gamerTag": "pristinetao", "prefix": "", "user": {"location": {"city": null, "state": null, "country": null}}}}]}}, {"id": 36964594, "seedNum": 13, "entrant": {"id": 21510634, "name": "Plaid", "participants": [{"id": 19766998, "gamerTag": "Plaid", "prefix": "", "user": {"location": {"city": null, "state": null, "country": null}}, "player": {"id": 1452882, "gamerTag": "Plaid", "prefix": "", "user": {"location": {"city": null, "state": null, "country": null}}}}]}}, {"id": 36961342, "seedNum": 14, "entrant": {"id": 21508021, "name": "red dot", "participants": [{"id": 19764577, "gamerTag": "red dot", "prefix": "", "user": {"location": {"city": "Milton", "state": "GA", "country": "United States"}}, "player": {"id": 1812177, "gamerTag": "red dot", "prefix": "", "user": {"location": {"city": "Milton", "state": "GA", "country": "United States"}}}}]}}, {"id": 36964570, "seedNum": 15, "entrant": {"id": 21510619, "name": "Kid Kaioken", "participants": [{"id": 19766987, "gamerTag": "Kid Kaioken", "prefix": "", "user": {"location": {"city": "Norcross", "state": "GA", "country": "United States"}}, "player": {"id": 2730912, "gamerTag": "Kid Kaioken", "prefix": "", "user": {"location": {"city": "Norcross", "state": "GA", "country": "United States"}}}}]}}, {"id": 36961797, "seedNum": 16, "entrant": {"id": 21508415, "name": "Rain~", "participants": [{"id": 19764941, "gamerTag": "Rain~", "prefix": null, "user": {"location": {"city": "Atlanta", "state": "GA", "country": "United States"}}, "player": {"id": 4240164, "gamerTag": "Rain~", "prefix": null, "user": {"location": {"city": "Atlanta", "state": "GA", "country": "United States"}}}}]}}, {"id": 36965006, "seedNum": 19, "entrant": {"id": 21510971, "name": "Drippy", "participants": [{"id": 19767272, "gamerTag": "Drippy", "prefix": "", "user": {"location": {"city": "Snellville", "state": "GA", "country": "United States"}}, "player": {"id": 2233732, "gamerTag": "Drippy", "prefix": "", "user": {"location": {"city": "Snellville", "state": "GA", "country": "United States"}}}}]}}, {"id": 36957565, "seedNum": 20, "entrant": {"id": 21505142, "name": "KSU|UTO|BLZE | Whaley", "participants": [{"id": 19761992, "gamerTag": "Whaley", "prefix": "KSU|UTO|BLZE", "user": {"location": {"city": "Stone Mountain", "state": "GA", "country": "United States"}}, "player": {"id": 2016149, "gamerTag": "Whaley", "prefix": "KSU|UTO|BLZE", "user": {"location": {"city": "Stone Mountain", "state": "GA", "country": "United States"}}}}]}}, {"id": 36962743, "seedNum": 22, "entrant": {"id": 21509262, "name": "RM | Prince Peach", "participants": [{"id": 19765792, "gamerTag": "Prince Peach", "prefix": "RM", "user": {"location": {"city": "Stone Mountain", "state": "GA", "country": "United States"}}, "player": {"id": 3003562, "gamerTag": "Prince Peach", "prefix": "RM", "user": {"location": {"city": "Stone Mountain", "state": "GA", "country": "United States"}}}}]}}, {"id": 36958713, "seedNum": 24, "entrant": {"id": 21505883, "name": "KSU | colorful\u029a\u025e", "participants": [{"id": 19762625, "gamerTag": "colorful\u029a\u025e", "prefix": "KSU", "user": {"location": {"city": "Kennesaw", "state": "GA", "country": "United States"}}, "player": {"id": 1783074, "gamerTag": "colorful\u029a\u025e", "prefix": "KSU | RM", "user": {"location": {"city": "Kennesaw", "state": "GA", "country": "United States"}}}}]}}, {"id": 36960624, "seedNum": 26, "entrant": {"id": 21507374, "name": "Nyramyss", "participants": [{"id": 19764010, "gamerTag": "Nyramyss", "prefix": "", "user": {"location": {"city": "Acworth", "state": "GA", "country": "United States"}}, "player": {"id": 2648735, "gamerTag": "Nyramyss", "prefix": "", "user": {"location": {"city": "Acworth", "state": "GA", "country": "United States"}}}}]}}, {"id": 36964861, "seedNum": 27, "entrant": {"id": 21510851, "name": "SaggyMilkJug", "participants": [{"id": 19767184, "gamerTag": "SaggyMilkJug", "prefix": "", "user": {"location": {"city": "Atlanta", "state": "GA", "country": "United States"}}, "player": {"id": 4651404, "gamerTag": "SaggyMilkJug", "prefix": "", "user": {"location": {"city": "Atlanta", "state": "GA", "country": "United States"}}}}]}}, {"id": 36958945, "seedNum": 31, "entrant": {"id": 21506100, "name": "jack | jazzman", "participants": [{"id": 19762830, "gamerTag": "jazzman", "prefix": "jack", "user": {"location": {"city": "Athens", "state": "GA", "country": "United States"}}, "player": {"id": 3883272, "gamerTag": "jazzman", "prefix": "jack", "user": {"location": {"city": "Athens", "state": "GA", "country": "United States"}}}}]}}, {"id": 36964819, "seedNum": 33, "entrant": {"id": 21510815, "name": "D.King79", "participants": [{"id": 19767151, "gamerTag": "D.King79", "prefix": null, "user": {"location": {"city": "Mt. Olympus", "state": "GA", "country": "United States"}}, "player": {"id": 534660, "gamerTag": "D.King79", "prefix": null, "user": {"location": {"city": "Mt. Olympus", "state": "GA", "country": "United States"}}}}]}}, {"id": 36963545, "seedNum": 11, "entrant": {"id": 21509913, "name": "LX3", "participants": [{"id": 19766344, "gamerTag": "LX3", "prefix": "", "user": {"location": {"city": "", "state": "MA", "country": "United States"}}, "player": {"id": 1098164, "gamerTag": "LX3", "prefix": "", "user": {"location": {"city": "", "state": "MA", "country": "United States"}}}}]}}, {"id": 36960841, "seedNum": 17, "entrant": {"id": 21507586, "name": "Heart", "participants": [{"id": 19764189, "gamerTag": "Heart", "prefix": "", "user": {"location": {"city": "Atlanta", "state": "GA", "country": "United States"}}, "player": {"id": 4287822, "gamerTag": "Heart", "prefix": "", "user": {"location": {"city": "Atlanta", "state": "GA", "country": "United States"}}}}]}}, {"id": 36945624, "seedNum": 18, "entrant": {"id": 21495448, "name": "BSB | kass", "participants": [{"id": 19753417, "gamerTag": "kass", "prefix": "BSB", "user": {"location": {"city": "Boston", "state": "MA", "country": "United States"}}, "player": {"id": 336543, "gamerTag": "kass", "prefix": "BSB", "user": {"location": {"city": "Boston", "state": "MA", "country": "United States"}}}}]}}, {"id": 36963274, "seedNum": 23, "entrant": {"id": 21509696, "name": "KSU | Subzero", "participants": [{"id": 19766149, "gamerTag": "Subzero", "prefix": "KSU", "user": {"location": {"city": "Acworth", "state": "GA", "country": "United States"}}, "player": {"id": 1808159, "gamerTag": "Subzero", "prefix": "KSU", "user": {"location": {"city": "Acworth", "state": "GA", "country": "United States"}}}}]}}, {"id": 36961115, "seedNum": 25, "entrant": {"id": 21507785, "name": "BlaZR", "participants": [{"id": 19764362, "gamerTag": "BlaZR", "prefix": "", "user": {"location": {"city": "ur mum", "state": null, "country": "United States"}}, "player": {"id": 1804122, "gamerTag": "BlaZR", "prefix": "", "user": {"location": {"city": "ur mum", "state": null, "country": "United States"}}}}]}}, {"id": 36964258, "seedNum": 28, "entrant": {"id": 21510397, "name": "Yehtu", "participants": [{"id": 19766789, "gamerTag": "Yehtu", "prefix": null, "user": {"location": {"city": null, "state": null, "country": null}}, "player": {"id": 2230310, "gamerTag": "Yehtu", "prefix": null, "user": {"location": {"city": null, "state": null, "country": null}}}}]}}, {"id": 36964320, "seedNum": 29, "entrant": {"id": 21510458, "name": "4o4 | Sh33rZ", "participants": [{"id": 19766846, "gamerTag": "Sh33rZ", "prefix": "4o4", "user": {"location": {"city": "alpharetta", "state": "GA", "country": "United States"}}, "player": {"id": 3640465, "gamerTag": "Sh33rZ", "prefix": "4o4", "user": {"location": {"city": "alpharetta", "state": "GA", "country": "United States"}}}}]}}, {"id": 36964681, "seedNum": 30, "entrant": {"id": 21510718, "name": "SamRice", "participants": [{"id": 19767073, "gamerTag": "SamRice", "prefix": "", "user": {"location": {"city": "Norcross", "state": "GA", "country": "United States"}}, "player": {"id": 2387403, "gamerTag": "SamRice", "prefix": "", "user": {"location": {"city": "Norcross", "state": "GA", "country": "United States"}}}}]}}, {"id": 36964630, "seedNum": 32, "entrant": {"id": 21510670, "name": "Tilted", "participants": [{"id": 19767029, "gamerTag": "Tilted", "prefix": null, "user": {"location": {"city": "Norcross", "state": "GA", "country": "United States"}}, "player": {"id": 2377635, "gamerTag": "Tilted", "prefix": null, "user": {"location": {"city": "Norcross", "state": "GA", "country": "United States"}}}}]}}, {"id": 36962084, "seedNum": 34, "entrant": {"id": 21508697, "name": "AP | EdiblePine", "participants": [{"id": 19765237, "gamerTag": "EdiblePine", "prefix": "AP", "user": {"location": {"city": "Atlanta", "state": "GA", "country": "United States"}}, "player": {"id": 1648278, "gamerTag": "EdiblePine", "prefix": "AP", "user": {"location": {"city": "Atlanta", "state": "GA", "country": "United States"}}}}]}}, {"id": 36950107, "seedNum": 35, "entrant": {"id": 21499191, "name": "KingKirb", "participants": [{"id": 19756783, "gamerTag": "KingKirb", "prefix": "", "user": {"location": {"city": "Adairsville", "state": "GA", "country": "United States"}}, "player": {"id": 4038816, "gamerTag": "KingKirb", "prefix": "", "user": {"location": {"city": "Adairsville", "state": "GA", "country": "United States"}}}}]}}]}}}