{"event": {"sets": {"pageInfo": {"totalPages": 2, "total": 20}, "nodes": [{"id": 94800368, "state": 3, "round": 5, "fullRoundText": "Grand Final", "completedAt": 1759984576, "winnerId": 21498393, "slots": [{"id": "94800368-0", "entrant": {"id": 21498393, "name": "KumaDusk", "participants": [{"id": 19756088, "gamerTag": "KumaDusk", "prefix": "", "user": {"location": {"city": "Lawrenceville", "state": "GA", "country": "United States"}}, "player": {"id": 253909, "gamerTag": "KumaDusk", "prefix": "", "user": {"location": {"city": "Lawrenceville", "state": "GA", "country": "United States"}}}}]}, "standing": {"placement": 1, "stats": {"score": {"value": 3}}}}, {"id": "94800368-1", "entrant": {"id": 21500902, "name": "Kid Kaioken", "participants": [{"id": 19758363, "gamerTag": "Kid Kaioken", "prefix": "", "user": {"location": {"city": "Norcross", "state": "GA", "country": "United States"}}, "player": {"id": 2730912, "gamerTag": "Kid Kaioken", "prefix": "", "user": {"location": {"city": "Norcross", "state": "GA", "country": "United States"}}}}]}, "standing": {"placement": 2, "stats": {"score": {"value": 0}}}}], "games": null}, {"id": 94800367, "state": 3, "round": 4, "fullRoundText": "Winners Final", "completedAt": 1759970883, "winnerId": 21498393, "slots": [{"id": "94800367-0", "entrant": {"id": 21498393, "name": "KumaDusk", "participants": [{"id": 19756088, "gamerTag": "KumaDusk", "prefix": "", "user": {"location": {"city": "Lawrenceville", "state": "GA", "country": "United States"}}, "player": {"id": 253909, "gamerTag": "KumaDusk", "prefix": "", "user": {"location": {"city": "Lawrenceville", "state": "GA", "country": "United States"}}}}]}, "standing": {"placement": 1, "stats": {"score": {"value": 3}}}}, {"id": "94800367-1", "entrant": {"id": 21500902, "name": "Kid Kaioken", "participants": [{"id": 19758363, "gamerTag": "Kid Kaioken", "prefix": "", "user": {"location": {"city": "Norcross", "state": "GA", "country": "United States"}}, "player": {"id": 2730912, "gamerTag": "Kid Kaioken", "prefix": "", "user": {"location": {"city": "Norcross", "state": "GA", "country": "United States"}}}}]}, "standing": {"placement": 2, "stats": {"score": {"value": 0}}}}], "games": null}, {"id": 94800399, "state": 3, "round": -8, "fullRoundText": "Losers Final", "completedAt": 1759973949, "winnerId": 21500902, "slots": [{"id": "94800399-0", "entrant": {"id": 21500902, "name": "Kid Kaioken", "participants": [{"id": 19758363, "gamerTag": "Kid Kaioken", "prefix": "", "user": {"location": {"city": "Norcross", "state": "GA", "country": "United States"}}, "player": {"id": 2730912, "gamerTag": "Kid Kaioken", "prefix": "", "user": {"location": {"city": "Norcross", "state": "GA", "country": "United States"}}}}]}, "standing": {"placement": 1, "stats": {"score": {"value": 3}}}}, {"id": "94800399-1", "entrant": {"id": 21490444, "name": "Rain~", "participants": [{"id": 19749066, "gamerTag": "Rain~", "prefix": null, "user": {"location": {"city": "Atlanta", "state": "GA", "country": "United States"}}, "player": {"id": 4240164, "gamerTag": "Rain~", "prefix": null, "user": {"location": {"city": "Atlanta", "state": "GA", "country": "United States"}}}}]}, "standing": {"placement": 2, "stats": {"score": {"value": 2}}}}], "games": null}, {"id": 94800398, "state": 3, "round": -7, "fullRoundText": "Losers Semi-Final", "completedAt": 1759973021, "winnerId": 21490444, "slots": [{"id": "94800398-0", "entrant": {"id": 21500113, "name": "Typical!", "participants": [{"id": 19757628, "gamerTag": "Typical!", "prefix": "", "user": {"location": {"city": "Cumming", "state": "GA", "country": "United States"}}, "player": {"id": 1227171, "gamerTag": "Typical!", "prefix": "", "user": {"location": {"city": "Cumming", "state": "GA", "country": "United States"}}}}]}, "standing": {"placement": 2, "stats": {"score": {"value": 2}}}}, {"id": "94800398-1", "entrant": {"id": 21490444, "name": "Rain~", "participants": [{"id": 19749066, "gamerTag": "Rain~", "prefix": null, "user": {"location": {"city": "Atlanta", "state": "GA", "country": "United States"}}, "player": {"id": 4240164, "gamerTag": "Rain~", "prefix": null, "user": {"location": {"city": "Atlanta", "state": "GA", "country": "United States"}}}}]}, "standing": {"placement": 1, "stats": {"score": {"value": 3}}}}], "games": null}, {"id": 94800365, "state": 3, "round": 3, "fullRoundText": "Winners Semi-Final", "completedAt": 1759969609, "winnerId": 21498393, "slots": [{"id": "94800365-0", "entrant": {"id": 21498393, "name": "KumaDusk", "participants": [{"id": 19756088, "gamerTag": "KumaDusk", "prefix": "", "user": {"location": {"city": "Lawrenceville", "state": "GA", "country": "United States"}}, "player": {"id": 253909, "gamerTag": "KumaDusk", "prefix": "", "user": {"location": {"city": "Lawrenceville", "state": "GA", "country": "United States"}}}}]}, "standing": {"placement": 1, "stats": {"score": {"value": 3}}}}, {"id": "94800365-1", "entrant": {"id": 21500113, "name": "Typical!", "participants": [{"id": 19757628, "gamerTag": "Typical!", "prefix": "", "user": {"location": {"city": "Cumming", "state": "GA", "country": "United States"}}, "player": {"id": 1227171, "gamerTag": "Typical!", "prefix": "", "user": {"location": {"city": "Cumming", "state": "GA", "country": "United States"}}}}]}, "standing": {"placement": 2, "stats": {"score": {"value": 1}}}}], "games": null}, {"id": 94800366, "state": 3, "round": 3, "fullRoundText": "Winners Semi-Final", "completedAt": 1759969842, "winnerId": 21500902, "slots": [{"id": "94800366-0", "entrant": {"id": 21490444, "name": "Rain~", "participants": [{"id": 19749066, "gamerTag": "Rain~", "prefix": null, "user": {"location": {"city": "Atlanta", "state": "GA", "country": "United States"}}, "player": {"id": 4240164, "gamerTag": "Rain~", "prefix": null, "user": {"location": {"city": "Atlanta", "state": "GA", "country": "United States"}}}}]}, "standing": {"placement": 2, "stats": {"score": {"value": 2}}}}, {"id": "94800366-1", "entrant": {"id": 21500902, "name": "Kid Kaioken", "participants": [{"id": 19758363, "gamerTag": "Kid Kaioken", "prefix": "", "user": {"location": {"city": "Norcross", "state": "GA", "country": "United States"}}, "player": {"id": 2730912, "gamerTag": "Kid Kaioken", "prefix": "", "user": {"location": {"city": "Norcross", "state": "GA", "country": "United States"}}}}]}, "standing": {"placement": 1, "stats": {"score": {"value": 3}}}}], "games": null}, {"id": 94800396, "state": 3, "round": -6, "fullRoundText": "Losers Quarter-Final", "completedAt": 1759971170, "winnerId": 21500113, "slots": [{"id": "94800396-0", "entrant": {"id": 21500113, "name": "Typical!", "participants": [{"id": 19757628, "gamerTag": "Typical!", "prefix": "", "user": {"location": {"city": "Cumming", "state": "GA", "country": "United States"}}, "player": {"id": 1227171, "gamerTag": "Typical!", "prefix": "", "user": {"location": {"city": "Cumming", "state": "GA", "country": "United States"}}}}]}, "standing": {"placement": 1, "stats": {"score": {"value": 3}}}}, {"id": "94800396-1", "entrant": {"id": 21499820, "name": "Noot", "participants": [{"id": 19757358, "gamerTag": "Noot", "prefix": "", "user": {"location": {"city": null, "state": null, "country": "United States"}}, "player": {"id": 4001469, "gamerTag": "Noot", "prefix": "", "user": {"location": {"city": null, "state": null, "country": "United States"}}}}]}, "standing": {"placement": 2, "stats": {"score": {"value": 0}}}}], "games": null}, {"id": 94800397, "state": 3, "round": -6, "fullRoundText": "Losers Quarter-Final", "completedAt": 1759971833, "winnerId": 21490444, "slots": [{"id": "94800397-0", "entrant": {"id": 21490444, "name": "Rain~", "participants": [{"id": 19749066, "gamerTag": "Rain~", "prefix": null, "user": {"location": {"city": "Atlanta", "state": "GA", "country": "United States"}}, "player": {"id": 4240164, "gamerTag": "Rain~", "prefix": null, "user": {"location": {"city": "Atlanta", "state": "GA", "country": "United States"}}}}]}, "standing": {"placement": 1, "stats": {"score": {"value": 3}}}}, {"id": "94800397-1", "entrant": {"id": 21500608, "name": "Moopisegg", "participants": [{"id": 19758105, "gamerTag": "Moopisegg", "prefix": "", "user": {"location": {"city": null, "state": null, "country": "United States"}}, "player": {"id": 4680890, "gamerTag": "Moopisegg", "prefix": "", "user": {"location": {"city": null, "state": null, "country": "United States"}}}}]}, "standing": {"placement": 2, "stats": {"score": {"value": 0}}}}], "games": null}, {"id": 94800394, "state": 3, "round": -5, "fullRoundText": "Losers Round 2", "completedAt": 1759970568, "winnerId": 21499820, "slots": [{"id": "94800394-0", "entrant": {"id": 21499820, "name": "Noot", "participants": [{"id": 19757358, "gamerTag": "Noot", "prefix": "", "user": {"location": {"city": null, "state": null, "country": "United States"}}, "player": {"id": 4001469, "gamerTag": "Noot", "prefix": "", "user": {"location": {"city": null, "state": null, "country": "United States"}}}}]}, "standing": {"placement": 1, "stats": {"score": {"value": 3}}}}, {"id": "94800394-1", "entrant": {"id": 21500631, "name": "Hq", "participants": [{"id": 19758125, "gamerTag": "Hq", "prefix": "", "user": {"location": {"city": "Suwanee", "state": "GA", "country": "United States"}}, "player": {"id": 4680916, "gamerTag": "Hq", "prefix": "", "user": {"location": {"city": "Suwanee", "state": "GA", "country": "United States"}}}}]}, "standing": {"placement": 2, "stats": {"score": {"value": 0}}}}], "games": null}, {"id": 94800395, "state": 3, "round": -5, "fullRoundText": "Losers Round 2", "completedAt": 1759971024, "winnerId": 21500608, "slots": [{"id": "94800395-0", "entrant": {"id": 21499658, "name": "AnimeSage", "participants": [{"id": 19757217, "gamerTag": "AnimeSage", "prefix": "", "user": {"location": {"city": null, "state": "GA", "country": "United States"}}, "player": {"id": 2769365, "gamerTag": "AnimeSage", "prefix": "", "user": {"location": {"city": null, "state": "GA", "country": "United States"}}}}]}, "standing": {"placement": 2, "stats": {"score": {"value": 2}}}}, {"id": "94800395-1", "entrant": {"id": 21500608, "name": "Moopisegg", "participants": [{"id": 19758105, "gamerTag": "Moopisegg", "prefix": "", "user": {"location": {"city": null, "state": null, "country": "United States"}}, "player": {"id": 4680890, "gamerTag": "Moopisegg", "prefix": "", "user": {"location": {"city": null, "state": null, "country": "United States"}}}}]}, "standing": {"placement": 1, "stats": {"score": {"value": 3}}}}], "games": null}, {"id": 94800361, "state": 3, "round": 2, "fullRoundText": "Winners Quarter-Final", "completedAt": 1759968572, "winnerId": 21498393, "slots": [{"id": "94800361-0", "entrant": {"id": 21498393, "name": "KumaDusk", "participants": [{"id": 19756088, "gamerTag": "KumaDusk", "prefix": "", "user": {"location": {"city": "Lawrenceville", "state": "GA", "country": "United States"}}, "player": {"id": 253909, "gamerTag": "KumaDusk", "prefix": "", "user": {"location": {"city": "Lawrenceville", "state": "GA", "country": "United States"}}}}]}, "standing": {"placement": 1, "stats": {"score": {"value": 3}}}}, {"id": "94800361-1", "entrant": {"id": 21500608, "name": "Moopisegg", "participants": [{"id": 19758105, "gamerTag": "Moopisegg", "prefix": "", "user": {"location": {"city": null, "state": null, "country": "United States"}}, "player": {"id": 4680890, "gamerTag": "Moopisegg", "prefix": "", "user": {"location": {"city": null, "state": null, "country": "United States"}}}}]}, "standing": {"placement": 2, "stats": {"score": {"value": 0}}}}], "games": null}, {"id": 94800362, "state": 3, "round": 2, "fullRoundText": "Winners Quarter-Final", "completedAt": 1759967479, "winnerId": 21500113, "slots": [{"id": "94800362-0", "entrant": {"id": 21500113, "name": "Typical!", "participants": [{"id": 19757628, "gamerTag": "Typical!", "prefix": "", "user": {"location": {"city": "Cumming", "state": "GA", "country": "United States"}}, "player": {"id": 1227171, "gamerTag": "Typical!", "prefix": "", "user": {"location": {"city": "Cumming", "state": "GA", "country": "United States"}}}}]}, "standing": {"placement": 1, "stats": {"score": {"value": 3}}}}, {"id": "94800362-1", "entrant": {"id": 21499658, "name": "AnimeSage", "participants": [{"id": 19757217, "gamerTag": "AnimeSage", "prefix": "", "user": {"location": {"city": null, "state": "GA", "country": "United States"}}, "player": {"id": 2769365, "gamerTag": "AnimeSage", "prefix": "", "user": {"location": {"city": null, "state": "GA", "country": "United States"}}}}]}, "standing": {"placement": 2, "stats": {"score": {"value": 0}}}}], "games": null}, {"id": 94800363, "state": 3, "round": 2, "fullRoundText": "Winners Quarter-Final", "completedAt": 1759968895, "winnerId": 21490444, "slots": [{"id": "94800363-0", "entrant": {"id": 21490444, "name": "Rain~", "participants": [{"id": 19749066, "gamerTag": "Rain~", "prefix": null, "user": {"location": {"city": "Atlanta", "state": "GA", "country": "United States"}}, "player": {"id": 4240164, "gamerTag": "Rain~", "prefix": null, "user": {"location": {"city": "Atlanta", "state": "GA", "country": "United States"}}}}]}, "standing": {"placement": 1, "stats": {"score": {"value": 3}}}}, {"id": "94800363-1", "entrant": {"id": 21500631, "name": "Hq", "participants": [{"id": 19758125, "gamerTag": "Hq", "prefix": "", "user": {"location": {"city": "Suwanee", "state": "GA", "country": "United States"}}, "player": {"id": 4680916, "gamerTag": "Hq", "prefix": "", "user": {"location": {"city": "Suwanee", "state": "GA", "country": "United States"}}}}]}, "standing": {"placement": 2, "stats": {"score": {"value": 0}}}}], "games": null}, {"id": 94800364, "state": 3, "round": 2, "fullRoundText": "Winners Quarter-Final", "completedAt": 1759968628, "winnerId": 21500902, "slots": [{"id": "94800364-0", "entrant": {"id": 21500902, "name": "Kid Kaioken", "participants": [{"id": 19758363, "gamerTag": "Kid Kaioken", "prefix": "", "user": {"location": {"city": "Norcross", "state": "GA", "country": "United States"}}, "player": {"id": 2730912, "gamerTag": "Kid Kaioken", "prefix": "", "user": {"location": {"city": "Norcross", "state": "GA", "country": "United States"}}}}]}, "standing": {"placement": 1, "stats": {"score": {"value": 3}}}}, {"id": "94800364-1", "entrant": {"id": 21499820, "name": "Noot", "participants": [{"id": 19757358, "gamerTag": "Noot", "prefix": "", "user": {"location": {"city": null, "state": null, "country": "United States"}}, "player": {"id": 4001469, "gamerTag": "Noot", "prefix": "", "user": {"location": {"city": null, "state": null, "country": "United States"}}}}]}, "standing": {"placement": 2, "stats": {"score": {"value": 1}}}}], "games": null}, {"id": 94800390, "state": 3, "round": -4, "fullRoundText": "Losers Round 1", "completedAt": 1759969602, "winnerId": 21499820, "slots": [{"id": "94800390-0", "entrant": {"id": 21499820, "name": "Noot", "participants": [{"id": 19757358, "gamerTag": "Noot", "prefix": "", "user": {"location": {"city": null, "state": null, "country": "United States"}}, "player": {"id": 4001469, "gamerTag": "Noot", "prefix": "", "user": {"location": {"city": null, "state": null, "country": "United States"}}}}]}, "standing": {"placement": 1, "stats": {"score": {"value": 3}}}}, {"id": "94800390-1", "entrant": {"id": 21500201, "name": "LightningFlex", "participants": [{"id": 19757709, "gamerTag": "LightningFlex", "prefix": "", "user": null, "player": {"id": 5010891, "gamerTag": "LightningFlex", "prefix": "", "user": null}}]}, "standing": {"placement": 2, "stats": {"score": {"value": 0}}}}], "games": null}]}}}