{"phase": {"seeds": {"pageInfo": {"totalPages": 1, "total": 5}, "nodes": [{"id": 36558845, "seedNum": 1, "entrant": {"id": 21225976, "name": "GUMP2 | JankTrees!", "participants": [{"id": 19519828, "gamerTag": "JankTrees!", "prefix": "GUMP2", "user": {"location": {"city": "Cartersville", "state": "GA", "country": "United States"}}, "player": {"id": 35695, "gamerTag": "JankTrees!", "prefix": "GUMP2", "user": {"location": {"city": "Cartersville", "state": "GA", "country": "United States"}}}}]}}, {"id": 36557570, "seedNum": 3, "entrant": {"id": 21225209, "name": "Boo", "participants": [{"id": 19519301, "gamerTag": "Boo", "prefix": "", "user": {"location": {"city": "Cumming", "state": "GA", "country": "United States"}}, "player": {"id": 2647915, "gamerTag": "Boo", "prefix": "", "user": {"location": {"city": "Cumming", "state": "GA", "country": "United States"}}}}]}}, {"id": 36551080, "seedNum": 2, "entrant": {"id": 21220578, "name": "KSU | Subzero", "participants": [{"id": 19515201, "gamerTag": "Subzero", "prefix": "KSU", "user": {"location": {"city": "Acworth", "state": "GA", "country": "United States"}}, "player": {"id": 1808159, "gamerTag": "Subzero", "prefix": "KSU", "user": {"location": {"city": "Acworth", "state": "GA", "country": "United States"}}}}]}}, {"id": 36557066, "seedNum": 4, "entrant": {"id": 21224814, "name": "Zarek", "participants": [{"id": 19518951, "gamerTag": "Zarek", "prefix": "", "user": {"location": {"city": "Atlanta", "state": "GA", "country": "United States"}}, "player": {"id": 405682, "gamerTag": "Zarek", "prefix": "", "user": {"location": {"city": "Atlanta", "state": "GA", "country": "United States"}}}}]}}, {"id": 36553801, "seedNum": 5, "entrant": {"id": 21222622, "name": "KSU | colorful\u029a\u025e", "participants": [{"id": 19516996, "gamerTag": "colorful\u029a\u025e", "prefix": "KSU", "user": {"location": {"city": "Kennesaw", "state": "GA", "country": "United States"}}, "player": {"id": 1783074, "gamerTag": "colorful\u029a\u025e", "prefix": "KSU | RM", "user": {"location": {"city": "Kennesaw", "state": "GA", "country": "United States"}}}}]}}]}}}