{"phase": {"seeds": {"pageInfo": {"totalPages": 1, "total": 5}, "nodes": [{"id": 36818987, "seedNum": 2, "entrant": {"id": 21406540, "name": "UGA | Stygian", "participants": [{"id": 19676177, "gamerTag": "Stygian", "prefix": "UGA", "user": {"location": {"city": "Dacula", "state": "GA", "country": "United States"}}, "player": {"id": 3012265, "gamerTag": "Stygian", "prefix": "UGA", "user": {"location": {"city": "Dacula", "state": "GA", "country": "United States"}}}}]}}, {"id": 36777907, "seedNum": 1, "entrant": {"id": 21378934, "name": "tushar!", "participants": [{"id": 19652531, "gamerTag": "tushar!", "prefix": "", "user": {"location": {"city": "Dunwoody", "state": "GA", "country": "United States"}}, "player": {"id": 1549795, "gamerTag": "tushar!", "prefix": "", "user": {"location": {"city": "Dunwoody", "state": "GA", "country": "United States"}}}}]}}, {"id": 36817655, "seedNum": 3, "entrant": {"id": 21405673, "name": "Hippo", "participants": [{"id": 19675384, "gamerTag": "Hippo", "prefix": "", "user": {"location": {"city": null, "state": null, "country": "United States"}}, "player": {"id": 4869379, "gamerTag": "Hippo", "prefix": "", "user": {"location": {"city": null, "state": null, "country": "United States"}}}}]}}, {"id": 36818940, "seedNum": 5, "entrant": {"id": 21406517, "name": "SherlockZ", "participants": [{"id": 19676155, "gamerTag": "SherlockZ", "prefix": null, "user": {"location": {"city": "", "state": "GA", "country": "United States"}}, "player": {"id": 3300924, "gamerTag": "SherlockZ", "prefix": null, "user": {"location": {"city": "", "state": "GA", "country": "United States"}}}}]}}, {"id": 36812161, "seedNum": 4, "entrant": {"id": 21403303, "name": "Daytime", "participants": [{"id": 19673241, "gamerTag": "Daytime", "prefix": null, "user": {"location": {"city": null, "state": null, "country": "United States"}}, "player": {"id": 4973227, "gamerTag": "Daytime", "prefix": null, "user": {"location": {"city": null, "state": null, "country": "United States"}}}}]}}]}}}