{"phase": {"seeds": {"pageInfo": {"totalPages": 1, "total": 4}, "nodes": [{"id": 36681678, "seedNum": 1, "entrant": {"id": 21314943, "name": "Hippo", "participants": [{"id": 19595180, "gamerTag": "Hippo", "prefix": "", "user": {"location": {"city": null, "state": null, "country": "United States"}}, "player": {"id": 4869379, "gamerTag": "Hippo", "prefix": "", "user": {"location": {"city": null, "state": null, "country": "United States"}}}}]}}, {"id": 36708768, "seedNum": 3, "entrant": {"id": 21330015, "name": "Random Nom", "participants": [{"id": 19608728, "gamerTag": "Random Nom", "prefix": null, "user": {"location": {"city": "Athens", "state": "GA", "country": "United States"}}, "player": {"id": 3389982, "gamerTag": "Random Nom", "prefix": null, "user": {"location": {"city": "Athens", "state": "GA", "country": "United States"}}}}]}}, {"id": 36708727, "seedNum": 4, "entrant": {"id": 21329970, "name": "GRW | Gooey", "participants": [{"id": 19608694, "gamerTag": "Gooey", "prefix": "GRW", "user": {"location": {"city": "Athens", "state": "GA", "country": "United States"}}, "player": {"id": 1071181, "gamerTag": "Gooey", "prefix": "GRW", "user": {"location": {"city": "Athens", "state": "GA", "country": "United States"}}}}]}}, {"id": 36708650, "seedNum": 2, "entrant": {"id": 21329920, "name": "417 | zors3y", "participants": [{"id": 19608654, "gamerTag": "zors3y", "prefix": "417", "user": {"location": {"city": "Eatonton", "state": "GA", "country": "United States"}}, "player": {"id": 994539, "gamerTag": "zors3y", "prefix": "417", "user": {"location": {"city": "Eatonton", "state": "GA", "country": "United States"}}}}]}}]}}}