{"event": {"sets": {"pageInfo": {"totalPages": 2, "total": 24}, "nodes": [{"id": 92912817, "state": 3, "round": 5, "fullRoundText": "Grand Final", "completedAt": 1755830560, "winnerId": 21022971, "slots": [{"id": "92912817-0", "entrant": {"id": 21022971, "name": "audrey", "participants": [{"id": 19338872, "gamerTag": "audrey", "prefix": null, "user": {"location": {"city": "Dunwoody", "state": "GA", "country": "United States"}}, "player": {"id": 1335864, "gamerTag": "audrey", "prefix": null, "user": {"location": {"city": "Dunwoody", "state": "GA", "country": "United States"}}}}]}, "standing": {"placement": 1, "stats": {"score": {"value": 3}}}}, {"id": "92912817-1", "entrant": {"id": 21021661, "name": "vivesthesia", "participants": [{"id": 19337609, "gamerTag": "vivesthesia", "prefix": null, "user": {"location": {"city": "Atlanta", "state": "GA", "country": "United States"}}, "player": {"id": 4395171, "gamerTag": "vivesthesia", "prefix": null, "user": {"location": {"city": "Atlanta", "state": "GA", "country": "United States"}}}}]}, "standing": {"placement": 2, "stats": {"score": {"value": 0}}}}], "games": null}, {"id": 92912816, "state": 3, "round": 4, "fullRoundText": "Winners Final", "completedAt": 1755826115, "winnerId": 21022971, "slots": [{"id": "92912816-0", "entrant": {"id": 21021661, "name": "vivesthesia", "participants": [{"id": 19337609, "gamerTag": "vivesthesia", "prefix": null, "user": {"location": {"city": "Atlanta", "state": "GA", "country": "United States"}}, "player": {"id": 4395171, "gamerTag": "vivesthesia", "prefix": null, "user": {"location": {"city": "Atlanta", "state": "GA", "country": "United States"}}}}]}, "standing": {"placement": 2, "stats": {"score": {"value": 0}}}}, {"id": "92912816-1", "entrant": {"id": 21022971, "name": "audrey", "participants": [{"id": 19338872, "gamerTag": "audrey", "prefix": null, "user": {"location": {"city": "Dunwoody", "state": "GA", "country": "United States"}}, "player": {"id": 1335864, "gamerTag": "audrey", "prefix": null, "user": {"location": {"city": "Dunwoody", "state": "GA", "country": "United States"}}}}]}, "standing": {"placement": 1, "stats": {"score": {"value": 3}}}}], "games": null}, {"id": 92912848, "state": 3, "round": -8, "fullRoundText": "Losers Final", "completedAt": 1755827726, "winnerId": 21021661, "slots": [{"id": "92912848-0", "entrant": {"id": 21021661, "name": "vivesthesia", "participants": [{"id": 19337609, "gamerTag": "vivesthesia", "prefix": null, "user": {"location": {"city": "Atlanta", "state": "GA", "country": "United States"}}, "player": {"id": 4395171, "gamerTag": "vivesthesia", "prefix": null, "user": {"location": {"city": "Atlanta", "state": "GA", "country": "United States"}}}}]}, "standing": {"placement": 1, "stats": {"score": {"value": 3}}}}, {"id": "92912848-1", "entrant": {"id": 21023316, "name": "Taza", "participants": [{"id": 19339188, "gamerTag": "Taza", "prefix": null, "user": {"location": {"city": "Roswell", "state": "GA", "country": "United States"}}, "player": {"id": 278724, "gamerTag": "Taza", "prefix": null, "user": {"location": {"city": "Roswell", "state": "GA", "country": "United States"}}}}]}, "standing": {"placement": 2, "stats": {"score": {"value": 0}}}}], "games": null}, {"id": 92912847, "state": 3, "round": -7, "fullRoundText": "Losers Semi-Final", "completedAt": 1755826875, "winnerId": 21023316, "slots": [{"id": "92912847-0", "entrant": {"id": 21031265, "name": "sanrio enjoyer", "participants": [{"id": 19346417, "gamerTag": "sanrio enjoyer", "prefix": null, "user": {"location": {"city": "Atlanta", "state": "GA", "country": "United States"}}, "player": {"id": 4933308, "gamerTag": "sanrio enjoyer", "prefix": null, "user": {"location": {"city": "Atlanta", "state": "GA", "country": "United States"}}}}]}, "standing": {"placement": 2, "stats": {"score": {"value": 2}}}}, {"id": "92912847-1", "entrant": {"id": 21023316, "name": "Taza", "participants": [{"id": 19339188, "gamerTag": "Taza", "prefix": null, "user": {"location": {"city": "Roswell", "state": "GA", "country": "United States"}}, "player": {"id": 278724, "gamerTag": "Taza", "prefix": null, "user": {"location": {"city": "Roswell", "state": "GA", "country": "United States"}}}}]}, "standing": {"placement": 1, "stats": {"score": {"value": 3}}}}], "games": null}, {"id": 92912814, "state": 3, "round": 3, "fullRoundText": "Winners Semi-Final", "completedAt": 1755824724, "winnerId": 21021661, "slots": [{"id": "92912814-0", "entrant": {"id": 21021661, "name": "vivesthesia", "participants": [{"id": 19337609, "gamerTag": "vivesthesia", "prefix": null, "user": {"location": {"city": "Atlanta", "state": "GA", "country": "United States"}}, "player": {"id": 4395171, "gamerTag": "vivesthesia", "prefix": null, "user": {"location": {"city": "Atlanta", "state": "GA", "country": "United States"}}}}]}, "standing": {"placement": 1, "stats": {"score": {"value": 3}}}}, {"id": "92912814-1", "entrant": {"id": 21031265, "name": "sanrio enjoyer", "participants": [{"id": 19346417, "gamerTag": "sanrio enjoyer", "prefix": null, "user": {"location": {"city": "Atlanta", "state": "GA", "country": "United States"}}, "player": {"id": 4933308, "gamerTag": "sanrio enjoyer", "prefix": null, "user": {"location": {"city": "Atlanta", "state": "GA", "country": "United States"}}}}]}, "standing": {"placement": 2, "stats": {"score": {"value": 2}}}}], "games": null}, {"id": 92912815, "state": 3, "round": 3, "fullRoundText": "Winners Semi-Final", "completedAt": 1755824517, "winnerId": 21022971, "slots": [{"id": "92912815-0", "entrant": {"id": 21022971, "name": "audrey", "participants": [{"id": 19338872, "gamerTag": "audrey", "prefix": null, "user": {"location": {"city": "Dunwoody", "state": "GA", "country": "United States"}}, "player": {"id": 1335864, "gamerTag": "audrey", "prefix": null, "user": {"location": {"city": "Dunwoody", "state": "GA", "country": "United States"}}}}]}, "standing": {"placement": 1, "stats": {"score": {"value": 3}}}}, {"id": "92912815-1", "entrant": {"id": 21023316, "name": "Taza", "participants": [{"id": 19339188, "gamerTag": "Taza", "prefix": null, "user": {"location": {"city": "Roswell", "state": "GA", "country": "United States"}}, "player": {"id": 278724, "gamerTag": "Taza", "prefix": null, "user": {"location": {"city": "Roswell", "state": "GA", "country": "United States"}}}}]}, "standing": {"placement": 2, "stats": {"score": {"value": 2}}}}], "games": null}, {"id": 92912845, "state": 3, "round": -6, "fullRoundText": "Losers Quarter-Final", "completedAt": 1755825752, "winnerId": 21031265, "slots": [{"id": "92912845-0", "entrant": {"id": 21031265, "name": "sanrio enjoyer", "participants": [{"id": 19346417, "gamerTag": "sanrio enjoyer", "prefix": null, "user": {"location": {"city": "Atlanta", "state": "GA", "country": "United States"}}, "player": {"id": 4933308, "gamerTag": "sanrio enjoyer", "prefix": null, "user": {"location": {"city": "Atlanta", "state": "GA", "country": "United States"}}}}]}, "standing": {"placement": 1, "stats": {"score": {"value": 3}}}}, {"id": "92912845-1", "entrant": {"id": 21034002, "name": "Blank", "participants": [{"id": 19349066, "gamerTag": "Blank", "prefix": null, "user": {"location": {"city": "Snellville", "state": "GA", "country": "United States"}}, "player": {"id": 216554, "gamerTag": "Blank", "prefix": null, "user": {"location": {"city": "Snellville", "state": "GA", "country": "United States"}}}}]}, "standing": {"placement": 2, "stats": {"score": {"value": 1}}}}], "games": null}, {"id": 92912846, "state": 3, "round": -6, "fullRoundText": "Losers Quarter-Final", "completedAt": 1755825273, "winnerId": 21023316, "slots": [{"id": "92912846-0", "entrant": {"id": 21023316, "name": "Taza", "participants": [{"id": 19339188, "gamerTag": "Taza", "prefix": null, "user": {"location": {"city": "Roswell", "state": "GA", "country": "United States"}}, "player": {"id": 278724, "gamerTag": "Taza", "prefix": null, "user": {"location": {"city": "Roswell", "state": "GA", "country": "United States"}}}}]}, "standing": {"placement": 1, "stats": {"score": {"value": 3}}}}, {"id": "92912846-1", "entrant": {"id": 21030144, "name": "tomguy", "participants": [{"id": 19345359, "gamerTag": "tomguy", "prefix": "", "user": {"location": {"city": "Atlanta", "state": "GA", "country": "United States"}}, "player": {"id": 147458, "gamerTag": "tomguy", "prefix": "", "user": {"location": {"city": "Atlanta", "state": "GA", "country": "United States"}}}}]}, "standing": {"placement": 2, "stats": {"score": {"value": 0}}}}], "games": null}, {"id": 92912843, "state": 3, "round": -5, "fullRoundText": "Losers Round 3", "completedAt": 1755823712, "winnerId": 21034002, "slots": [{"id": "92912843-0", "entrant": {"id": 21034002, "name": "Blank", "participants": [{"id": 19349066, "gamerTag": "Blank", "prefix": null, "user": {"location": {"city": "Snellville", "state": "GA", "country": "United States"}}, "player": {"id": 216554, "gamerTag": "Blank", "prefix": null, "user": {"location": {"city": "Snellville", "state": "GA", "country": "United States"}}}}]}, "standing": {"placement": 1, "stats": {"score": {"value": 2}}}}, {"id": "92912843-1", "entrant": {"id": 21010459, "name": "DD | Kingpoyothefirst", "participants": [{"id": 19327842, "gamerTag": "Kingpoyothefirst", "prefix": "DD", "user": {"location": {"city": null, "state": null, "country": null}}, "player": {"id": 2934299, "gamerTag": "Kingpoyothefirst", "prefix": "DD", "user": {"location": {"city": null, "state": null, "country": null}}}}]}, "standing": {"placement": 2, "stats": {"score": {"value": 1}}}}], "games": null}, {"id": 92912844, "state": 3, "round": -5, "fullRoundText": "Losers Round 3", "completedAt": 1755823933, "winnerId": 21030144, "slots": [{"id": "92912844-0", "entrant": {"id": 21030144, "name": "tomguy", "participants": [{"id": 19345359, "gamerTag": "tomguy", "prefix": "", "user": {"location": {"city": "Atlanta", "state": "GA", "country": "United States"}}, "player": {"id": 147458, "gamerTag": "tomguy", "prefix": "", "user": {"location": {"city": "Atlanta", "state": "GA", "country": "United States"}}}}]}, "standing": {"placement": 1, "stats": {"score": {"value": 2}}}}, {"id": "92912844-1", "entrant": {"id": 21010361, "name": "Tech Chase | braxton", "participants": [{"id": 19327750, "gamerTag": "braxton", "prefix": "Tech Chase", "user": {"location": {"city": "Atlanta", "state": "GA", "country": "United States"}}, "player": {"id": 1037821, "gamerTag": "braxton", "prefix": "The Hive", "user": {"location": {"city": "Atlanta", "state": "GA", "country": "United States"}}}}]}, "standing": {"placement": 2, "stats": {"score": {"value": 1}}}}], "games": null}, {"id": 92912810, "state": 3, "round": 2, "fullRoundText": "Winners Quarter-Final", "completedAt": 1755822174, "winnerId": 21021661, "slots": [{"id": "92912810-0", "entrant": {"id": 21021661, "name": "vivesthesia", "participants": [{"id": 19337609, "gamerTag": "vivesthesia", "prefix": null, "user": {"location": {"city": "Atlanta", "state": "GA", "country": "United States"}}, "player": {"id": 4395171, "gamerTag": "vivesthesia", "prefix": null, "user": {"location": {"city": "Atlanta", "state": "GA", "country": "United States"}}}}]}, "standing": {"placement": 1, "stats": {"score": {"value": 2}}}}, {"id": "92912810-1", "entrant": {"id": 21010361, "name": "Tech Chase | braxton", "participants": [{"id": 19327750, "gamerTag": "braxton", "prefix": "Tech Chase", "user": {"location": {"city": "Atlanta", "state": "GA", "country": "United States"}}, "player": {"id": 1037821, "gamerTag": "braxton", "prefix": "The Hive", "user": {"location": {"city": "Atlanta", "state": "GA", "country": "United States"}}}}]}, "standing": {"placement": 2, "stats": {"score": {"value": 0}}}}], "games": null}, {"id": 92912811, "state": 3, "round": 2, "fullRoundText": "Winners Quarter-Final", "completedAt": 1755822818, "winnerId": 21031265, "slots": [{"id": "92912811-0", "entrant": {"id": 21031265, "name": "sanrio enjoyer", "participants": [{"id": 19346417, "gamerTag": "sanrio enjoyer", "prefix": null, "user": {"location": {"city": "Atlanta", "state": "GA", "country": "United States"}}, "player": {"id": 4933308, "gamerTag": "sanrio enjoyer", "prefix": null, "user": {"location": {"city": "Atlanta", "state": "GA", "country": "United States"}}}}]}, "standing": {"placement": 1, "stats": {"score": {"value": 2}}}}, {"id": "92912811-1", "entrant": {"id": 21030144, "name": "tomguy", "participants": [{"id": 19345359, "gamerTag": "tomguy", "prefix": "", "user": {"location": {"city": "Atlanta", "state": "GA", "country": "United States"}}, "player": {"id": 147458, "gamerTag": "tomguy", "prefix": "", "user": {"location": {"city": "Atlanta", "state": "GA", "country": "United States"}}}}]}, "standing": {"placement": 2, "stats": {"score": {"value": 1}}}}], "games": null}, {"id": 92912812, "state": 3, "round": 2, "fullRoundText": "Winners Quarter-Final", "completedAt": 1755822587, "winnerId": 21022971, "slots": [{"id": "92912812-0", "entrant": {"id": 21022971, "name": "audrey", "participants": [{"id": 19338872, "gamerTag": "audrey", "prefix": null, "user": {"location": {"city": "Dunwoody", "state": "GA", "country": "United States"}}, "player": {"id": 1335864, "gamerTag": "audrey", "prefix": null, "user": {"location": {"city": "Dunwoody", "state": "GA", "country": "United States"}}}}]}, "standing": {"placement": 1, "stats": {"score": {"value": 2}}}}, {"id": "92912812-1", "entrant": {"id": 21010459, "name": "DD | Kingpoyothefirst", "participants": [{"id": 19327842, "gamerTag": "Kingpoyothefirst", "prefix": "DD", "user": {"location": {"city": null, "state": null, "country": null}}, "player": {"id": 2934299, "gamerTag": "Kingpoyothefirst", "prefix": "DD", "user": {"location": {"city": null, "state": null, "country": null}}}}]}, "standing": {"placement": 2, "stats": {"score": {"value": 0}}}}], "games": null}, {"id": 92912813, "state": 3, "round": 2, "fullRoundText": "Winners Quarter-Final", "completedAt": 1755822041, "winnerId": 21023316, "slots": [{"id": "92912813-0", "entrant": {"id": 21023316, "name": "Taza", "participants": [{"id": 19339188, "gamerTag": "Taza", "prefix": null, "user": {"location": {"city": "Roswell", "state": "GA", "country": "United States"}}, "player": {"id": 278724, "gamerTag": "Taza", "prefix": null, "user": {"location": {"city": "Roswell", "state": "GA", "country": "United States"}}}}]}, "standing": {"placement": 1, "stats": {"score": {"value": 2}}}}, {"id": "92912813-1", "entrant": {"id": 21034002, "name": "Blank", "participants": [{"id": 19349066, "gamerTag": "Blank", "prefix": null, "user": {"location": {"city": "Snellville", "state": "GA", "country": "United States"}}, "player": {"id": 216554, "gamerTag": "Blank", "prefix": null, "user": {"location": {"city": "Snellville", "state": "GA", "country": "United States"}}}}]}, "standing": {"placement": 2, "stats": {"score": {"value": 0}}}}], "games": null}, {"id": 92912839, "state": 3, "round": -4, "fullRoundText": "Losers Round 2", "completedAt": 1755822837, "winnerId": 21034002, "slots": [{"id": "92912839-0", "entrant": {"id": 21034002, "name": "Blank", "participants": [{"id": 19349066, "gamerTag": "Blank", "prefix": null, "user": {"location": {"city": "Snellville", "state": "GA", "country": "United States"}}, "player": {"id": 216554, "gamerTag": "Blank", "prefix": null, "user": {"location": {"city": "Snellville", "state": "GA", "country": "United States"}}}}]}, "standing": {"placement": 1, "stats": {"score": {"value": 2}}}}, {"id": "92912839-1", "entrant": {"id": 21027221, "name": "blaise", "participants": [{"id": 19342663, "gamerTag": "blaise", "prefix": "", "user": {"location": {"city": "douglasville", "state": "GA", "country": "United States"}}, "player": {"id": 1326121, "gamerTag": "blaise", "prefix": "", "user": {"location": {"city": "douglasville", "state": "GA", "country": "United States"}}}}]}, "standing": {"placement": 2, "stats": {"score": {"value": 1}}}}], "games": null}]}}}