{"phase": {"seeds": {"pageInfo": {"totalPages": 1, "total": 8}, "nodes": [{"id": 36832289, "seedNum": 5, "entrant": {"id": 21474243, "name": "4o4 | chooryu :)", "participants": [{"id": 19734403, "gamerTag": "chooryu :)", "prefix": "4o4", "user": {"location": {"city": "Kennesaw", "state": "GA", "country": "United States"}}, "player": {"id": 466564, "gamerTag": "chooryu :)", "prefix": "4o4", "user": {"location": {"city": "Kennesaw", "state": "GA", "country": "United States"}}}}]}}, {"id": 36832287, "seedNum": 4, "entrant": {"id": 21474979, "name": "TFT | Terry Labonte", "participants": [{"id": 19684387, "gamerTag": "Terry Labonte", "prefix": "TFT", "user": {"location": {"city": "Doraville", "state": "GA", "country": "United States"}}, "player": {"id": 1227401, "gamerTag": "Terry Labonte", "prefix": "TFT", "user": {"location": {"city": "Doraville", "state": "GA", "country": "United States"}}}}]}}, {"id": 36832288, "seedNum": 3, "entrant": {"id": 21474683, "name": "Yummy", "participants": [{"id": 19734823, "gamerTag": "Yummy", "prefix": "", "user": {"location": {"city": "Atlanta", "state": "GA", "country": "United States"}}, "player": {"id": 1743866, "gamerTag": "Yummy", "prefix": "", "user": {"location": {"city": "Atlanta", "state": "GA", "country": "United States"}}}}]}}, {"id": 36832290, "seedNum": 6, "entrant": {"id": 21474689, "name": "uM | Jenesis", "participants": [{"id": 19734830, "gamerTag": "Jenesis", "prefix": "uM", "user": {"location": {"city": "Marietta", "state": "GA", "country": "United States"}}, "player": {"id": 36629, "gamerTag": "Jenesis", "prefix": "uM", "user": {"location": {"city": "Marietta", "state": "GA", "country": "United States"}}}}]}}, {"id": 36832285, "seedNum": 1, "entrant": {"id": 21474652, "name": "TFT | RoKu", "participants": [{"id": 19734800, "gamerTag": "RoKu", "prefix": "TFT", "user": {"location": {"city": "Peachtree Corners", "state": "GA", "country": "United States"}}, "player": {"id": 1107285, "gamerTag": "RoKu", "prefix": "TFT", "user": {"location": {"city": "Peachtree Corners", "state": "GA", "country": "United States"}}}}]}}, {"id": 36832286, "seedNum": 2, "entrant": {"id": 21474787, "name": "RM | WFF | Sakruoi", "participants": [{"id": 19734935, "gamerTag": "Sakruoi", "prefix": "RM | WFF", "user": {"location": {"city": "atlanta", "state": "GA", "country": "United States"}}, "player": {"id": 1230555, "gamerTag": "Sakruoi", "prefix": "RM | WFF", "user": {"location": {"city": "atlanta", "state": "GA", "country": "United States"}}}}]}}, {"id": 36832292, "seedNum": 7, "entrant": {"id": 21474744, "name": "MTM | Bob Weiner", "participants": [{"id": 19734892, "gamerTag": "Bob Weiner", "prefix": "MTM", "user": {"location": {"city": "Kennesaw", "state": "GA", "country": "United States"}}, "player": {"id": 2142601, "gamerTag": "Bob Weiner", "prefix": "MTM", "user": {"location": {"city": "Kennesaw", "state": "GA", "country": "United States"}}}}]}}, {"id": 36832291, "seedNum": 8, "entrant": {"id": 21416452, "name": "TFT | Ricky Rudd", "participants": [{"id": 19685046, "gamerTag": "Ricky Rudd", "prefix": "TFT", "user": {"location": {"city": "Atlanta", "state": "GA", "country": "United States"}}, "player": {"id": 1751817, "gamerTag": "Ricky Rudd", "prefix": "TFT", "user": {"location": {"city": "Atlanta", "state": "GA", "country": "United States"}}}}]}}]}}}