{"event": {"sets": {"pageInfo": {"totalPages": 6, "total": 76}, "nodes": [{"id": 93192885, "state": 3, "round": -8, "fullRoundText": "Losers Round 5", "completedAt": 1756434809, "winnerId": 21104387, "slots": [{"id": "93192885-0", "entrant": {"id": 21104387, "name": "DTN | Jahzz0", "participants": [{"id": 19412532, "gamerTag": "Jahzz0", "prefix": "DTN", "user": {"location": {"city": null, "state": null, "country": "United States"}}, "player": {"id": 946548, "gamerTag": "Jahzz0", "prefix": "DTN", "user": {"location": {"city": null, "state": null, "country": "United States"}}}}]}, "standing": {"placement": 1, "stats": {"score": {"value": 2}}}}, {"id": "93192885-1", "entrant": {"id": 21104169, "name": "KumaDusk", "participants": [{"id": 19412328, "gamerTag": "KumaDusk", "prefix": "", "user": {"location": {"city": "Lawrenceville", "state": "GA", "country": "United States"}}, "player": {"id": 253909, "gamerTag": "KumaDusk", "prefix": "", "user": {"location": {"city": "Lawrenceville", "state": "GA", "country": "United States"}}}}]}, "standing": {"placement": 2, "stats": {"score": {"value": 0}}}}], "games": null}, {"id": 93192886, "state": 3, "round": -8, "fullRoundText": "Losers Round 5", "completedAt": 1756434239, "winnerId": 21103557, "slots": [{"id": "93192886-0", "entrant": {"id": 21103557, "name": "The Simpsons | Ryu from Streets", "participants": [{"id": 19411782, "gamerTag": "Ryu from Streets", "prefix": "The Simpsons", "user": {"location": {"city": null, "state": null, "country": null}}, "player": {"id": 2348605, "gamerTag": "Ryu from Streets", "prefix": "GUMP2", "user": {"location": {"city": null, "state": null, "country": null}}}}]}, "standing": {"placement": 1, "stats": {"score": {"value": 2}}}}, {"id": "93192886-1", "entrant": {"id": 21099804, "name": "RM | GUMP2 | Kr!stal:0", "participants": [{"id": 19408301, "gamerTag": "Kr!stal:0", "prefix": "RM | GUMP2", "user": {"location": {"city": "Lawrenceville", "state": "GA", "country": "United States"}}, "player": {"id": 2409815, "gamerTag": "AO ASHI SEASON 2 2026", "prefix": "RM | GUMP2", "user": {"location": {"city": "Lawrenceville", "state": "GA", "country": "United States"}}}}]}, "standing": {"placement": 2, "stats": {"score": {"value": 0}}}}], "games": null}, {"id": 93192887, "state": 3, "round": -8, "fullRoundText": "Losers Round 5", "completedAt": 1756433867, "winnerId": 21103020, "slots": [{"id": "93192887-0", "entrant": {"id": 21103020, "name": "GUMP2 | Spider", "participants": [{"id": 19411289, "gamerTag": "Spider", "prefix": "GUMP2", "user": {"location": {"city": "Atlanta", "state": "GA", "country": "United States"}}, "player": {"id": 691176, "gamerTag": "Spider", "prefix": "GUMP2", "user": {"location": {"city": "Atlanta", "state": "GA", "country": "United States"}}}}]}, "standing": {"placement": 1, "stats": {"score": {"value": 2}}}}, {"id": "93192887-1", "entrant": {"id": 21103281, "name": "MBS | Vivid", "participants": [{"id": 19411533, "gamerTag": "Vivid", "prefix": "MBS", "user": {"location": {"city": "Atl", "state": "GA", "country": "United States"}}, "player": {"id": 499333, "gamerTag": "Vivid", "prefix": "MBS", "user": {"location": {"city": "Atl", "state": "GA", "country": "United States"}}}}]}, "standing": {"placement": 2, "stats": {"score": {"value": 1}}}}], "games": [{"id": 32213455, "orderNum": 1, "winnerId": 21103020, "entrant1Score": null, "entrant2Score": 0, "stage": null, "selections": [{"id": 47474737, "selectionType": "CHARACTER", "selectionValue": 1333, "entrant": {"id": 21103020}, "character": {"id": 1333, "name": "Toon Link"}}, {"id": 47474738, "selectionType": "CHARACTER", "selectionValue": 1333, "entrant": {"id": 21103281}, "character": {"id": 1333, "name": "Toon Link"}}]}, {"id": 32213456, "orderNum": 2, "winnerId": 21103281, "entrant1Score": 0, "entrant2Score": null, "stage": null, "selections": [{"id": 47474739, "selectionType": "CHARACTER", "selectionValue": 1333, "entrant": {"id": 21103020}, "character": {"id": 1333, "name": "Toon Link"}}, {"id": 47474740, "selectionType": "CHARACTER", "selectionValue": 1333, "entrant": {"id": 21103281}, "character": {"id": 1333, "name": "Toon Link"}}]}, {"id": 32213457, "orderNum": 3, "winnerId": 21103020, "entrant1Score": null, "entrant2Score": 0, "stage": null, "selections": [{"id": 47474741, "selectionType": "CHARACTER", "selectionValue": 1333, "entrant": {"id": 21103020}, "character": {"id": 1333, "name": "Toon Link"}}, {"id": 47474742, "selectionType": "CHARACTER", "selectionValue": 1333, "entrant": {"id": 21103281}, "character": {"id": 1333, "name": "Toon Link"}}]}]}, {"id": 93192880, "state": 3, "round": -7, "fullRoundText": "Losers Round 4", "completedAt": 1756431971, "winnerId": 21100984, "slots": [{"id": "93192880-0", "entrant": {"id": 21100984, "name": "Cake", "participants": [{"id": 19409364, "gamerTag": "Cake", "prefix": "", "user": {"location": {"city": "Dallas", "state": "AL", "country": "United States"}}, "player": {"id": 1046075, "gamerTag": "Cake", "prefix": "", "user": {"location": {"city": "Dallas", "state": "AL", "country": "United States"}}}}]}, "standing": {"placement": 1, "stats": {"score": {"value": 2}}}}, {"id": "93192880-1", "entrant": {"id": 21104015, "name": "Dragonned", "participants": [{"id": 19412195, "gamerTag": "Dragonned", "prefix": "", "user": {"location": {"city": "Fayetteville", "state": "GA", "country": "United States"}}, "player": {"id": 979040, "gamerTag": "Dragonned", "prefix": "", "user": {"location": {"city": "Fayetteville", "state": "GA", "country": "United States"}}}}]}, "standing": {"placement": 2, "stats": {"score": {"value": 0}}}}], "games": null}, {"id": 93192881, "state": 3, "round": -7, "fullRoundText": "Losers Round 4", "completedAt": 1756434137, "winnerId": 21104169, "slots": [{"id": "93192881-0", "entrant": {"id": 21104169, "name": "KumaDusk", "participants": [{"id": 19412328, "gamerTag": "KumaDusk", "prefix": "", "user": {"location": {"city": "Lawrenceville", "state": "GA", "country": "United States"}}, "player": {"id": 253909, "gamerTag": "KumaDusk", "prefix": "", "user": {"location": {"city": "Lawrenceville", "state": "GA", "country": "United States"}}}}]}, "standing": {"placement": 1, "stats": {"score": {"value": 2}}}}, {"id": "93192881-1", "entrant": {"id": 21103107, "name": "MilesisBae", "participants": [{"id": 19411364, "gamerTag": "MilesisBae", "prefix": "", "user": {"location": {"city": "Richmond", "state": "VA", "country": "United States"}}, "player": {"id": 1218383, "gamerTag": "MilesisBae", "prefix": "", "user": {"location": {"city": "Richmond", "state": "VA", "country": "United States"}}}}]}, "standing": {"placement": 2, "stats": {"score": {"value": 1}}}}], "games": null}, {"id": 93192882, "state": 3, "round": -7, "fullRoundText": "Losers Round 4", "completedAt": 1756432370, "winnerId": 21099804, "slots": [{"id": "93192882-0", "entrant": {"id": 21077910, "name": "Ave~", "participants": [{"id": 19388610, "gamerTag": "Ave~", "prefix": "", "user": {"location": {"city": null, "state": null, "country": null}}, "player": {"id": 38830, "gamerTag": "Ave~", "prefix": "", "user": {"location": {"city": null, "state": null, "country": null}}}}]}, "standing": {"placement": 2, "stats": {"score": {"value": 0}}}}, {"id": "93192882-1", "entrant": {"id": 21099804, "name": "RM | GUMP2 | Kr!stal:0", "participants": [{"id": 19408301, "gamerTag": "Kr!stal:0", "prefix": "RM | GUMP2", "user": {"location": {"city": "Lawrenceville", "state": "GA", "country": "United States"}}, "player": {"id": 2409815, "gamerTag": "AO ASHI SEASON 2 2026", "prefix": "RM | GUMP2", "user": {"location": {"city": "Lawrenceville", "state": "GA", "country": "United States"}}}}]}, "standing": {"placement": 1, "stats": {"score": {"value": 2}}}}], "games": [{"id": 32212517, "orderNum": 1, "winnerId": 21099804, "entrant1Score": 0, "entrant2Score": null, "stage": null, "selections": [{"id": 47473044, "selectionType": "CHARACTER", "selectionValue": 1311, "entrant": {"id": 21077910}, "character": {"id": 1311, "name": "Mii Brawler"}}, {"id": 47473045, "selectionType": "CHARACTER", "selectionValue": 1766, "entrant": {"id": 21099804}, "character": {"id": 1766, "name": "Steve"}}]}, {"id": 32212518, "orderNum": 2, "winnerId": 21099804, "entrant1Score": 0, "entrant2Score": null, "stage": null, "selections": [{"id": 47473046, "selectionType": "CHARACTER", "selectionValue": 1311, "entrant": {"id": 21077910}, "character": {"id": 1311, "name": "Mii Brawler"}}, {"id": 47473047, "selectionType": "CHARACTER", "selectionValue": 1766, "entrant": {"id": 21099804}, "character": {"id": 1766, "name": "Steve"}}]}]}, {"id": 93192883, "state": 3, "round": -7, "fullRoundText": "Losers Round 4", "completedAt": 1756432775, "winnerId": 21103281, "slots": [{"id": "93192883-0", "entrant": {"id": 21103281, "name": "MBS | Vivid", "participants": [{"id": 19411533, "gamerTag": "Vivid", "prefix": "MBS", "user": {"location": {"city": "Atl", "state": "GA", "country": "United States"}}, "player": {"id": 499333, "gamerTag": "Vivid", "prefix": "MBS", "user": {"location": {"city": "Atl", "state": "GA", "country": "United States"}}}}]}, "standing": {"placement": 1, "stats": {"score": {"value": 2}}}}, {"id": "93192883-1", "entrant": {"id": 21104029, "name": "CFL | Benji", "participants": [{"id": 19412207, "gamerTag": "Benji", "prefix": "CFL", "user": {"location": {"city": "Orlando", "state": "FL", "country": "United States"}}, "player": {"id": 2990255, "gamerTag": "Benji", "prefix": "CFL", "user": {"location": {"city": "Orlando", "state": "FL", "country": "United States"}}}}]}, "standing": {"placement": 2, "stats": {"score": {"value": 0}}}}], "games": null}, {"id": 93192754, "state": 3, "round": 3, "fullRoundText": "Winners Round 3", "completedAt": 1756430516, "winnerId": 21103020, "slots": [{"id": "93192754-0", "entrant": {"id": 21100984, "name": "Cake", "participants": [{"id": 19409364, "gamerTag": "Cake", "prefix": "", "user": {"location": {"city": "Dallas", "state": "AL", "country": "United States"}}, "player": {"id": 1046075, "gamerTag": "Cake", "prefix": "", "user": {"location": {"city": "Dallas", "state": "AL", "country": "United States"}}}}]}, "standing": {"placement": 2, "stats": {"score": {"value": 1}}}}, {"id": "93192754-1", "entrant": {"id": 21103020, "name": "GUMP2 | Spider", "participants": [{"id": 19411289, "gamerTag": "Spider", "prefix": "GUMP2", "user": {"location": {"city": "Atlanta", "state": "GA", "country": "United States"}}, "player": {"id": 691176, "gamerTag": "Spider", "prefix": "GUMP2", "user": {"location": {"city": "Atlanta", "state": "GA", "country": "United States"}}}}]}, "standing": {"placement": 1, "stats": {"score": {"value": 2}}}}], "games": [{"id": 32211056, "orderNum": 1, "winnerId": 21103020, "entrant1Score": 0, "entrant2Score": null, "stage": null, "selections": [{"id": 47470591, "selectionType": "CHARACTER", "selectionValue": 1286, "entrant": {"id": 21100984}, "character": {"id": 1286, "name": "Fox"}}, {"id": 47470592, "selectionType": "CHARACTER", "selectionValue": 1333, "entrant": {"id": 21103020}, "character": {"id": 1333, "name": "Toon Link"}}]}, {"id": 32211057, "orderNum": 2, "winnerId": 21100984, "entrant1Score": null, "entrant2Score": 0, "stage": null, "selections": [{"id": 47470593, "selectionType": "CHARACTER", "selectionValue": 1286, "entrant": {"id": 21100984}, "character": {"id": 1286, "name": "Fox"}}, {"id": 47470594, "selectionType": "CHARACTER", "selectionValue": 1333, "entrant": {"id": 21103020}, "character": {"id": 1333, "name": "Toon Link"}}]}, {"id": 32211058, "orderNum": 3, "winnerId": 21103020, "entrant1Score": 0, "entrant2Score": null, "stage": null, "selections": [{"id": 47470595, "selectionType": "CHARACTER", "selectionValue": 1286, "entrant": {"id": 21100984}, "character": {"id": 1286, "name": "Fox"}}, {"id": 47470596, "selectionType": "CHARACTER", "selectionValue": 1333, "entrant": {"id": 21103020}, "character": {"id": 1333, "name": "Toon Link"}}]}]}, {"id": 93192755, "state": 3, "round": 3, "fullRoundText": "Winners Round 3", "completedAt": 1756430258, "winnerId": 21103200, "slots": [{"id": "93192755-0", "entrant": {"id": 21103200, "name": "omega", "participants": [{"id": 19411452, "gamerTag": "omega", "prefix": "", "user": {"location": {"city": "Suwanee", "state": "GA", "country": "United States"}}, "player": {"id": 24638, "gamerTag": "omega", "prefix": "", "user": {"location": {"city": "Suwanee", "state": "GA", "country": "United States"}}}}]}, "standing": {"placement": 1, "stats": {"score": {"value": 2}}}}, {"id": "93192755-1", "entrant": {"id": 21103418, "name": "PH | Nimbus", "participants": [{"id": 19411658, "gamerTag": "Nimbus", "prefix": "PH", "user": {"location": {"city": "Roswell", "state": "GA", "country": "United States"}}, "player": {"id": 36462, "gamerTag": "Nimbus", "prefix": "PH", "user": {"location": {"city": "Roswell", "state": "GA", "country": "United States"}}}}]}, "standing": {"placement": 2, "stats": {"score": {"value": 0}}}}], "games": null}, {"id": 93192756, "state": 3, "round": 3, "fullRoundText": "Winners Round 3", "completedAt": 1756431728, "winnerId": 21090344, "slots": [{"id": "93192756-0", "entrant": {"id": 21090344, "name": "Tobe", "participants": [{"id": 19399790, "gamerTag": "Tobe", "prefix": "", "user": {"location": {"city": "Buford", "state": "GA", "country": "United States"}}, "player": {"id": 1646132, "gamerTag": "Tobe", "prefix": "", "user": {"location": {"city": "Buford", "state": "GA", "country": "United States"}}}}]}, "standing": {"placement": 1, "stats": {"score": {"value": 2}}}}, {"id": "93192756-1", "entrant": {"id": 21103281, "name": "MBS | Vivid", "participants": [{"id": 19411533, "gamerTag": "Vivid", "prefix": "MBS", "user": {"location": {"city": "Atl", "state": "GA", "country": "United States"}}, "player": {"id": 499333, "gamerTag": "Vivid", "prefix": "MBS", "user": {"location": {"city": "Atl", "state": "GA", "country": "United States"}}}}]}, "standing": {"placement": 2, "stats": {"score": {"value": 1}}}}], "games": [{"id": 32211409, "orderNum": 1, "winnerId": 21103281, "entrant1Score": 0, "entrant2Score": null, "stage": null, "selections": [{"id": 47472136, "selectionType": "CHARACTER", "selectionValue": 1289, "entrant": {"id": 21090344}, "character": {"id": 1289, "name": "Greninja"}}, {"id": 47472137, "selectionType": "CHARACTER", "selectionValue": 1333, "entrant": {"id": 21103281}, "character": {"id": 1333, "name": "Toon Link"}}]}, {"id": 32211410, "orderNum": 2, "winnerId": 21090344, "entrant1Score": null, "entrant2Score": 0, "stage": null, "selections": [{"id": 47472138, "selectionType": "CHARACTER", "selectionValue": 1289, "entrant": {"id": 21090344}, "character": {"id": 1289, "name": "Greninja"}}, {"id": 47472139, "selectionType": "CHARACTER", "selectionValue": 1333, "entrant": {"id": 21103281}, "character": {"id": 1333, "name": "Toon Link"}}]}, {"id": 32211623, "orderNum": 3, "winnerId": 21090344, "entrant1Score": 0, "entrant2Score": 0, "stage": null, "selections": [{"id": 47472140, "selectionType": "CHARACTER", "selectionValue": 1289, "entrant": {"id": 21090344}, "character": {"id": 1289, "name": "Greninja"}}, {"id": 47472141, "selectionType": "CHARACTER", "selectionValue": 1333, "entrant": {"id": 21103281}, "character": {"id": 1333, "name": "Toon Link"}}]}]}, {"id": 93192757, "state": 3, "round": 3, "fullRoundText": "Winners Round 3", "completedAt": 1756430763, "winnerId": 21104387, "slots": [{"id": "93192757-0", "entrant": {"id": 21104387, "name": "DTN | Jahzz0", "participants": [{"id": 19412532, "gamerTag": "Jahzz0", "prefix": "DTN", "user": {"location": {"city": null, "state": null, "country": "United States"}}, "player": {"id": 946548, "gamerTag": "Jahzz0", "prefix": "DTN", "user": {"location": {"city": null, "state": null, "country": "United States"}}}}]}, "standing": {"placement": 1, "stats": {"score": {"value": 2}}}}, {"id": "93192757-1", "entrant": {"id": 21099804, "name": "RM | GUMP2 | Kr!stal:0", "participants": [{"id": 19408301, "gamerTag": "Kr!stal:0", "prefix": "RM | GUMP2", "user": {"location": {"city": "Lawrenceville", "state": "GA", "country": "United States"}}, "player": {"id": 2409815, "gamerTag": "AO ASHI SEASON 2 2026", "prefix": "RM | GUMP2", "user": {"location": {"city": "Lawrenceville", "state": "GA", "country": "United States"}}}}]}, "standing": {"placement": 2, "stats": {"score": {"value": 0}}}}], "games": null}, {"id": 93192758, "state": 3, "round": 3, "fullRoundText": "Winners Round 3", "completedAt": 1756430402, "winnerId": 21101750, "slots": [{"id": "93192758-0", "entrant": {"id": 21077910, "name": "Ave~", "participants": [{"id": 19388610, "gamerTag": "Ave~", "prefix": "", "user": {"location": {"city": null, "state": null, "country": null}}, "player": {"id": 38830, "gamerTag": "Ave~", "prefix": "", "user": {"location": {"city": null, "state": null, "country": null}}}}]}, "standing": {"placement": 2, "stats": {"score": {"value": 1}}}}, {"id": "93192758-1", "entrant": {"id": 21101750, "name": "GUMP2 | ToxiC", "participants": [{"id": 19410105, "gamerTag": "ToxiC", "prefix": "GUMP2", "user": {"location": {"city": "Marietta", "state": "GA", "country": "United States"}}, "player": {"id": 2585804, "gamerTag": "ToxiC", "prefix": "GUMP2", "user": {"location": {"city": "Marietta", "state": "GA", "country": "United States"}}}}]}, "standing": {"placement": 1, "stats": {"score": {"value": 2}}}}], "games": null}, {"id": 93192751, "state": 3, "round": 3, "fullRoundText": "Winners Round 3", "completedAt": 1756429974, "winnerId": 21104106, "slots": [{"id": "93192751-0", "entrant": {"id": 21104106, "name": "SR | Kola", "participants": [{"id": 19412270, "gamerTag": "Kola", "prefix": "SR", "user": {"location": {"city": "Duluth", "state": "GA", "country": "United States"}}, "player": {"id": 18802, "gamerTag": "Kola", "prefix": "SR", "user": {"location": {"city": "Duluth", "state": "GA", "country": "United States"}}}}]}, "standing": {"placement": 1, "stats": {"score": {"value": 2}}}}, {"id": "93192751-1", "entrant": {"id": 21103107, "name": "MilesisBae", "participants": [{"id": 19411364, "gamerTag": "MilesisBae", "prefix": "", "user": {"location": {"city": "Richmond", "state": "VA", "country": "United States"}}, "player": {"id": 1218383, "gamerTag": "MilesisBae", "prefix": "", "user": {"location": {"city": "Richmond", "state": "VA", "country": "United States"}}}}]}, "standing": {"placement": 2, "stats": {"score": {"value": 0}}}}], "games": null}, {"id": 93192752, "state": 3, "round": 3, "fullRoundText": "Winners Round 3", "completedAt": 1756432628, "winnerId": 21103557, "slots": [{"id": "93192752-0", "entrant": {"id": 21104169, "name": "KumaDusk", "participants": [{"id": 19412328, "gamerTag": "KumaDusk", "prefix": "", "user": {"location": {"city": "Lawrenceville", "state": "GA", "country": "United States"}}, "player": {"id": 253909, "gamerTag": "KumaDusk", "prefix": "", "user": {"location": {"city": "Lawrenceville", "state": "GA", "country": "United States"}}}}]}, "standing": {"placement": 2, "stats": {"score": {"value": 1}}}}, {"id": "93192752-1", "entrant": {"id": 21103557, "name": "The Simpsons | Ryu from Streets", "participants": [{"id": 19411782, "gamerTag": "Ryu from Streets", "prefix": "The Simpsons", "user": {"location": {"city": null, "state": null, "country": null}}, "player": {"id": 2348605, "gamerTag": "Ryu from Streets", "prefix": "GUMP2", "user": {"location": {"city": null, "state": null, "country": null}}}}]}, "standing": {"placement": 1, "stats": {"score": {"value": 2}}}}], "games": [{"id": 32212251, "orderNum": 1, "winnerId": 21104169, "entrant1Score": null, "entrant2Score": 0, "stage": null, "selections": [{"id": 47473343, "selectionType": "CHARACTER", "selectionValue": 1526, "entrant": {"id": 21103557}, "character": {"id": 1526, "name": "Hero"}}, {"id": 47473344, "selectionType": "CHARACTER", "selectionValue": 1405, "entrant": {"id": 21104169}, "character": {"id": 1405, "name": "Mr. Game & Watch"}}]}, {"id": 32212252, "orderNum": 2, "winnerId": 21103557, "entrant1Score": 0, "entrant2Score": null, "stage": null, "selections": [{"id": 47473345, "selectionType": "CHARACTER", "selectionValue": 1526, "entrant": {"id": 21103557}, "character": {"id": 1526, "name": "Hero"}}, {"id": 47473346, "selectionType": "CHARACTER", "selectionValue": 1405, "entrant": {"id": 21104169}, "character": {"id": 1405, "name": "Mr. Game & Watch"}}]}, {"id": 32212472, "orderNum": 3, "winnerId": 21103557, "entrant1Score": 0, "entrant2Score": null, "stage": null, "selections": [{"id": 47473347, "selectionType": "CHARACTER", "selectionValue": 1526, "entrant": {"id": 21103557}, "character": {"id": 1526, "name": "Hero"}}, {"id": 47473348, "selectionType": "CHARACTER", "selectionValue": 1405, "entrant": {"id": 21104169}, "character": {"id": 1405, "name": "Mr. Game & Watch"}}]}]}, {"id": 93192753, "state": 3, "round": 3, "fullRoundText": "Winners Round 3", "completedAt": 1756430147, "winnerId": 21104518, "slots": [{"id": "93192753-0", "entrant": {"id": 21104518, "name": "HyperKirby", "participants": [{"id": 19412642, "gamerTag": "HyperKirby", "prefix": null, "user": {"location": {"city": "Lawrenceville", "state": "GA", "country": "United States"}}, "player": {"id": 71079, "gamerTag": "HyperKirby", "prefix": null, "user": {"location": {"city": "Lawrenceville", "state": "GA", "country": "United States"}}}}]}, "standing": {"placement": 1, "stats": {"score": {"value": 2}}}}, {"id": "93192753-1", "entrant": {"id": 21104015, "name": "Dragonned", "participants": [{"id": 19412195, "gamerTag": "Dragonned", "prefix": "", "user": {"location": {"city": "Fayetteville", "state": "GA", "country": "United States"}}, "player": {"id": 979040, "gamerTag": "Dragonned", "prefix": "", "user": {"location": {"city": "Fayetteville", "state": "GA", "country": "United States"}}}}]}, "standing": {"placement": 2, "stats": {"score": {"value": 1}}}}], "games": null}]}}}