{"event": {"sets": {"pageInfo": {"totalPages": 3, "total": 33}, "nodes": [{"id": 94279053, "state": 3, "round": -6, "fullRoundText": "Losers Round 3", "completedAt": 1758762714, "winnerId": 21369940, "slots": [{"id": "94279053-0", "entrant": {"id": 21369940, "name": "Armanisaint", "participants": [{"id": 19644648, "gamerTag": "Armanisaint", "prefix": null, "user": {"location": {"city": "Roswell", "state": "GA", "country": "United States"}}, "player": {"id": 3943806, "gamerTag": "Armanisaint", "prefix": null, "user": {"location": {"city": "Roswell", "state": "GA", "country": "United States"}}}}]}, "standing": {"placement": 1, "stats": {"score": {"value": 2}}}}, {"id": "94279053-1", "entrant": {"id": 21364905, "name": "Myk_JUMP", "participants": [{"id": 19640109, "gamerTag": "Myk_JUMP", "prefix": "", "user": {"location": {"city": "Atlanta", "state": "GA", "country": "United States"}}, "player": {"id": 469002, "gamerTag": "Myk_JUMP", "prefix": "", "user": {"location": {"city": "Atlanta", "state": "GA", "country": "United States"}}}}]}, "standing": {"placement": 2, "stats": {"score": {"value": 1}}}}], "games": null}, {"id": 94279050, "state": 3, "round": -6, "fullRoundText": "Losers Round 3", "completedAt": 1758762468, "winnerId": 21371174, "slots": [{"id": "94279050-0", "entrant": {"id": 21371174, "name": "Genghis D0n", "participants": [{"id": 19645839, "gamerTag": "Genghis D0n", "prefix": "", "user": {"location": {"city": "Atlanta", "state": "GA", "country": "United States"}}, "player": {"id": 724224, "gamerTag": "Genghis D0n", "prefix": "", "user": {"location": {"city": "Atlanta", "state": "GA", "country": "United States"}}}}]}, "standing": {"placement": 1, "stats": {"score": {"value": 2}}}}, {"id": "94279050-1", "entrant": {"id": 21371229, "name": "Fiji | 100 Latinas", "participants": [{"id": 19645885, "gamerTag": "100 Latinas", "prefix": "Fiji", "user": {"location": {"city": "Lithonia", "state": "GA", "country": "United States"}}, "player": {"id": 1890427, "gamerTag": "100 Latinas", "prefix": "Fiji", "user": {"location": {"city": "Lithonia", "state": "GA", "country": "United States"}}}}]}, "standing": {"placement": 2, "stats": {"score": {"value": 0}}}}], "games": null}, {"id": 94279051, "state": 3, "round": -6, "fullRoundText": "Losers Round 3", "completedAt": 1758762072, "winnerId": 21370947, "slots": [{"id": "94279051-0", "entrant": {"id": 21371158, "name": "InIt2WynneIt", "participants": [{"id": 19645826, "gamerTag": "InIt2WynneIt", "prefix": "", "user": {"location": {"city": "LAWRENCEVILLE", "state": "GA", "country": "United States"}}, "player": {"id": 260407, "gamerTag": "InIt2WynneIt", "prefix": "", "user": {"location": {"city": "LAWRENCEVILLE", "state": "GA", "country": "United States"}}}}]}, "standing": {"placement": 2, "stats": {"score": {"value": 1}}}}, {"id": "94279051-1", "entrant": {"id": 21370947, "name": "Iso.Dgaf", "participants": [{"id": 19645628, "gamerTag": "Iso.Dgaf", "prefix": null, "user": {"location": {"city": "Acworth", "state": "GA", "country": "United States"}}, "player": {"id": 4285541, "gamerTag": "Iso.Dgaf", "prefix": null, "user": {"location": {"city": "Acworth", "state": "GA", "country": "United States"}}}}]}, "standing": {"placement": 1, "stats": {"score": {"value": 2}}}}], "games": null}, {"id": 94279052, "state": 3, "round": -6, "fullRoundText": "Losers Round 3", "completedAt": 1758761893, "winnerId": 21366394, "slots": [{"id": "94279052-0", "entrant": {"id": 21366394, "name": "BOLT | KhalRhaego", "participants": [{"id": 19641377, "gamerTag": "KhalRhaego", "prefix": "BOLT", "user": {"location": {"city": "Jonesboro", "state": "GA", "country": "United States"}}, "player": {"id": 4076327, "gamerTag": "KhalRhaego", "prefix": "BOLT", "user": {"location": {"city": "Jonesboro", "state": "GA", "country": "United States"}}}}]}, "standing": {"placement": 1, "stats": {"score": {"value": 2}}}}, {"id": "94279052-1", "entrant": {"id": 21370651, "name": "Squidneyy", "participants": [{"id": 19645292, "gamerTag": "Squidneyy", "prefix": null, "user": {"location": {"city": "Atlanta", "state": "GA", "country": "United States"}}, "player": {"id": 4202784, "gamerTag": "Squidneyy", "prefix": null, "user": {"location": {"city": "Atlanta", "state": "GA", "country": "United States"}}}}]}, "standing": {"placement": 2, "stats": {"score": {"value": 0}}}}], "games": null}, {"id": 94279046, "state": 3, "round": -5, "fullRoundText": "Losers Round 2", "completedAt": 1758761703, "winnerId": 21371229, "slots": [{"id": "94279046-0", "entrant": {"id": 21371117, "name": "REHOO", "participants": [{"id": 19645780, "gamerTag": "REHOO", "prefix": null, "user": {"location": {"city": "jonesboro", "state": "GA", "country": "United States"}}, "player": {"id": 427983, "gamerTag": "REHOO", "prefix": null, "user": {"location": {"city": "jonesboro", "state": "GA", "country": "United States"}}}}]}, "standing": {"placement": 2, "stats": {"score": {"value": 0}}}}, {"id": "94279046-1", "entrant": {"id": 21371229, "name": "Fiji | 100 Latinas", "participants": [{"id": 19645885, "gamerTag": "100 Latinas", "prefix": "Fiji", "user": {"location": {"city": "Lithonia", "state": "GA", "country": "United States"}}, "player": {"id": 1890427, "gamerTag": "100 Latinas", "prefix": "Fiji", "user": {"location": {"city": "Lithonia", "state": "GA", "country": "United States"}}}}]}, "standing": {"placement": 1, "stats": {"score": {"value": 2}}}}], "games": null}, {"id": 94279047, "state": 3, "round": -5, "fullRoundText": "Losers Round 2", "completedAt": 1758760761, "winnerId": 21370947, "slots": [{"id": "94279047-0", "entrant": {"id": 21370947, "name": "Iso.Dgaf", "participants": [{"id": 19645628, "gamerTag": "Iso.Dgaf", "prefix": null, "user": {"location": {"city": "Acworth", "state": "GA", "country": "United States"}}, "player": {"id": 4285541, "gamerTag": "Iso.Dgaf", "prefix": null, "user": {"location": {"city": "Acworth", "state": "GA", "country": "United States"}}}}]}, "standing": {"placement": 1, "stats": {"score": {"value": 2}}}}, {"id": "94279047-1", "entrant": {"id": 21371361, "name": "TTMG | IlloriVice", "participants": [{"id": 19645991, "gamerTag": "IlloriVice", "prefix": "TTMG", "user": {"location": {"city": "Atlanta", "state": "GA", "country": "United States"}}, "player": {"id": 4981273, "gamerTag": "IlloriVice", "prefix": "TTMG", "user": {"location": {"city": "Atlanta", "state": "GA", "country": "United States"}}}}]}, "standing": {"placement": 2, "stats": {"score": {"value": 0}}}}], "games": null}, {"id": 94279048, "state": 3, "round": -5, "fullRoundText": "Losers Round 2", "completedAt": 1758760898, "winnerId": 21370651, "slots": [{"id": "94279048-0", "entrant": {"id": 21361988, "name": "Bronzjo", "participants": [{"id": 19637454, "gamerTag": "Bronzjo", "prefix": null, "user": {"location": {"city": "Lula", "state": "GA", "country": "United States"}}, "player": {"id": 4622459, "gamerTag": "Bronzjo", "prefix": null, "user": {"location": {"city": "Lula", "state": "GA", "country": "United States"}}}}]}, "standing": {"placement": 2, "stats": {"score": {"value": 0}}}}, {"id": "94279048-1", "entrant": {"id": 21370651, "name": "Squidneyy", "participants": [{"id": 19645292, "gamerTag": "Squidneyy", "prefix": null, "user": {"location": {"city": "Atlanta", "state": "GA", "country": "United States"}}, "player": {"id": 4202784, "gamerTag": "Squidneyy", "prefix": null, "user": {"location": {"city": "Atlanta", "state": "GA", "country": "United States"}}}}]}, "standing": {"placement": 1, "stats": {"score": {"value": 2}}}}], "games": null}, {"id": 94279049, "state": 3, "round": -5, "fullRoundText": "Losers Round 2", "completedAt": 1758761162, "winnerId": 21364905, "slots": [{"id": "94279049-0", "entrant": {"id": 21364905, "name": "Myk_JUMP", "participants": [{"id": 19640109, "gamerTag": "Myk_JUMP", "prefix": "", "user": {"location": {"city": "Atlanta", "state": "GA", "country": "United States"}}, "player": {"id": 469002, "gamerTag": "Myk_JUMP", "prefix": "", "user": {"location": {"city": "Atlanta", "state": "GA", "country": "United States"}}}}]}, "standing": {"placement": 1, "stats": {"score": {"value": 2}}}}, {"id": "94279049-1", "entrant": {"id": 21369265, "name": "PrimeStone", "participants": [{"id": 19644007, "gamerTag": "PrimeStone", "prefix": null, "user": {"location": {"city": "Loganville", "state": "GA", "country": "United States"}}, "player": {"id": 1130909, "gamerTag": "PrimeStone", "prefix": null, "user": {"location": {"city": "Loganville", "state": "GA", "country": "United States"}}}}]}, "standing": {"placement": 2, "stats": {"score": {"value": 0}}}}], "games": null}, {"id": 94278981, "state": 3, "round": 2, "fullRoundText": "Winners Round 2", "completedAt": 1758760654, "winnerId": 21371120, "slots": [{"id": "94278981-0", "entrant": {"id": 21371120, "name": "Ghost | NOMAR", "participants": [{"id": 19645782, "gamerTag": "NOMAR", "prefix": "Ghost", "user": {"location": {"city": "Jonesboro", "state": "GA", "country": "United States"}}, "player": {"id": 427989, "gamerTag": "NOMAR", "prefix": "Ghost", "user": {"location": {"city": "Jonesboro", "state": "GA", "country": "United States"}}}}]}, "standing": {"placement": 1, "stats": {"score": {"value": 2}}}}, {"id": "94278981-1", "entrant": {"id": 21369265, "name": "PrimeStone", "participants": [{"id": 19644007, "gamerTag": "PrimeStone", "prefix": null, "user": {"location": {"city": "Loganville", "state": "GA", "country": "United States"}}, "player": {"id": 1130909, "gamerTag": "PrimeStone", "prefix": null, "user": {"location": {"city": "Loganville", "state": "GA", "country": "United States"}}}}]}, "standing": {"placement": 2, "stats": {"score": {"value": 0}}}}], "games": null}, {"id": 94278982, "state": 3, "round": 2, "fullRoundText": "Winners Round 2", "completedAt": 1758760100, "winnerId": 21371158, "slots": [{"id": "94278982-0", "entrant": {"id": 21371158, "name": "InIt2WynneIt", "participants": [{"id": 19645826, "gamerTag": "InIt2WynneIt", "prefix": "", "user": {"location": {"city": "LAWRENCEVILLE", "state": "GA", "country": "United States"}}, "player": {"id": 260407, "gamerTag": "InIt2WynneIt", "prefix": "", "user": {"location": {"city": "LAWRENCEVILLE", "state": "GA", "country": "United States"}}}}]}, "standing": {"placement": 1, "stats": {"score": {"value": 2}}}}, {"id": "94278982-1", "entrant": {"id": 21364905, "name": "Myk_JUMP", "participants": [{"id": 19640109, "gamerTag": "Myk_JUMP", "prefix": "", "user": {"location": {"city": "Atlanta", "state": "GA", "country": "United States"}}, "player": {"id": 469002, "gamerTag": "Myk_JUMP", "prefix": "", "user": {"location": {"city": "Atlanta", "state": "GA", "country": "United States"}}}}]}, "standing": {"placement": 2, "stats": {"score": {"value": 0}}}}], "games": null}, {"id": 94278983, "state": 3, "round": 2, "fullRoundText": "Winners Round 2", "completedAt": 1758760127, "winnerId": 21371174, "slots": [{"id": "94278983-0", "entrant": {"id": 21371174, "name": "Genghis D0n", "participants": [{"id": 19645839, "gamerTag": "Genghis D0n", "prefix": "", "user": {"location": {"city": "Atlanta", "state": "GA", "country": "United States"}}, "player": {"id": 724224, "gamerTag": "Genghis D0n", "prefix": "", "user": {"location": {"city": "Atlanta", "state": "GA", "country": "United States"}}}}]}, "standing": {"placement": 1, "stats": {"score": {"value": 2}}}}, {"id": "94278983-1", "entrant": {"id": 21370651, "name": "Squidneyy", "participants": [{"id": 19645292, "gamerTag": "Squidneyy", "prefix": null, "user": {"location": {"city": "Atlanta", "state": "GA", "country": "United States"}}, "player": {"id": 4202784, "gamerTag": "Squidneyy", "prefix": null, "user": {"location": {"city": "Atlanta", "state": "GA", "country": "United States"}}}}]}, "standing": {"placement": 2, "stats": {"score": {"value": 0}}}}], "games": null}, {"id": 94278984, "state": 3, "round": 2, "fullRoundText": "Winners Round 2", "completedAt": 1758760119, "winnerId": 21365394, "slots": [{"id": "94278984-0", "entrant": {"id": 21365394, "name": "Sativicaa", "participants": [{"id": 19640540, "gamerTag": "Sativicaa", "prefix": "", "user": {"location": {"city": "Atlanta", "state": null, "country": "United States"}}, "player": {"id": 1706244, "gamerTag": "Sativicaa", "prefix": "", "user": {"location": {"city": "Atlanta", "state": null, "country": "United States"}}}}]}, "standing": {"placement": 1, "stats": {"score": {"value": 2}}}}, {"id": "94278984-1", "entrant": {"id": 21361988, "name": "Bronzjo", "participants": [{"id": 19637454, "gamerTag": "Bronzjo", "prefix": null, "user": {"location": {"city": "Lula", "state": "GA", "country": "United States"}}, "player": {"id": 4622459, "gamerTag": "Bronzjo", "prefix": null, "user": {"location": {"city": "Lula", "state": "GA", "country": "United States"}}}}]}, "standing": {"placement": 2, "stats": {"score": {"value": 0}}}}], "games": null}, {"id": 94278985, "state": 3, "round": 2, "fullRoundText": "Winners Round 2", "completedAt": 1758760005, "winnerId": 21370550, "slots": [{"id": "94278985-0", "entrant": {"id": 21370550, "name": "JJBREEZE", "participants": [{"id": 19645200, "gamerTag": "JJBREEZE", "prefix": "", "user": {"location": {"city": "Atlanta", "state": "GA", "country": "United States"}}, "player": {"id": 688460, "gamerTag": "JJBREEZE", "prefix": "", "user": {"location": {"city": "Atlanta", "state": "GA", "country": "United States"}}}}]}, "standing": {"placement": 1, "stats": {"score": {"value": 2}}}}, {"id": "94278985-1", "entrant": {"id": 21371361, "name": "TTMG | IlloriVice", "participants": [{"id": 19645991, "gamerTag": "IlloriVice", "prefix": "TTMG", "user": {"location": {"city": "Atlanta", "state": "GA", "country": "United States"}}, "player": {"id": 4981273, "gamerTag": "IlloriVice", "prefix": "TTMG", "user": {"location": {"city": "Atlanta", "state": "GA", "country": "United States"}}}}]}, "standing": {"placement": 2, "stats": {"score": {"value": 0}}}}], "games": null}, {"id": 94278986, "state": 3, "round": 2, "fullRoundText": "Winners Round 2", "completedAt": 1758760180, "winnerId": 21369940, "slots": [{"id": "94278986-0", "entrant": {"id": 21370947, "name": "Iso.Dgaf", "participants": [{"id": 19645628, "gamerTag": "Iso.Dgaf", "prefix": null, "user": {"location": {"city": "Acworth", "state": "GA", "country": "United States"}}, "player": {"id": 4285541, "gamerTag": "Iso.Dgaf", "prefix": null, "user": {"location": {"city": "Acworth", "state": "GA", "country": "United States"}}}}]}, "standing": {"placement": 2, "stats": {"score": {"value": 0}}}}, {"id": "94278986-1", "entrant": {"id": 21369940, "name": "Armanisaint", "participants": [{"id": 19644648, "gamerTag": "Armanisaint", "prefix": null, "user": {"location": {"city": "Roswell", "state": "GA", "country": "United States"}}, "player": {"id": 3943806, "gamerTag": "Armanisaint", "prefix": null, "user": {"location": {"city": "Roswell", "state": "GA", "country": "United States"}}}}]}, "standing": {"placement": 1, "stats": {"score": {"value": 2}}}}], "games": null}, {"id": 94278987, "state": 3, "round": 2, "fullRoundText": "Winners Round 2", "completedAt": 1758760645, "winnerId": 21366394, "slots": [{"id": "94278987-0", "entrant": {"id": 21366394, "name": "BOLT | KhalRhaego", "participants": [{"id": 19641377, "gamerTag": "KhalRhaego", "prefix": "BOLT", "user": {"location": {"city": "Jonesboro", "state": "GA", "country": "United States"}}, "player": {"id": 4076327, "gamerTag": "KhalRhaego", "prefix": "BOLT", "user": {"location": {"city": "Jonesboro", "state": "GA", "country": "United States"}}}}]}, "standing": {"placement": 1, "stats": {"score": {"value": 2}}}}, {"id": "94278987-1", "entrant": {"id": 21371229, "name": "Fiji | 100 Latinas", "participants": [{"id": 19645885, "gamerTag": "100 Latinas", "prefix": "Fiji", "user": {"location": {"city": "Lithonia", "state": "GA", "country": "United States"}}, "player": {"id": 1890427, "gamerTag": "100 Latinas", "prefix": "Fiji", "user": {"location": {"city": "Lithonia", "state": "GA", "country": "United States"}}}}]}, "standing": {"placement": 2, "stats": {"score": {"value": 0}}}}], "games": null}]}}}