{"event": {"sets": {"pageInfo": {"totalPages": 6, "total": 78}, "nodes": [{"id": 92912751, "state": 3, "round": -5, "fullRoundText": "Losers Round 2", "completedAt": 1755824693, "winnerId": 21032656, "slots": [{"id": "92912751-0", "entrant": {"id": 21032656, "name": "GUMP2 | Woz but evil", "participants": [{"id": 19347774, "gamerTag": "Woz but evil", "prefix": "GUMP2", "user": {"location": {"city": "Avondale Estates", "state": "GA", "country": "United States"}}, "player": {"id": 225744, "gamerTag": "Z I C O", "prefix": "GUMP2", "user": {"location": {"city": "Avondale Estates", "state": "GA", "country": "United States"}}}}]}, "standing": {"placement": 1, "stats": {"score": {"value": 2}}}}, {"id": "92912751-1", "entrant": {"id": 21033546, "name": "4o4 | Sh33rZ", "participants": [{"id": 19348622, "gamerTag": "Sh33rZ", "prefix": "4o4", "user": {"location": {"city": "alpharetta", "state": "GA", "country": "United States"}}, "player": {"id": 3640465, "gamerTag": "Sh33rZ", "prefix": "4o4", "user": {"location": {"city": "alpharetta", "state": "GA", "country": "United States"}}}}]}, "standing": {"placement": 2, "stats": {"score": {"value": 0}}}}], "games": null}, {"id": 92912615, "state": 3, "round": 2, "fullRoundText": "Winners Round 2", "completedAt": 1755823938, "winnerId": 21035185, "slots": [{"id": "92912615-0", "entrant": {"id": 21035185, "name": "omega", "participants": [{"id": 19350173, "gamerTag": "omega", "prefix": "", "user": {"location": {"city": "Suwanee", "state": "GA", "country": "United States"}}, "player": {"id": 24638, "gamerTag": "omega", "prefix": "", "user": {"location": {"city": "Suwanee", "state": "GA", "country": "United States"}}}}]}, "standing": {"placement": 1, "stats": {"score": {"value": 2}}}}, {"id": "92912615-1", "entrant": {"id": 21033546, "name": "4o4 | Sh33rZ", "participants": [{"id": 19348622, "gamerTag": "Sh33rZ", "prefix": "4o4", "user": {"location": {"city": "alpharetta", "state": "GA", "country": "United States"}}, "player": {"id": 3640465, "gamerTag": "Sh33rZ", "prefix": "4o4", "user": {"location": {"city": "alpharetta", "state": "GA", "country": "United States"}}}}]}, "standing": {"placement": 2, "stats": {"score": {"value": 0}}}}], "games": null}, {"id": 92912616, "state": 3, "round": 2, "fullRoundText": "Winners Round 2", "completedAt": 1755822610, "winnerId": 21031437, "slots": [{"id": "92912616-0", "entrant": {"id": 21031437, "name": "Trout~", "participants": [{"id": 19346570, "gamerTag": "Trout~", "prefix": "", "user": {"location": {"city": "Lawrenceville", "state": "GA", "country": "United States"}}, "player": {"id": 905410, "gamerTag": "Primary Trout~", "prefix": "", "user": {"location": {"city": "Lawrenceville", "state": "GA", "country": "United States"}}}}]}, "standing": {"placement": 1, "stats": {"score": {"value": 2}}}}, {"id": "92912616-1", "entrant": {"id": 21032656, "name": "GUMP2 | Woz but evil", "participants": [{"id": 19347774, "gamerTag": "Woz but evil", "prefix": "GUMP2", "user": {"location": {"city": "Avondale Estates", "state": "GA", "country": "United States"}}, "player": {"id": 225744, "gamerTag": "Z I C O", "prefix": "GUMP2", "user": {"location": {"city": "Avondale Estates", "state": "GA", "country": "United States"}}}}]}, "standing": {"placement": 2, "stats": {"score": {"value": 0}}}}], "games": null}, {"id": 92912617, "state": 3, "round": 2, "fullRoundText": "Winners Round 2", "completedAt": 1755823846, "winnerId": 21027885, "slots": [{"id": "92912617-0", "entrant": {"id": 21027885, "name": "GUMP2 | ToxiC", "participants": [{"id": 19343227, "gamerTag": "ToxiC", "prefix": "GUMP2", "user": {"location": {"city": "Marietta", "state": "GA", "country": "United States"}}, "player": {"id": 2585804, "gamerTag": "ToxiC", "prefix": "GUMP2", "user": {"location": {"city": "Marietta", "state": "GA", "country": "United States"}}}}]}, "standing": {"placement": 1, "stats": {"score": {"value": 2}}}}, {"id": "92912617-1", "entrant": {"id": 21032900, "name": "3betFold", "participants": [{"id": 19348019, "gamerTag": "3betFold", "prefix": "", "user": {"location": {"city": null, "state": null, "country": "United States"}}, "player": {"id": 4933502, "gamerTag": "3betFold", "prefix": "", "user": {"location": {"city": null, "state": null, "country": "United States"}}}}]}, "standing": {"placement": 2, "stats": {"score": {"value": 0}}}}], "games": null}, {"id": 92912618, "state": 3, "round": 2, "fullRoundText": "Winners Round 2", "completedAt": 1755823028, "winnerId": 21030728, "slots": [{"id": "92912618-0", "entrant": {"id": 21033630, "name": "iGreg!", "participants": [{"id": 19348706, "gamerTag": "iGreg!", "prefix": "", "user": {"location": {"city": "FLOWERY BR", "state": "GA", "country": "United States"}}, "player": {"id": 509710, "gamerTag": "iGreg!", "prefix": "", "user": {"location": {"city": "FLOWERY BR", "state": "GA", "country": "United States"}}}}]}, "standing": {"placement": 2, "stats": {"score": {"value": 1}}}}, {"id": "92912618-1", "entrant": {"id": 21030728, "name": "Rain~", "participants": [{"id": 19345906, "gamerTag": "Rain~", "prefix": null, "user": {"location": {"city": "Atlanta", "state": "GA", "country": "United States"}}, "player": {"id": 4240164, "gamerTag": "Rain~", "prefix": null, "user": {"location": {"city": "Atlanta", "state": "GA", "country": "United States"}}}}]}, "standing": {"placement": 1, "stats": {"score": {"value": 2}}}}], "games": null}, {"id": 92912619, "state": 3, "round": 2, "fullRoundText": "Winners Round 2", "completedAt": 1755823605, "winnerId": 21034649, "slots": [{"id": "92912619-0", "entrant": {"id": 21034649, "name": "KumaDusk", "participants": [{"id": 19349668, "gamerTag": "KumaDusk", "prefix": "", "user": {"location": {"city": "Lawrenceville", "state": "GA", "country": "United States"}}, "player": {"id": 253909, "gamerTag": "KumaDusk", "prefix": "", "user": {"location": {"city": "Lawrenceville", "state": "GA", "country": "United States"}}}}]}, "standing": {"placement": 1, "stats": {"score": {"value": 2}}}}, {"id": "92912619-1", "entrant": {"id": 21034100, "name": "Zarek", "participants": [{"id": 19349168, "gamerTag": "Zarek", "prefix": "", "user": {"location": {"city": "Atlanta", "state": "GA", "country": "United States"}}, "player": {"id": 405682, "gamerTag": "Zarek", "prefix": "", "user": {"location": {"city": "Atlanta", "state": "GA", "country": "United States"}}}}]}, "standing": {"placement": 2, "stats": {"score": {"value": 0}}}}], "games": [{"id": 32049330, "orderNum": 1, "winnerId": 21034649, "entrant1Score": null, "entrant2Score": 0, "stage": {"id": 378, "name": "Pok\u00e9mon Stadium 2"}, "selections": [{"id": 47220465, "selectionType": "CHARACTER", "selectionValue": 1315, "entrant": {"id": 21034100}, "character": {"id": 1315, "name": "Pac-Man"}}, {"id": 47220466, "selectionType": "CHARACTER", "selectionValue": 1405, "entrant": {"id": 21034649}, "character": {"id": 1405, "name": "Mr. Game & Watch"}}]}, {"id": 32049331, "orderNum": 2, "winnerId": 21034649, "entrant1Score": null, "entrant2Score": 0, "stage": {"id": 378, "name": "Pok\u00e9mon Stadium 2"}, "selections": [{"id": 47220467, "selectionType": "CHARACTER", "selectionValue": 1315, "entrant": {"id": 21034100}, "character": {"id": 1315, "name": "Pac-Man"}}, {"id": 47220468, "selectionType": "CHARACTER", "selectionValue": 1405, "entrant": {"id": 21034649}, "character": {"id": 1405, "name": "Mr. Game & Watch"}}]}]}, {"id": 92912620, "state": 3, "round": 2, "fullRoundText": "Winners Round 2", "completedAt": 1755822634, "winnerId": 21032987, "slots": [{"id": "92912620-0", "entrant": {"id": 21032987, "name": "tristories", "participants": [{"id": 19348099, "gamerTag": "tristories", "prefix": null, "user": {"location": {"city": "ATLANTA", "state": "GA", "country": "United States"}}, "player": {"id": 1406480, "gamerTag": "tristories", "prefix": "\u03b5\u03b2", "user": {"location": {"city": "ATLANTA", "state": "GA", "country": "United States"}}}}]}, "standing": {"placement": 1, "stats": {"score": {"value": 2}}}}, {"id": "92912620-1", "entrant": {"id": 21032810, "name": "Plaid", "participants": [{"id": 19347929, "gamerTag": "Plaid", "prefix": "", "user": {"location": {"city": null, "state": null, "country": null}}, "player": {"id": 1452882, "gamerTag": "Plaid", "prefix": "", "user": {"location": {"city": null, "state": null, "country": null}}}}]}, "standing": {"placement": 2, "stats": {"score": {"value": 0}}}}], "games": null}, {"id": 92912621, "state": 3, "round": 2, "fullRoundText": "Winners Round 2", "completedAt": 1755824359, "winnerId": 20973936, "slots": [{"id": "92912621-0", "entrant": {"id": 20973936, "name": "Ave~", "participants": [{"id": 19295134, "gamerTag": "Ave~", "prefix": "", "user": {"location": {"city": null, "state": null, "country": null}}, "player": {"id": 38830, "gamerTag": "Ave~", "prefix": "", "user": {"location": {"city": null, "state": null, "country": null}}}}]}, "standing": {"placement": 1, "stats": {"score": {"value": 2}}}}, {"id": "92912621-1", "entrant": {"id": 21032658, "name": "KSU | Subzero", "participants": [{"id": 19347776, "gamerTag": "Subzero", "prefix": "KSU", "user": {"location": {"city": "Acworth", "state": "GA", "country": "United States"}}, "player": {"id": 1808159, "gamerTag": "Subzero", "prefix": "KSU", "user": {"location": {"city": "Acworth", "state": "GA", "country": "United States"}}}}]}, "standing": {"placement": 2, "stats": {"score": {"value": 0}}}}], "games": null}, {"id": 92912622, "state": 3, "round": 2, "fullRoundText": "Winners Round 2", "completedAt": 1755822862, "winnerId": 21035013, "slots": [{"id": "92912622-0", "entrant": {"id": 21035013, "name": "Barbashop", "participants": [{"id": 19349988, "gamerTag": "Barbashop", "prefix": "", "user": {"location": {"city": null, "state": null, "country": null}}, "player": {"id": 2537853, "gamerTag": "Barbashop", "prefix": "", "user": {"location": {"city": null, "state": null, "country": null}}}}]}, "standing": {"placement": 1, "stats": {"score": {"value": 2}}}}, {"id": "92912622-1", "entrant": {"id": 21029181, "name": "Dingr", "participants": [{"id": 19344485, "gamerTag": "Dingr", "prefix": "", "user": {"location": {"city": "Jacksonville", "state": "FL", "country": "United States"}}, "player": {"id": 2229568, "gamerTag": "Dingr", "prefix": "", "user": {"location": {"city": "Jacksonville", "state": "FL", "country": "United States"}}}}]}, "standing": {"placement": 2, "stats": {"score": {"value": 0}}}}], "games": null}, {"id": 92912623, "state": 3, "round": 2, "fullRoundText": "Winners Round 2", "completedAt": 1755823349, "winnerId": 21022038, "slots": [{"id": "92912623-0", "entrant": {"id": 21022038, "name": "DGS | spickles", "participants": [{"id": 19337979, "gamerTag": "spickles", "prefix": "DGS", "user": {"location": {"city": null, "state": null, "country": "United States"}}, "player": {"id": 1154793, "gamerTag": "spickles", "prefix": "DGS", "user": {"location": {"city": null, "state": null, "country": "United States"}}}}]}, "standing": {"placement": 1, "stats": {"score": {"value": 2}}}}, {"id": "92912623-1", "entrant": {"id": 21032999, "name": "promamamia", "participants": [{"id": 19348111, "gamerTag": "promamamia", "prefix": "", "user": {"location": {"city": "Alpharetta", "state": "GA", "country": "United States"}}, "player": {"id": 3548468, "gamerTag": "promamamia", "prefix": "", "user": {"location": {"city": "Alpharetta", "state": "GA", "country": "United States"}}}}]}, "standing": {"placement": 2, "stats": {"score": {"value": 0}}}}], "games": null}, {"id": 92912624, "state": 3, "round": 2, "fullRoundText": "Winners Round 2", "completedAt": 1755823986, "winnerId": 21030548, "slots": [{"id": "92912624-0", "entrant": {"id": 21034255, "name": "EVC | N8borsclub", "participants": [{"id": 19349313, "gamerTag": "N8borsclub", "prefix": "EVC", "user": {"location": {"city": "Smyrna", "state": "GA", "country": "United States"}}, "player": {"id": 1137803, "gamerTag": "N8borsclub", "prefix": "EVC", "user": {"location": {"city": "Smyrna", "state": "GA", "country": "United States"}}}}]}, "standing": {"placement": 2, "stats": {"score": {"value": 0}}}}, {"id": "92912624-1", "entrant": {"id": 21030548, "name": "Daiyan", "participants": [{"id": 19345719, "gamerTag": "Daiyan", "prefix": "", "user": {"location": {"city": "Lawrenceville", "state": "GA", "country": "United States"}}, "player": {"id": 1059715, "gamerTag": "Daiyan", "prefix": "", "user": {"location": {"city": "Lawrenceville", "state": "GA", "country": "United States"}}}}]}, "standing": {"placement": 1, "stats": {"score": {"value": 2}}}}], "games": [{"id": 32049738, "orderNum": 1, "winnerId": 21030548, "entrant1Score": 0, "entrant2Score": null, "stage": null, "selections": [{"id": 47220969, "selectionType": "CHARACTER", "selectionValue": 1746, "entrant": {"id": 21030548}, "character": {"id": 1746, "name": "Random Character"}}, {"id": 47220970, "selectionType": "CHARACTER", "selectionValue": 1746, "entrant": {"id": 21034255}, "character": {"id": 1746, "name": "Random Character"}}]}, {"id": 32049739, "orderNum": 2, "winnerId": 21030548, "entrant1Score": 0, "entrant2Score": null, "stage": null, "selections": [{"id": 47220971, "selectionType": "CHARACTER", "selectionValue": 1746, "entrant": {"id": 21030548}, "character": {"id": 1746, "name": "Random Character"}}, {"id": 47220972, "selectionType": "CHARACTER", "selectionValue": 1746, "entrant": {"id": 21034255}, "character": {"id": 1746, "name": "Random Character"}}]}]}, {"id": 92912625, "state": 3, "round": 2, "fullRoundText": "Winners Round 2", "completedAt": 1755823723, "winnerId": 21033900, "slots": [{"id": "92912625-0", "entrant": {"id": 21033900, "name": "GUMP2 | Spider", "participants": [{"id": 19348968, "gamerTag": "Spider", "prefix": "GUMP2", "user": {"location": {"city": "Atlanta", "state": "GA", "country": "United States"}}, "player": {"id": 691176, "gamerTag": "Spider", "prefix": "GUMP2", "user": {"location": {"city": "Atlanta", "state": "GA", "country": "United States"}}}}]}, "standing": {"placement": 1, "stats": {"score": {"value": 2}}}}, {"id": "92912625-1", "entrant": {"id": 21034943, "name": "UTO | Whaley", "participants": [{"id": 19349929, "gamerTag": "Whaley", "prefix": "UTO", "user": {"location": {"city": "Stone Mountain", "state": "GA", "country": "United States"}}, "player": {"id": 2016149, "gamerTag": "Whaley", "prefix": "KSU|UTO|BLZE", "user": {"location": {"city": "Stone Mountain", "state": "GA", "country": "United States"}}}}]}, "standing": {"placement": 2, "stats": {"score": {"value": 0}}}}], "games": null}, {"id": 92912626, "state": 3, "round": 2, "fullRoundText": "Winners Round 2", "completedAt": 1755833386, "winnerId": 21031445, "slots": [{"id": "92912626-0", "entrant": {"id": 21031445, "name": "RM | GUMP2 | Kr!stal:0", "participants": [{"id": 19346578, "gamerTag": "Kr!stal:0", "prefix": "RM | GUMP2", "user": {"location": {"city": "Lawrenceville", "state": "GA", "country": "United States"}}, "player": {"id": 2409815, "gamerTag": "AO ASHI SEASON 2 2026", "prefix": "RM | GUMP2", "user": {"location": {"city": "Lawrenceville", "state": "GA", "country": "United States"}}}}]}, "standing": {"placement": 1, "stats": {"score": {"value": 2}}}}, {"id": "92912626-1", "entrant": {"id": 21034836, "name": "GUMP2 | RoKu", "participants": [{"id": 19349846, "gamerTag": "RoKu", "prefix": "GUMP2", "user": {"location": {"city": "Peachtree Corners", "state": "GA", "country": "United States"}}, "player": {"id": 1107285, "gamerTag": "RoKu", "prefix": "TFT", "user": {"location": {"city": "Peachtree Corners", "state": "GA", "country": "United States"}}}}]}, "standing": {"placement": 2, "stats": {"score": {"value": 1}}}}], "games": [{"id": 32055446, "orderNum": 1, "winnerId": 21031445, "entrant1Score": null, "entrant2Score": 0, "stage": null, "selections": [{"id": 47230240, "selectionType": "CHARACTER", "selectionValue": 1766, "entrant": {"id": 21031445}, "character": {"id": 1766, "name": "Steve"}}, {"id": 47230241, "selectionType": "CHARACTER", "selectionValue": 1328, "entrant": {"id": 21034836}, "character": {"id": 1328, "name": "Samus"}}]}, {"id": 32055447, "orderNum": 2, "winnerId": 21034836, "entrant1Score": 0, "entrant2Score": null, "stage": null, "selections": [{"id": 47230242, "selectionType": "CHARACTER", "selectionValue": 1766, "entrant": {"id": 21031445}, "character": {"id": 1766, "name": "Steve"}}, {"id": 47230243, "selectionType": "CHARACTER", "selectionValue": 1328, "entrant": {"id": 21034836}, "character": {"id": 1328, "name": "Samus"}}]}, {"id": 32055448, "orderNum": 3, "winnerId": 21031445, "entrant1Score": null, "entrant2Score": 0, "stage": null, "selections": [{"id": 47230244, "selectionType": "CHARACTER", "selectionValue": 1766, "entrant": {"id": 21031445}, "character": {"id": 1766, "name": "Steve"}}, {"id": 47230245, "selectionType": "CHARACTER", "selectionValue": 1328, "entrant": {"id": 21034836}, "character": {"id": 1328, "name": "Samus"}}]}]}, {"id": 92912627, "state": 3, "round": 2, "fullRoundText": "Winners Round 2", "completedAt": 1755824011, "winnerId": 21034385, "slots": [{"id": "92912627-0", "entrant": {"id": 21032231, "name": "The Simpsons | Ryu from Streets", "participants": [{"id": 19347351, "gamerTag": "Ryu from Streets", "prefix": "The Simpsons", "user": {"location": {"city": null, "state": null, "country": null}}, "player": {"id": 2348605, "gamerTag": "Ryu from Streets", "prefix": "GUMP2", "user": {"location": {"city": null, "state": null, "country": null}}}}]}, "standing": {"placement": 2, "stats": {"score": {"value": 1}}}}, {"id": "92912627-1", "entrant": {"id": 21034385, "name": "AO5 | Korok", "participants": [{"id": 19349434, "gamerTag": "Korok", "prefix": "AO5", "user": {"location": {"city": "Decatur", "state": "GA", "country": "United States"}}, "player": {"id": 2697934, "gamerTag": "Korok", "prefix": "AO5", "user": {"location": {"city": "Decatur", "state": "GA", "country": "United States"}}}}]}, "standing": {"placement": 1, "stats": {"score": {"value": 2}}}}], "games": null}, {"id": 92912628, "state": 3, "round": 2, "fullRoundText": "Winners Round 2", "completedAt": 1755823792, "winnerId": 21032787, "slots": [{"id": "92912628-0", "entrant": {"id": 21032787, "name": "CFL | Benji", "participants": [{"id": 19347910, "gamerTag": "Benji", "prefix": "CFL", "user": {"location": {"city": "Orlando", "state": "FL", "country": "United States"}}, "player": {"id": 2990255, "gamerTag": "Benji", "prefix": "CFL", "user": {"location": {"city": "Orlando", "state": "FL", "country": "United States"}}}}]}, "standing": {"placement": 1, "stats": {"score": {"value": 2}}}}, {"id": "92912628-1", "entrant": {"id": 21033427, "name": "Typical!", "participants": [{"id": 19348513, "gamerTag": "Typical!", "prefix": "", "user": {"location": {"city": "Cumming", "state": "GA", "country": "United States"}}, "player": {"id": 1227171, "gamerTag": "Typical!", "prefix": "", "user": {"location": {"city": "Cumming", "state": "GA", "country": "United States"}}}}]}, "standing": {"placement": 2, "stats": {"score": {"value": 0}}}}], "games": null}]}}}