{"event": {"sets": {"pageInfo": {"totalPages": 1, "total": 8}, "nodes": [{"id": 93285890, "state": 3, "round": 4, "fullRoundText": "Grand Final", "completedAt": 1756587788, "winnerId": 21119424, "slots": [{"id": "93285890-0", "entrant": {"id": 21119424, "name": "DARE | RoboCop", "participants": [{"id": 19425859, "gamerTag": "RoboCop", "prefix": "DARE", "user": {"location": {"city": "Chattanooga", "state": "TN", "country": "United States"}}, "player": {"id": 534974, "gamerTag": "RoboCop", "prefix": "DARE", "user": {"location": {"city": "Chattanooga", "state": "TN", "country": "United States"}}}}]}, "standing": {"placement": 1, "stats": {"score": {"value": 3}}}}, {"id": "93285890-1", "entrant": {"id": 21108884, "name": "Althalos", "participants": [{"id": 19416547, "gamerTag": "Althalos", "prefix": null, "user": {"location": {"city": "Chattanooga", "state": "TN", "country": "United States"}}, "player": {"id": 4496902, "gamerTag": "Althalos", "prefix": null, "user": {"location": {"city": "Chattanooga", "state": "TN", "country": "United States"}}}}]}, "standing": {"placement": 2, "stats": {"score": {"value": 2}}}}], "games": null}, {"id": 93285889, "state": 3, "round": 3, "fullRoundText": "Winners Final", "completedAt": 1756586147, "winnerId": 21119424, "slots": [{"id": "93285889-0", "entrant": {"id": 21108884, "name": "Althalos", "participants": [{"id": 19416547, "gamerTag": "Althalos", "prefix": null, "user": {"location": {"city": "Chattanooga", "state": "TN", "country": "United States"}}, "player": {"id": 4496902, "gamerTag": "Althalos", "prefix": null, "user": {"location": {"city": "Chattanooga", "state": "TN", "country": "United States"}}}}]}, "standing": {"placement": 2, "stats": {"score": {"value": 2}}}}, {"id": "93285889-1", "entrant": {"id": 21119424, "name": "DARE | RoboCop", "participants": [{"id": 19425859, "gamerTag": "RoboCop", "prefix": "DARE", "user": {"location": {"city": "Chattanooga", "state": "TN", "country": "United States"}}, "player": {"id": 534974, "gamerTag": "RoboCop", "prefix": "DARE", "user": {"location": {"city": "Chattanooga", "state": "TN", "country": "United States"}}}}]}, "standing": {"placement": 1, "stats": {"score": {"value": 3}}}}], "games": null}, {"id": 93285905, "state": 3, "round": -6, "fullRoundText": "Losers Final", "completedAt": 1756586852, "winnerId": 21108884, "slots": [{"id": "93285905-0", "entrant": {"id": 21108884, "name": "Althalos", "participants": [{"id": 19416547, "gamerTag": "Althalos", "prefix": null, "user": {"location": {"city": "Chattanooga", "state": "TN", "country": "United States"}}, "player": {"id": 4496902, "gamerTag": "Althalos", "prefix": null, "user": {"location": {"city": "Chattanooga", "state": "TN", "country": "United States"}}}}]}, "standing": {"placement": 1, "stats": {"score": {"value": 3}}}}, {"id": "93285905-1", "entrant": {"id": 21119427, "name": "goop", "participants": [{"id": 19410073, "gamerTag": "goop", "prefix": "", "user": {"location": {"city": "Chattanooga", "state": "TN", "country": "United States"}}, "player": {"id": 3136059, "gamerTag": "goop", "prefix": "", "user": {"location": {"city": "Chattanooga", "state": "TN", "country": "United States"}}}}]}, "standing": {"placement": 2, "stats": {"score": {"value": 1}}}}], "games": null}, {"id": 93285904, "state": 3, "round": -5, "fullRoundText": "Losers Semi-Final", "completedAt": 1756586140, "winnerId": 21119427, "slots": [{"id": "93285904-0", "entrant": {"id": 21119427, "name": "goop", "participants": [{"id": 19410073, "gamerTag": "goop", "prefix": "", "user": {"location": {"city": "Chattanooga", "state": "TN", "country": "United States"}}, "player": {"id": 3136059, "gamerTag": "goop", "prefix": "", "user": {"location": {"city": "Chattanooga", "state": "TN", "country": "United States"}}}}]}, "standing": {"placement": 1, "stats": {"score": {"value": 2}}}}, {"id": "93285904-1", "entrant": {"id": 21119395, "name": "TheShinyShiba", "participants": [{"id": 19425093, "gamerTag": "TheShinyShiba", "prefix": null, "user": {"location": {"city": "Ringgold", "state": "GA", "country": "United States"}}, "player": {"id": 2765413, "gamerTag": "TheShinyShiba", "prefix": null, "user": {"location": {"city": "Ringgold", "state": "GA", "country": "United States"}}}}]}, "standing": {"placement": 2, "stats": {"score": {"value": 0}}}}], "games": null}, {"id": 93285887, "state": 3, "round": 2, "fullRoundText": "Winners Semi-Final", "completedAt": 1756584844, "winnerId": 21108884, "slots": [{"id": "93285887-0", "entrant": {"id": 21119395, "name": "TheShinyShiba", "participants": [{"id": 19425093, "gamerTag": "TheShinyShiba", "prefix": null, "user": {"location": {"city": "Ringgold", "state": "GA", "country": "United States"}}, "player": {"id": 2765413, "gamerTag": "TheShinyShiba", "prefix": null, "user": {"location": {"city": "Ringgold", "state": "GA", "country": "United States"}}}}]}, "standing": {"placement": 2, "stats": {"score": {"value": 1}}}}, {"id": "93285887-1", "entrant": {"id": 21108884, "name": "Althalos", "participants": [{"id": 19416547, "gamerTag": "Althalos", "prefix": null, "user": {"location": {"city": "Chattanooga", "state": "TN", "country": "United States"}}, "player": {"id": 4496902, "gamerTag": "Althalos", "prefix": null, "user": {"location": {"city": "Chattanooga", "state": "TN", "country": "United States"}}}}]}, "standing": {"placement": 1, "stats": {"score": {"value": 2}}}}], "games": null}, {"id": 93285888, "state": 3, "round": 2, "fullRoundText": "Winners Semi-Final", "completedAt": 1756583689, "winnerId": 21119424, "slots": [{"id": "93285888-0", "entrant": {"id": 21119424, "name": "DARE | RoboCop", "participants": [{"id": 19425859, "gamerTag": "RoboCop", "prefix": "DARE", "user": {"location": {"city": "Chattanooga", "state": "TN", "country": "United States"}}, "player": {"id": 534974, "gamerTag": "RoboCop", "prefix": "DARE", "user": {"location": {"city": "Chattanooga", "state": "TN", "country": "United States"}}}}]}, "standing": {"placement": 1, "stats": {"score": {"value": 2}}}}, {"id": "93285888-1", "entrant": {"id": 21119427, "name": "goop", "participants": [{"id": 19410073, "gamerTag": "goop", "prefix": "", "user": {"location": {"city": "Chattanooga", "state": "TN", "country": "United States"}}, "player": {"id": 3136059, "gamerTag": "goop", "prefix": "", "user": {"location": {"city": "Chattanooga", "state": "TN", "country": "United States"}}}}]}, "standing": {"placement": 2, "stats": {"score": {"value": 0}}}}], "games": null}, {"id": 93285902, "state": 3, "round": -4, "fullRoundText": "Losers Quarter-Final", "completedAt": 1756584847, "winnerId": 21119427, "slots": [{"id": "93285902-0", "entrant": {"id": 21119427, "name": "goop", "participants": [{"id": 19410073, "gamerTag": "goop", "prefix": "", "user": {"location": {"city": "Chattanooga", "state": "TN", "country": "United States"}}, "player": {"id": 3136059, "gamerTag": "goop", "prefix": "", "user": {"location": {"city": "Chattanooga", "state": "TN", "country": "United States"}}}}]}, "standing": {"placement": 1, "stats": {"score": {"value": 2}}}}, {"id": "93285902-1", "entrant": {"id": 21120734, "name": "roadkillrambo", "participants": [{"id": 19427042, "gamerTag": "roadkillrambo", "prefix": "", "user": {"location": {"city": "Chattanooga", "state": "TN", "country": "United States"}}, "player": {"id": 1157554, "gamerTag": "rambeezy", "prefix": "", "user": {"location": {"city": "Chattanooga", "state": "TN", "country": "United States"}}}}]}, "standing": {"placement": 2, "stats": {"score": {"value": 0}}}}], "games": null}, {"id": 93285884, "state": 3, "round": 1, "fullRoundText": "Winners Quarter-Final", "completedAt": 1756583224, "winnerId": 21108884, "slots": [{"id": "93285884-0", "entrant": {"id": 21120734, "name": "roadkillrambo", "participants": [{"id": 19427042, "gamerTag": "roadkillrambo", "prefix": "", "user": {"location": {"city": "Chattanooga", "state": "TN", "country": "United States"}}, "player": {"id": 1157554, "gamerTag": "rambeezy", "prefix": "", "user": {"location": {"city": "Chattanooga", "state": "TN", "country": "United States"}}}}]}, "standing": {"placement": 2, "stats": {"score": {"value": 0}}}}, {"id": "93285884-1", "entrant": {"id": 21108884, "name": "Althalos", "participants": [{"id": 19416547, "gamerTag": "Althalos", "prefix": null, "user": {"location": {"city": "Chattanooga", "state": "TN", "country": "United States"}}, "player": {"id": 4496902, "gamerTag": "Althalos", "prefix": null, "user": {"location": {"city": "Chattanooga", "state": "TN", "country": "United States"}}}}]}, "standing": {"placement": 1, "stats": {"score": {"value": 2}}}}], "games": null}]}}}