{"event": {"sets": {"pageInfo": {"totalPages": 4, "total": 56}, "nodes": [{"id": 93794489, "state": 3, "round": 3, "fullRoundText": "Grand Final", "completedAt": 1757735780, "winnerId": 21247566, "slots": [{"id": "93794489-0", "entrant": {"id": 21247566, "name": "Barbashop", "participants": [{"id": 19539075, "gamerTag": "Barbashop", "prefix": "", "user": {"location": {"city": null, "state": null, "country": null}}, "player": {"id": 2537853, "gamerTag": "Barbashop", "prefix": "", "user": {"location": {"city": null, "state": null, "country": null}}}}]}, "standing": {"placement": 1, "stats": {"score": {"value": 3}}}}, {"id": "93794489-1", "entrant": {"id": 21245556, "name": "CFL | Benji", "participants": [{"id": 19537210, "gamerTag": "Benji", "prefix": "CFL", "user": {"location": {"city": "Orlando", "state": "FL", "country": "United States"}}, "player": {"id": 2990255, "gamerTag": "Benji", "prefix": "CFL", "user": {"location": {"city": "Orlando", "state": "FL", "country": "United States"}}}}]}, "standing": {"placement": 2, "stats": {"score": {"value": 1}}}}], "games": null}, {"id": 93792859, "state": 3, "round": 3, "fullRoundText": "Winners Semi-Final", "completedAt": 1757728804, "winnerId": 21245556, "slots": [{"id": "93792859-0", "entrant": {"id": 21245556, "name": "CFL | Benji", "participants": [{"id": 19537210, "gamerTag": "Benji", "prefix": "CFL", "user": {"location": {"city": "Orlando", "state": "FL", "country": "United States"}}, "player": {"id": 2990255, "gamerTag": "Benji", "prefix": "CFL", "user": {"location": {"city": "Orlando", "state": "FL", "country": "United States"}}}}]}, "standing": {"placement": 1, "stats": {"score": {"value": 2}}}}, {"id": "93792859-1", "entrant": {"id": 21248727, "name": "FreeDubs", "participants": [{"id": 19540133, "gamerTag": "FreeDubs", "prefix": "", "user": {"location": {"city": "Atlanta", "state": null, "country": "United States"}}, "player": {"id": 4888408, "gamerTag": "FreeDubs", "prefix": "", "user": {"location": {"city": "Atlanta", "state": null, "country": "United States"}}}}]}, "standing": {"placement": 2, "stats": {"score": {"value": 0}}}}], "games": null}, {"id": 93792860, "state": 3, "round": 3, "fullRoundText": "Winners Semi-Final", "completedAt": 1757727591, "winnerId": 21222121, "slots": [{"id": "93792860-0", "entrant": {"id": 21222121, "name": "Dubz", "participants": [{"id": 19516563, "gamerTag": "Dubz", "prefix": "", "user": {"location": {"city": "Grayson", "state": "GA", "country": "United States"}}, "player": {"id": 22583, "gamerTag": "Dubz", "prefix": "", "user": {"location": {"city": "Grayson", "state": "GA", "country": "United States"}}}}]}, "standing": {"placement": 1, "stats": {"score": {"value": 2}}}}, {"id": "93792860-1", "entrant": {"id": 21246698, "name": "Nurikami", "participants": [{"id": 19538249, "gamerTag": "Nurikami", "prefix": null, "user": {"location": {"city": "Sandy Springs", "state": "GA", "country": "United States"}}, "player": {"id": 2894467, "gamerTag": "Nurikami", "prefix": null, "user": {"location": {"city": "Sandy Springs", "state": "GA", "country": "United States"}}}}]}, "standing": {"placement": 2, "stats": {"score": {"value": 0}}}}], "games": null}, {"id": 93793074, "state": 3, "round": 3, "fullRoundText": "Winners Semi-Final", "completedAt": 1757726864, "winnerId": 21247566, "slots": [{"id": "93793074-0", "entrant": {"id": 21247566, "name": "Barbashop", "participants": [{"id": 19539075, "gamerTag": "Barbashop", "prefix": "", "user": {"location": {"city": null, "state": null, "country": null}}, "player": {"id": 2537853, "gamerTag": "Barbashop", "prefix": "", "user": {"location": {"city": null, "state": null, "country": null}}}}]}, "standing": {"placement": 1, "stats": {"score": {"value": 2}}}}, {"id": "93793074-1", "entrant": {"id": 21246144, "name": "WDKL MTM | D*ron", "participants": [{"id": 19537735, "gamerTag": "D*ron", "prefix": "WDKL MTM", "user": {"location": {"city": "Smyrna", "state": "GA", "country": "United States"}}, "player": {"id": 516047, "gamerTag": "D*ron", "prefix": "WDKL MTM", "user": {"location": {"city": "Smyrna", "state": "GA", "country": "United States"}}}}]}, "standing": {"placement": 2, "stats": {"score": {"value": 0}}}}], "games": null}, {"id": 93793075, "state": 3, "round": 3, "fullRoundText": "Winners Semi-Final", "completedAt": 1757728036, "winnerId": 21231241, "slots": [{"id": "93793075-0", "entrant": {"id": 21231241, "name": "TFT | Frank", "participants": [{"id": 19524445, "gamerTag": "Frank", "prefix": "TFT", "user": {"location": {"city": "Doraville", "state": "GA", "country": "United States"}}, "player": {"id": 1227401, "gamerTag": "Terry Labonte", "prefix": "TFT", "user": {"location": {"city": "Doraville", "state": "GA", "country": "United States"}}}}]}, "standing": {"placement": 1, "stats": {"score": {"value": 2}}}}, {"id": "93793075-1", "entrant": {"id": 21245364, "name": "Kid Kaioken", "participants": [{"id": 19537054, "gamerTag": "Kid Kaioken", "prefix": "", "user": {"location": {"city": "Norcross", "state": "GA", "country": "United States"}}, "player": {"id": 2730912, "gamerTag": "Kid Kaioken", "prefix": "", "user": {"location": {"city": "Norcross", "state": "GA", "country": "United States"}}}}]}, "standing": {"placement": 2, "stats": {"score": {"value": 0}}}}], "games": null}, {"id": 93793106, "state": 3, "round": -6, "fullRoundText": "Losers Quarter-Final", "completedAt": 1757728568, "winnerId": 21245364, "slots": [{"id": "93793106-0", "entrant": {"id": 21245364, "name": "Kid Kaioken", "participants": [{"id": 19537054, "gamerTag": "Kid Kaioken", "prefix": "", "user": {"location": {"city": "Norcross", "state": "GA", "country": "United States"}}, "player": {"id": 2730912, "gamerTag": "Kid Kaioken", "prefix": "", "user": {"location": {"city": "Norcross", "state": "GA", "country": "United States"}}}}]}, "standing": {"placement": 1, "stats": {"score": {"value": 2}}}}, {"id": "93793106-1", "entrant": {"id": 21249353, "name": "RAMS | RussianJesus", "participants": [{"id": 19540752, "gamerTag": "RussianJesus", "prefix": "RAMS", "user": {"location": {"city": "Atlanta", "state": "GA", "country": "United States"}}, "player": {"id": 1140567, "gamerTag": "RussianJesus", "prefix": "RAMS", "user": {"location": {"city": "Atlanta", "state": "GA", "country": "United States"}}}}]}, "standing": {"placement": 2, "stats": {"score": {"value": 0}}}}], "games": null}, {"id": 93792890, "state": 3, "round": -6, "fullRoundText": "Losers Quarter-Final", "completedAt": 1757729401, "winnerId": 21248727, "slots": [{"id": "93792890-0", "entrant": {"id": 21248727, "name": "FreeDubs", "participants": [{"id": 19540133, "gamerTag": "FreeDubs", "prefix": "", "user": {"location": {"city": "Atlanta", "state": null, "country": "United States"}}, "player": {"id": 4888408, "gamerTag": "FreeDubs", "prefix": "", "user": {"location": {"city": "Atlanta", "state": null, "country": "United States"}}}}]}, "standing": {"placement": 1, "stats": {"score": {"value": 2}}}}, {"id": "93792890-1", "entrant": {"id": 21243981, "name": "MTM | Bob Weiner", "participants": [{"id": 19535902, "gamerTag": "Bob Weiner", "prefix": "MTM", "user": {"location": {"city": "Kennesaw", "state": "GA", "country": "United States"}}, "player": {"id": 2142601, "gamerTag": "Bob Weiner", "prefix": "MTM", "user": {"location": {"city": "Kennesaw", "state": "GA", "country": "United States"}}}}]}, "standing": {"placement": 2, "stats": {"score": {"value": 0}}}}], "games": null}, {"id": 93792891, "state": 3, "round": -6, "fullRoundText": "Losers Quarter-Final", "completedAt": 1757729839, "winnerId": 21246698, "slots": [{"id": "93792891-0", "entrant": {"id": 21246698, "name": "Nurikami", "participants": [{"id": 19538249, "gamerTag": "Nurikami", "prefix": null, "user": {"location": {"city": "Sandy Springs", "state": "GA", "country": "United States"}}, "player": {"id": 2894467, "gamerTag": "Nurikami", "prefix": null, "user": {"location": {"city": "Sandy Springs", "state": "GA", "country": "United States"}}}}]}, "standing": {"placement": 1, "stats": {"score": {"value": 2}}}}, {"id": "93792891-1", "entrant": {"id": 21239235, "name": "RAMS | XL Dukie AF", "participants": [{"id": 19531805, "gamerTag": "XL Dukie AF", "prefix": "RAMS", "user": {"location": {"city": "Peachtree Corners", "state": "GA", "country": "United States"}}, "player": {"id": 2374690, "gamerTag": "XL Dukie AF", "prefix": "RAMS", "user": {"location": {"city": "Peachtree Corners", "state": "GA", "country": "United States"}}}}]}, "standing": {"placement": 2, "stats": {"score": {"value": 0}}}}], "games": null}, {"id": 93793105, "state": 3, "round": -6, "fullRoundText": "Losers Quarter-Final", "completedAt": 1757729921, "winnerId": 21246144, "slots": [{"id": "93793105-0", "entrant": {"id": 21246144, "name": "WDKL MTM | D*ron", "participants": [{"id": 19537735, "gamerTag": "D*ron", "prefix": "WDKL MTM", "user": {"location": {"city": "Smyrna", "state": "GA", "country": "United States"}}, "player": {"id": 516047, "gamerTag": "D*ron", "prefix": "WDKL MTM", "user": {"location": {"city": "Smyrna", "state": "GA", "country": "United States"}}}}]}, "standing": {"placement": 1, "stats": {"score": {"value": 2}}}}, {"id": "93793105-1", "entrant": {"id": 21248850, "name": "Gush", "participants": [{"id": 19540254, "gamerTag": "Gush", "prefix": "", "user": {"location": {"city": "Atlanta", "state": "GA", "country": "United States"}}, "player": {"id": 1246820, "gamerTag": "Gush", "prefix": "", "user": {"location": {"city": "Atlanta", "state": "GA", "country": "United States"}}}}]}, "standing": {"placement": 2, "stats": {"score": {"value": 1}}}}], "games": null}, {"id": 93792888, "state": 3, "round": -5, "fullRoundText": "Losers Round 3", "completedAt": 1757727884, "winnerId": 21243981, "slots": [{"id": "93792888-0", "entrant": {"id": 21248926, "name": "Tilted", "participants": [{"id": 19540336, "gamerTag": "Tilted", "prefix": null, "user": {"location": {"city": "Norcross", "state": "GA", "country": "United States"}}, "player": {"id": 2377635, "gamerTag": "Tilted", "prefix": null, "user": {"location": {"city": "Norcross", "state": "GA", "country": "United States"}}}}]}, "standing": {"placement": 2, "stats": {"score": {"value": 0}}}}, {"id": "93792888-1", "entrant": {"id": 21243981, "name": "MTM | Bob Weiner", "participants": [{"id": 19535902, "gamerTag": "Bob Weiner", "prefix": "MTM", "user": {"location": {"city": "Kennesaw", "state": "GA", "country": "United States"}}, "player": {"id": 2142601, "gamerTag": "Bob Weiner", "prefix": "MTM", "user": {"location": {"city": "Kennesaw", "state": "GA", "country": "United States"}}}}]}, "standing": {"placement": 1, "stats": {"score": {"value": 2}}}}], "games": null}, {"id": 93792889, "state": 3, "round": -5, "fullRoundText": "Losers Round 3", "completedAt": 1757729295, "winnerId": 21239235, "slots": [{"id": "93792889-0", "entrant": {"id": 21244057, "name": "Heart", "participants": [{"id": 19535966, "gamerTag": "Heart", "prefix": "", "user": {"location": {"city": "Atlanta", "state": "GA", "country": "United States"}}, "player": {"id": 4287822, "gamerTag": "Heart", "prefix": "", "user": {"location": {"city": "Atlanta", "state": "GA", "country": "United States"}}}}]}, "standing": {"placement": 2, "stats": {"score": {"value": 0}}}}, {"id": "93792889-1", "entrant": {"id": 21239235, "name": "RAMS | XL Dukie AF", "participants": [{"id": 19531805, "gamerTag": "XL Dukie AF", "prefix": "RAMS", "user": {"location": {"city": "Peachtree Corners", "state": "GA", "country": "United States"}}, "player": {"id": 2374690, "gamerTag": "XL Dukie AF", "prefix": "RAMS", "user": {"location": {"city": "Peachtree Corners", "state": "GA", "country": "United States"}}}}]}, "standing": {"placement": 1, "stats": {"score": {"value": 2}}}}], "games": null}, {"id": 93793103, "state": 3, "round": -5, "fullRoundText": "Losers Round 3", "completedAt": 1757728939, "winnerId": 21248850, "slots": [{"id": "93793103-0", "entrant": {"id": 21243567, "name": "Mrbray30", "participants": [{"id": 19535542, "gamerTag": "Mrbray30", "prefix": "", "user": {"location": {"city": "Atlanta", "state": "GA", "country": "United States"}}, "player": {"id": 4664413, "gamerTag": "Mrbray30", "prefix": "", "user": {"location": {"city": "Atlanta", "state": "GA", "country": "United States"}}}}]}, "standing": {"placement": 2, "stats": {"score": {"value": 0}}}}, {"id": "93793103-1", "entrant": {"id": 21248850, "name": "Gush", "participants": [{"id": 19540254, "gamerTag": "Gush", "prefix": "", "user": {"location": {"city": "Atlanta", "state": "GA", "country": "United States"}}, "player": {"id": 1246820, "gamerTag": "Gush", "prefix": "", "user": {"location": {"city": "Atlanta", "state": "GA", "country": "United States"}}}}]}, "standing": {"placement": 1, "stats": {"score": {"value": 2}}}}], "games": null}, {"id": 93793104, "state": 3, "round": -5, "fullRoundText": "Losers Round 3", "completedAt": 1757727977, "winnerId": 21249353, "slots": [{"id": "93793104-0", "entrant": {"id": 21249582, "name": "TnT | Monologgue", "participants": [{"id": 19540939, "gamerTag": "Monologgue", "prefix": "TnT", "user": {"location": {"city": "Atlanta", "state": "GA", "country": "United States"}}, "player": {"id": 1135679, "gamerTag": "Monologgue", "prefix": "TnT", "user": {"location": {"city": "Atlanta", "state": "GA", "country": "United States"}}}}]}, "standing": {"placement": 2, "stats": {"score": {"value": 0}}}}, {"id": "93793104-1", "entrant": {"id": 21249353, "name": "RAMS | RussianJesus", "participants": [{"id": 19540752, "gamerTag": "RussianJesus", "prefix": "RAMS", "user": {"location": {"city": "Atlanta", "state": "GA", "country": "United States"}}, "player": {"id": 1140567, "gamerTag": "RussianJesus", "prefix": "RAMS", "user": {"location": {"city": "Atlanta", "state": "GA", "country": "United States"}}}}]}, "standing": {"placement": 1, "stats": {"score": {"value": 2}}}}], "games": null}, {"id": 93794488, "state": 3, "round": 2, "fullRoundText": "Winners Final", "completedAt": 1757731402, "winnerId": 21247566, "slots": [{"id": "93794488-0", "entrant": {"id": 21247566, "name": "Barbashop", "participants": [{"id": 19539075, "gamerTag": "Barbashop", "prefix": "", "user": {"location": {"city": null, "state": null, "country": null}}, "player": {"id": 2537853, "gamerTag": "Barbashop", "prefix": "", "user": {"location": {"city": null, "state": null, "country": null}}}}]}, "standing": {"placement": 1, "stats": {"score": {"value": 3}}}}, {"id": "93794488-1", "entrant": {"id": 21222121, "name": "Dubz", "participants": [{"id": 19516563, "gamerTag": "Dubz", "prefix": "", "user": {"location": {"city": "Grayson", "state": "GA", "country": "United States"}}, "player": {"id": 22583, "gamerTag": "Dubz", "prefix": "", "user": {"location": {"city": "Grayson", "state": "GA", "country": "United States"}}}}]}, "standing": {"placement": 2, "stats": {"score": {"value": 2}}}}], "games": null}, {"id": 93792855, "state": 3, "round": 2, "fullRoundText": "Winners Quarter-Final", "completedAt": 1757726941, "winnerId": 21245556, "slots": [{"id": "93792855-0", "entrant": {"id": 21245556, "name": "CFL | Benji", "participants": [{"id": 19537210, "gamerTag": "Benji", "prefix": "CFL", "user": {"location": {"city": "Orlando", "state": "FL", "country": "United States"}}, "player": {"id": 2990255, "gamerTag": "Benji", "prefix": "CFL", "user": {"location": {"city": "Orlando", "state": "FL", "country": "United States"}}}}]}, "standing": {"placement": 1, "stats": {"score": {"value": 2}}}}, {"id": "93792855-1", "entrant": {"id": 21239235, "name": "RAMS | XL Dukie AF", "participants": [{"id": 19531805, "gamerTag": "XL Dukie AF", "prefix": "RAMS", "user": {"location": {"city": "Peachtree Corners", "state": "GA", "country": "United States"}}, "player": {"id": 2374690, "gamerTag": "XL Dukie AF", "prefix": "RAMS", "user": {"location": {"city": "Peachtree Corners", "state": "GA", "country": "United States"}}}}]}, "standing": {"placement": 2, "stats": {"score": {"value": 0}}}}], "games": null}]}}}