{"event": {"sets": {"pageInfo": {"totalPages": 1, "total": 3}, "nodes": [{"id": 91550809, "state": 3, "round": 3, "fullRoundText": "Round 3", "completedAt": 1752888280, "winnerId": 20629647, "slots": [{"id": "91550809-0", "entrant": {"id": 20629647, "name": "SE UNI | Shuri", "participants": [{"id": 18990850, "gamerTag": "Shuri", "prefix": "SE UNI", "user": {"location": {"city": "Bonaire", "state": "GA", "country": "United States"}}, "player": {"id": 183894, "gamerTag": "Shuri", "prefix": "SE UNI", "user": {"location": {"city": "Bonaire", "state": "GA", "country": "United States"}}}}]}, "standing": {"placement": 1, "stats": {"score": {"value": 3}}}}, {"id": "91550809-1", "entrant": {"id": 20731670, "name": "Astroh", "participants": [{"id": 18873735, "gamerTag": "Astroh", "prefix": null, "user": {"location": {"city": "Byron", "state": "GA", "country": "United States"}}, "player": {"id": 1329801, "gamerTag": "Astroh", "prefix": null, "user": {"location": {"city": "Byron", "state": "GA", "country": "United States"}}}}]}, "standing": {"placement": 2, "stats": {"score": {"value": 0}}}}], "games": null}, {"id": 91550808, "state": 3, "round": 2, "fullRoundText": "Round 2", "completedAt": 1752887582, "winnerId": 20629647, "slots": [{"id": "91550808-0", "entrant": {"id": 20629647, "name": "SE UNI | Shuri", "participants": [{"id": 18990850, "gamerTag": "Shuri", "prefix": "SE UNI", "user": {"location": {"city": "Bonaire", "state": "GA", "country": "United States"}}, "player": {"id": 183894, "gamerTag": "Shuri", "prefix": "SE UNI", "user": {"location": {"city": "Bonaire", "state": "GA", "country": "United States"}}}}]}, "standing": {"placement": 1, "stats": {"score": {"value": 3}}}}, {"id": "91550808-1", "entrant": {"id": 20733271, "name": "SON-Reboot | SirRetro08", "participants": [{"id": 18880359, "gamerTag": "SirRetro08", "prefix": "SON-Reboot", "user": {"location": {"city": "Macon", "state": "GA", "country": "United States"}}, "player": {"id": 138105, "gamerTag": "SirRetro08", "prefix": "SON-Reboot", "user": {"location": {"city": "Macon", "state": "GA", "country": "United States"}}}}]}, "standing": {"placement": 2, "stats": {"score": {"value": 0}}}}], "games": null}, {"id": 91550807, "state": 3, "round": 1, "fullRoundText": "Round 1", "completedAt": 1752887958, "winnerId": 20731670, "slots": [{"id": "91550807-0", "entrant": {"id": 20731670, "name": "Astroh", "participants": [{"id": 18873735, "gamerTag": "Astroh", "prefix": null, "user": {"location": {"city": "Byron", "state": "GA", "country": "United States"}}, "player": {"id": 1329801, "gamerTag": "Astroh", "prefix": null, "user": {"location": {"city": "Byron", "state": "GA", "country": "United States"}}}}]}, "standing": {"placement": 1, "stats": {"score": {"value": 3}}}}, {"id": "91550807-1", "entrant": {"id": 20733271, "name": "SON-Reboot | SirRetro08", "participants": [{"id": 18880359, "gamerTag": "SirRetro08", "prefix": "SON-Reboot", "user": {"location": {"city": "Macon", "state": "GA", "country": "United States"}}, "player": {"id": 138105, "gamerTag": "SirRetro08", "prefix": "SON-Reboot", "user": {"location": {"city": "Macon", "state": "GA", "country": "United States"}}}}]}, "standing": {"placement": 2, "stats": {"score": {"value": 0}}}}], "games": null}]}}}