{"phase": {"seeds": {"pageInfo": {"totalPages": 1, "total": 8}, "nodes": [{"id": 36049894, "seedNum": 1, "entrant": {"id": 20898587, "name": "CJay", "participants": [{"id": 19228860, "gamerTag": "CJay", "prefix": null, "user": {"location": {"city": "tallahassee", "state": "FL", "country": "United States"}}, "player": {"id": 1852984, "gamerTag": "CJay", "prefix": null, "user": {"location": {"city": "tallahassee", "state": "FL", "country": "United States"}}}}]}}, {"id": 35921584, "seedNum": 2, "entrant": {"id": 20819059, "name": "GLG", "participants": [{"id": 19158415, "gamerTag": "GLG", "prefix": "", "user": {"location": {"city": "Albany", "state": "GA", "country": "United States"}}, "player": {"id": 879775, "gamerTag": "GLG", "prefix": "", "user": {"location": {"city": "Albany", "state": "GA", "country": "United States"}}}}]}}, {"id": 36076053, "seedNum": 5, "entrant": {"id": 20913475, "name": "Alex828", "participants": [{"id": 19242235, "gamerTag": "Alex828", "prefix": "", "user": {"location": {"city": "Valdosta", "state": "GA", "country": "United States"}}, "player": {"id": 1630146, "gamerTag": "Alex828", "prefix": "", "user": {"location": {"city": "Valdosta", "state": "GA", "country": "United States"}}}}]}}, {"id": 35919285, "seedNum": 3, "entrant": {"id": 20817515, "name": "BE/JLE | CaptainMilkMan", "participants": [{"id": 19157125, "gamerTag": "CaptainMilkMan", "prefix": "BE/JLE", "user": {"location": {"city": "Albany", "state": "GA", "country": "United States"}}, "player": {"id": 1101654, "gamerTag": "CaptainMilkMan", "prefix": "BE/JLE", "user": {"location": {"city": "Albany", "state": "GA", "country": "United States"}}}}]}}, {"id": 35919225, "seedNum": 6, "entrant": {"id": 20817477, "name": "TheNickXV", "participants": [{"id": 19157090, "gamerTag": "TheNickXV", "prefix": "", "user": {"location": {"city": null, "state": "GA", "country": "United States"}}, "player": {"id": 1100033, "gamerTag": "TheNickXV", "prefix": "", "user": {"location": {"city": null, "state": "GA", "country": "United States"}}}}]}}, {"id": 35921503, "seedNum": 8, "entrant": {"id": 20818976, "name": "Ford", "participants": [{"id": 19158322, "gamerTag": "Ford", "prefix": null, "user": {"location": {"city": "", "state": "GA", "country": "United States"}}, "player": {"id": 3471629, "gamerTag": "Ford", "prefix": null, "user": {"location": {"city": "", "state": "GA", "country": "United States"}}}}]}}, {"id": 36085237, "seedNum": 4, "entrant": {"id": 20919690, "name": "crimFANN", "participants": [{"id": 19247766, "gamerTag": "crimFANN", "prefix": "", "user": {"location": {"city": "Valdosta", "state": "GA", "country": "United States"}}, "player": {"id": 2366169, "gamerTag": "crimFANN", "prefix": "", "user": {"location": {"city": "Valdosta", "state": "GA", "country": "United States"}}}}]}}, {"id": 36096339, "seedNum": 7, "entrant": {"id": 20927427, "name": "Maddog100", "participants": [{"id": 19254405, "gamerTag": "Maddog100", "prefix": null, "user": {"location": {"city": "Leesburg", "state": "GA", "country": "United States"}}, "player": {"id": 3049997, "gamerTag": "Maddog100", "prefix": null, "user": {"location": {"city": "Leesburg", "state": "GA", "country": "United States"}}}}]}}]}}}