{"phase": {"seeds": {"pageInfo": {"totalPages": 1, "total": 7}, "nodes": [{"id": 36733423, "seedNum": 2, "entrant": {"id": 21347846, "name": "SaintK", "participants": [{"id": 19624673, "gamerTag": "SaintK", "prefix": "", "user": {"location": {"city": "Atlanta", "state": "GA", "country": "United States"}}, "player": {"id": 4963363, "gamerTag": "SaintK", "prefix": "", "user": {"location": {"city": "Atlanta", "state": "GA", "country": "United States"}}}}]}}, {"id": 36733438, "seedNum": 4, "entrant": {"id": 21347861, "name": "UTO|WhaLey | Kingwifi", "participants": [{"id": 19624687, "gamerTag": "Kingwifi", "prefix": "UTO|WhaLey", "user": {"location": {"city": "Stone Mountain", "state": "GA", "country": "United States"}}, "player": {"id": 2016149, "gamerTag": "Whaley", "prefix": "KSU|UTO|BLZE", "user": {"location": {"city": "Stone Mountain", "state": "GA", "country": "United States"}}}}]}}, {"id": 36736003, "seedNum": 1, "entrant": {"id": 21349654, "name": "LVL? | VaR", "participants": [{"id": 19626297, "gamerTag": "VaR", "prefix": "LVL?", "user": {"location": {"city": "Atlanta", "state": "GA", "country": "United States"}}, "player": {"id": 329546, "gamerTag": "VaR", "prefix": "GG", "user": {"location": {"city": "Atlanta", "state": "GA", "country": "United States"}}}}]}}, {"id": 36735167, "seedNum": 3, "entrant": {"id": 21349188, "name": "promamamia", "participants": [{"id": 19625886, "gamerTag": "promamamia", "prefix": "", "user": {"location": {"city": "Alpharetta", "state": "GA", "country": "United States"}}, "player": {"id": 3548468, "gamerTag": "promamamia", "prefix": "", "user": {"location": {"city": "Alpharetta", "state": "GA", "country": "United States"}}}}]}}, {"id": 36731946, "seedNum": 5, "entrant": {"id": 21346564, "name": "4o4 | CoNavySeal", "participants": [{"id": 19623532, "gamerTag": "CoNavySeal", "prefix": "4o4", "user": {"location": {"city": "Alpharetta", "state": "GA", "country": "United States"}}, "player": {"id": 3818891, "gamerTag": "CoNavySeal", "prefix": "4o4", "user": {"location": {"city": "Alpharetta", "state": "GA", "country": "United States"}}}}]}}, {"id": 36731950, "seedNum": 7, "entrant": {"id": 21346568, "name": "United", "participants": [{"id": 19623536, "gamerTag": "United", "prefix": null, "user": {"location": {"city": "Atlanta", "state": "GA", "country": "United States"}}, "player": {"id": 4416768, "gamerTag": "United", "prefix": null, "user": {"location": {"city": "Atlanta", "state": "GA", "country": "United States"}}}}]}}, {"id": 36733384, "seedNum": 6, "entrant": {"id": 21347813, "name": "0W39L | Jayrunner", "participants": [{"id": 19624643, "gamerTag": "Jayrunner", "prefix": "0W39L", "user": {"location": {"city": null, "state": null, "country": "United States"}}, "player": {"id": 621036, "gamerTag": "Jayrunner", "prefix": "0W39L", "user": {"location": {"city": null, "state": null, "country": "United States"}}}}]}}]}}}