{"event": {"sets": {"pageInfo": {"totalPages": 3, "total": 39}, "nodes": [{"id": 91721649, "state": 3, "round": 6, "fullRoundText": "Grand Final", "completedAt": 1753240342, "winnerId": 20772153, "slots": [{"id": "91721649-0", "entrant": {"id": 20771310, "name": "4o4 | byronic zero", "participants": [{"id": 19116090, "gamerTag": "byronic zero", "prefix": "4o4", "user": {"location": {"city": "Atlanta", "state": "GA", "country": "United States"}}, "player": {"id": 3577590, "gamerTag": "byronic zero", "prefix": "4o4", "user": {"location": {"city": "Atlanta", "state": "GA", "country": "United States"}}}}]}, "standing": {"placement": 2, "stats": {"score": {"value": 1}}}}, {"id": "91721649-1", "entrant": {"id": 20772153, "name": "Buddylikefriend", "participants": [{"id": 19116834, "gamerTag": "Buddylikefriend", "prefix": null, "user": {"location": {"city": "Atlanta", "state": "GA", "country": "United States"}}, "player": {"id": 785557, "gamerTag": "Buddylikefriend", "prefix": null, "user": {"location": {"city": "Atlanta", "state": "GA", "country": "United States"}}}}]}, "standing": {"placement": 1, "stats": {"score": {"value": 3}}}}], "games": null}, {"id": 91721650, "state": 3, "round": 6, "fullRoundText": "Grand Final Reset", "completedAt": 1753240905, "winnerId": 20772153, "slots": [{"id": "91721650-0", "entrant": {"id": 20772153, "name": "Buddylikefriend", "participants": [{"id": 19116834, "gamerTag": "Buddylikefriend", "prefix": null, "user": {"location": {"city": "Atlanta", "state": "GA", "country": "United States"}}, "player": {"id": 785557, "gamerTag": "Buddylikefriend", "prefix": null, "user": {"location": {"city": "Atlanta", "state": "GA", "country": "United States"}}}}]}, "standing": {"placement": 1, "stats": {"score": {"value": 3}}}}, {"id": "91721650-1", "entrant": {"id": 20771310, "name": "4o4 | byronic zero", "participants": [{"id": 19116090, "gamerTag": "byronic zero", "prefix": "4o4", "user": {"location": {"city": "Atlanta", "state": "GA", "country": "United States"}}, "player": {"id": 3577590, "gamerTag": "byronic zero", "prefix": "4o4", "user": {"location": {"city": "Atlanta", "state": "GA", "country": "United States"}}}}]}, "standing": {"placement": 2, "stats": {"score": {"value": 1}}}}], "games": null}, {"id": 91721648, "state": 3, "round": 5, "fullRoundText": "Winners Final", "completedAt": 1753238320, "winnerId": 20771310, "slots": [{"id": "91721648-0", "entrant": {"id": 20771790, "name": "4o4 | Musa", "participants": [{"id": 19116520, "gamerTag": "Musa", "prefix": "4o4", "user": {"location": {"city": null, "state": null, "country": "United States"}}, "player": {"id": 131537, "gamerTag": "Musa", "prefix": "4o4", "user": {"location": {"city": null, "state": null, "country": "United States"}}}}]}, "standing": {"placement": 2, "stats": {"score": {"value": 2}}}}, {"id": "91721648-1", "entrant": {"id": 20771310, "name": "4o4 | byronic zero", "participants": [{"id": 19116090, "gamerTag": "byronic zero", "prefix": "4o4", "user": {"location": {"city": "Atlanta", "state": "GA", "country": "United States"}}, "player": {"id": 3577590, "gamerTag": "byronic zero", "prefix": "4o4", "user": {"location": {"city": "Atlanta", "state": "GA", "country": "United States"}}}}]}, "standing": {"placement": 1, "stats": {"score": {"value": 3}}}}], "games": null}, {"id": 91721712, "state": 3, "round": -10, "fullRoundText": "Losers Final", "completedAt": 1753239653, "winnerId": 20772153, "slots": [{"id": "91721712-0", "entrant": {"id": 20771790, "name": "4o4 | Musa", "participants": [{"id": 19116520, "gamerTag": "Musa", "prefix": "4o4", "user": {"location": {"city": null, "state": null, "country": "United States"}}, "player": {"id": 131537, "gamerTag": "Musa", "prefix": "4o4", "user": {"location": {"city": null, "state": null, "country": "United States"}}}}]}, "standing": {"placement": 2, "stats": {"score": {"value": 1}}}}, {"id": "91721712-1", "entrant": {"id": 20772153, "name": "Buddylikefriend", "participants": [{"id": 19116834, "gamerTag": "Buddylikefriend", "prefix": null, "user": {"location": {"city": "Atlanta", "state": "GA", "country": "United States"}}, "player": {"id": 785557, "gamerTag": "Buddylikefriend", "prefix": null, "user": {"location": {"city": "Atlanta", "state": "GA", "country": "United States"}}}}]}, "standing": {"placement": 1, "stats": {"score": {"value": 3}}}}], "games": null}, {"id": 91721711, "state": 3, "round": -9, "fullRoundText": "Losers Semi-Final", "completedAt": 1753239064, "winnerId": 20772153, "slots": [{"id": "91721711-0", "entrant": {"id": 20772153, "name": "Buddylikefriend", "participants": [{"id": 19116834, "gamerTag": "Buddylikefriend", "prefix": null, "user": {"location": {"city": "Atlanta", "state": "GA", "country": "United States"}}, "player": {"id": 785557, "gamerTag": "Buddylikefriend", "prefix": null, "user": {"location": {"city": "Atlanta", "state": "GA", "country": "United States"}}}}]}, "standing": {"placement": 1, "stats": {"score": {"value": 3}}}}, {"id": "91721711-1", "entrant": {"id": 20772100, "name": "4o4 | chrisymandias", "participants": [{"id": 19116789, "gamerTag": "chrisymandias", "prefix": "4o4", "user": {"location": {"city": "Dacula", "state": "GA", "country": "United States"}}, "player": {"id": 258173, "gamerTag": "chrisymandias", "prefix": "4o4", "user": {"location": {"city": "Dacula", "state": "GA", "country": "United States"}}}}]}, "standing": {"placement": 2, "stats": {"score": {"value": 2}}}}], "games": null}, {"id": 91721646, "state": 3, "round": 4, "fullRoundText": "Winners Semi-Final", "completedAt": 1753233568, "winnerId": 20771790, "slots": [{"id": "91721646-0", "entrant": {"id": 20772100, "name": "4o4 | chrisymandias", "participants": [{"id": 19116789, "gamerTag": "chrisymandias", "prefix": "4o4", "user": {"location": {"city": "Dacula", "state": "GA", "country": "United States"}}, "player": {"id": 258173, "gamerTag": "chrisymandias", "prefix": "4o4", "user": {"location": {"city": "Dacula", "state": "GA", "country": "United States"}}}}]}, "standing": {"placement": 2, "stats": {"score": {"value": 1}}}}, {"id": "91721646-1", "entrant": {"id": 20771790, "name": "4o4 | Musa", "participants": [{"id": 19116520, "gamerTag": "Musa", "prefix": "4o4", "user": {"location": {"city": null, "state": null, "country": "United States"}}, "player": {"id": 131537, "gamerTag": "Musa", "prefix": "4o4", "user": {"location": {"city": null, "state": null, "country": "United States"}}}}]}, "standing": {"placement": 1, "stats": {"score": {"value": 3}}}}], "games": null}, {"id": 91721647, "state": 3, "round": 4, "fullRoundText": "Winners Semi-Final", "completedAt": 1753234186, "winnerId": 20771310, "slots": [{"id": "91721647-0", "entrant": {"id": 20771310, "name": "4o4 | byronic zero", "participants": [{"id": 19116090, "gamerTag": "byronic zero", "prefix": "4o4", "user": {"location": {"city": "Atlanta", "state": "GA", "country": "United States"}}, "player": {"id": 3577590, "gamerTag": "byronic zero", "prefix": "4o4", "user": {"location": {"city": "Atlanta", "state": "GA", "country": "United States"}}}}]}, "standing": {"placement": 1, "stats": {"score": {"value": 3}}}}, {"id": "91721647-1", "entrant": {"id": 20772153, "name": "Buddylikefriend", "participants": [{"id": 19116834, "gamerTag": "Buddylikefriend", "prefix": null, "user": {"location": {"city": "Atlanta", "state": "GA", "country": "United States"}}, "player": {"id": 785557, "gamerTag": "Buddylikefriend", "prefix": null, "user": {"location": {"city": "Atlanta", "state": "GA", "country": "United States"}}}}]}, "standing": {"placement": 2, "stats": {"score": {"value": 0}}}}], "games": null}, {"id": 91721709, "state": 3, "round": -8, "fullRoundText": "Losers Quarter-Final", "completedAt": 1753236780, "winnerId": 20772153, "slots": [{"id": "91721709-0", "entrant": {"id": 20772153, "name": "Buddylikefriend", "participants": [{"id": 19116834, "gamerTag": "Buddylikefriend", "prefix": null, "user": {"location": {"city": "Atlanta", "state": "GA", "country": "United States"}}, "player": {"id": 785557, "gamerTag": "Buddylikefriend", "prefix": null, "user": {"location": {"city": "Atlanta", "state": "GA", "country": "United States"}}}}]}, "standing": {"placement": 1, "stats": {"score": {"value": 3}}}}, {"id": "91721709-1", "entrant": {"id": 20771303, "name": "Burboovas", "participants": [{"id": 19116084, "gamerTag": "Burboovas", "prefix": null, "user": {"location": {"city": null, "state": null, "country": null}}, "player": {"id": 3927191, "gamerTag": "Burboovas", "prefix": null, "user": {"location": {"city": null, "state": null, "country": null}}}}]}, "standing": {"placement": 2, "stats": {"score": {"value": 2}}}}], "games": null}, {"id": 91721710, "state": 3, "round": -8, "fullRoundText": "Losers Quarter-Final", "completedAt": 1753237392, "winnerId": 20772100, "slots": [{"id": "91721710-0", "entrant": {"id": 20772100, "name": "4o4 | chrisymandias", "participants": [{"id": 19116789, "gamerTag": "chrisymandias", "prefix": "4o4", "user": {"location": {"city": "Dacula", "state": "GA", "country": "United States"}}, "player": {"id": 258173, "gamerTag": "chrisymandias", "prefix": "4o4", "user": {"location": {"city": "Dacula", "state": "GA", "country": "United States"}}}}]}, "standing": {"placement": 1, "stats": {"score": {"value": 3}}}}, {"id": "91721710-1", "entrant": {"id": 20757714, "name": "scrimbo", "participants": [{"id": 19103465, "gamerTag": "scrimbo", "prefix": "", "user": {"location": {"city": "Atlanta", "state": "GA", "country": "United States"}}, "player": {"id": 4331849, "gamerTag": "scrimbo", "prefix": "", "user": {"location": {"city": "Atlanta", "state": "GA", "country": "United States"}}}}]}, "standing": {"placement": 2, "stats": {"score": {"value": 1}}}}], "games": null}, {"id": 91721707, "state": 3, "round": -7, "fullRoundText": "Losers Round 4", "completedAt": 1753235033, "winnerId": 20771303, "slots": [{"id": "91721707-0", "entrant": {"id": 20771303, "name": "Burboovas", "participants": [{"id": 19116084, "gamerTag": "Burboovas", "prefix": null, "user": {"location": {"city": null, "state": null, "country": null}}, "player": {"id": 3927191, "gamerTag": "Burboovas", "prefix": null, "user": {"location": {"city": null, "state": null, "country": null}}}}]}, "standing": {"placement": 1, "stats": {"score": {"value": 3}}}}, {"id": "91721707-1", "entrant": {"id": 20767218, "name": "4o4 | MessatsuIM", "participants": [{"id": 19112451, "gamerTag": "MessatsuIM", "prefix": "4o4", "user": {"location": {"city": "Kennesaw", "state": "GA", "country": "United States"}}, "player": {"id": 3564235, "gamerTag": "MessatsuIM", "prefix": "4o4", "user": {"location": {"city": "Kennesaw", "state": "GA", "country": "United States"}}}}]}, "standing": {"placement": 2, "stats": {"score": {"value": 2}}}}], "games": null}, {"id": 91721708, "state": 3, "round": -7, "fullRoundText": "Losers Round 4", "completedAt": 1753235857, "winnerId": 20757714, "slots": [{"id": "91721708-0", "entrant": {"id": 20757714, "name": "scrimbo", "participants": [{"id": 19103465, "gamerTag": "scrimbo", "prefix": "", "user": {"location": {"city": "Atlanta", "state": "GA", "country": "United States"}}, "player": {"id": 4331849, "gamerTag": "scrimbo", "prefix": "", "user": {"location": {"city": "Atlanta", "state": "GA", "country": "United States"}}}}]}, "standing": {"placement": 1, "stats": {"score": {"value": 3}}}}, {"id": "91721708-1", "entrant": {"id": 20771038, "name": "4o4 | Yugo", "participants": [{"id": 19115836, "gamerTag": "Yugo", "prefix": "4o4", "user": {"location": {"city": "Sandy springs", "state": "GA", "country": "United States"}}, "player": {"id": 338020, "gamerTag": "Yugo", "prefix": "4o4", "user": {"location": {"city": "Sandy springs", "state": "GA", "country": "United States"}}}}]}, "standing": {"placement": 2, "stats": {"score": {"value": 2}}}}], "games": null}, {"id": 91721642, "state": 3, "round": 3, "fullRoundText": "Winners Quarter-Final", "completedAt": 1753231419, "winnerId": 20772100, "slots": [{"id": "91721642-0", "entrant": {"id": 20767218, "name": "4o4 | MessatsuIM", "participants": [{"id": 19112451, "gamerTag": "MessatsuIM", "prefix": "4o4", "user": {"location": {"city": "Kennesaw", "state": "GA", "country": "United States"}}, "player": {"id": 3564235, "gamerTag": "MessatsuIM", "prefix": "4o4", "user": {"location": {"city": "Kennesaw", "state": "GA", "country": "United States"}}}}]}, "standing": {"placement": 2, "stats": {"score": {"value": 0}}}}, {"id": "91721642-1", "entrant": {"id": 20772100, "name": "4o4 | chrisymandias", "participants": [{"id": 19116789, "gamerTag": "chrisymandias", "prefix": "4o4", "user": {"location": {"city": "Dacula", "state": "GA", "country": "United States"}}, "player": {"id": 258173, "gamerTag": "chrisymandias", "prefix": "4o4", "user": {"location": {"city": "Dacula", "state": "GA", "country": "United States"}}}}]}, "standing": {"placement": 1, "stats": {"score": {"value": 3}}}}], "games": null}, {"id": 91721643, "state": 3, "round": 3, "fullRoundText": "Winners Quarter-Final", "completedAt": 1753231526, "winnerId": 20771790, "slots": [{"id": "91721643-0", "entrant": {"id": 20771790, "name": "4o4 | Musa", "participants": [{"id": 19116520, "gamerTag": "Musa", "prefix": "4o4", "user": {"location": {"city": null, "state": null, "country": "United States"}}, "player": {"id": 131537, "gamerTag": "Musa", "prefix": "4o4", "user": {"location": {"city": null, "state": null, "country": "United States"}}}}]}, "standing": {"placement": 1, "stats": {"score": {"value": 3}}}}, {"id": "91721643-1", "entrant": {"id": 20771303, "name": "Burboovas", "participants": [{"id": 19116084, "gamerTag": "Burboovas", "prefix": null, "user": {"location": {"city": null, "state": null, "country": null}}, "player": {"id": 3927191, "gamerTag": "Burboovas", "prefix": null, "user": {"location": {"city": null, "state": null, "country": null}}}}]}, "standing": {"placement": 2, "stats": {"score": {"value": 0}}}}], "games": null}, {"id": 91721644, "state": 3, "round": 3, "fullRoundText": "Winners Quarter-Final", "completedAt": 1753232075, "winnerId": 20771310, "slots": [{"id": "91721644-0", "entrant": {"id": 20771310, "name": "4o4 | byronic zero", "participants": [{"id": 19116090, "gamerTag": "byronic zero", "prefix": "4o4", "user": {"location": {"city": "Atlanta", "state": "GA", "country": "United States"}}, "player": {"id": 3577590, "gamerTag": "byronic zero", "prefix": "4o4", "user": {"location": {"city": "Atlanta", "state": "GA", "country": "United States"}}}}]}, "standing": {"placement": 1, "stats": {"score": {"value": 3}}}}, {"id": "91721644-1", "entrant": {"id": 20767971, "name": "Noodle", "participants": [{"id": 19113179, "gamerTag": "Noodle", "prefix": null, "user": {"location": {"city": "McDonough", "state": "GA", "country": "United States"}}, "player": {"id": 3029288, "gamerTag": "Noodle", "prefix": "", "user": {"location": {"city": "McDonough", "state": "GA", "country": "United States"}}}}]}, "standing": {"placement": 2, "stats": {"score": {"value": 1}}}}], "games": null}, {"id": 91721645, "state": 3, "round": 3, "fullRoundText": "Winners Quarter-Final", "completedAt": 1753233023, "winnerId": 20772153, "slots": [{"id": "91721645-0", "entrant": {"id": 20772153, "name": "Buddylikefriend", "participants": [{"id": 19116834, "gamerTag": "Buddylikefriend", "prefix": null, "user": {"location": {"city": "Atlanta", "state": "GA", "country": "United States"}}, "player": {"id": 785557, "gamerTag": "Buddylikefriend", "prefix": null, "user": {"location": {"city": "Atlanta", "state": "GA", "country": "United States"}}}}]}, "standing": {"placement": 1, "stats": {"score": {"value": 3}}}}, {"id": "91721645-1", "entrant": {"id": 20757714, "name": "scrimbo", "participants": [{"id": 19103465, "gamerTag": "scrimbo", "prefix": "", "user": {"location": {"city": "Atlanta", "state": "GA", "country": "United States"}}, "player": {"id": 4331849, "gamerTag": "scrimbo", "prefix": "", "user": {"location": {"city": "Atlanta", "state": "GA", "country": "United States"}}}}]}, "standing": {"placement": 2, "stats": {"score": {"value": 2}}}}], "games": null}]}}}