{"phase": {"seeds": {"pageInfo": {"totalPages": 1, "total": 11}, "nodes": [{"id": 36539703, "seedNum": 2, "entrant": {"id": 21212019, "name": "Captain C", "participants": [{"id": 19507827, "gamerTag": "Captain C", "prefix": null, "user": {"location": {"city": null, "state": null, "country": null}}, "player": {"id": 802498, "gamerTag": "Captain C", "prefix": null, "user": {"location": {"city": null, "state": null, "country": null}}}}]}}, {"id": 36566101, "seedNum": 1, "entrant": {"id": 21231354, "name": "Boxboy", "participants": [{"id": 19524550, "gamerTag": "Boxboy", "prefix": "", "user": {"location": {"city": "Tifton", "state": "GA", "country": "United States"}}, "player": {"id": 1174039, "gamerTag": "Boxboy", "prefix": "", "user": {"location": {"city": "Tifton", "state": "GA", "country": "United States"}}}}]}}, {"id": 36762845, "seedNum": 11, "entrant": {"id": 21367990, "name": "Cubonez", "participants": [{"id": 19642818, "gamerTag": "Cubonez", "prefix": "", "user": {"location": {"city": "Gainesville", "state": "GA", "country": "United States"}}, "player": {"id": 4806236, "gamerTag": "Cubonez", "prefix": "", "user": {"location": {"city": "Gainesville", "state": "GA", "country": "United States"}}}}]}}, {"id": 36720348, "seedNum": 3, "entrant": {"id": 21338090, "name": "FNG | S0URCEC0DE", "participants": [{"id": 19615640, "gamerTag": "S0URCEC0DE", "prefix": "FNG", "user": {"location": {"city": "Macon", "state": "GA", "country": "United States"}}, "player": {"id": 2699776, "gamerTag": "S0URCEC0DE", "prefix": "FNG", "user": {"location": {"city": "Macon", "state": "GA", "country": "United States"}}}}]}}, {"id": 36482233, "seedNum": 5, "entrant": {"id": 21175778, "name": "BluuZ00", "participants": [{"id": 19475879, "gamerTag": "BluuZ00", "prefix": "", "user": {"location": {"city": null, "state": null, "country": "United States"}}, "player": {"id": 4241203, "gamerTag": "BluuZ00", "prefix": "", "user": {"location": {"city": null, "state": null, "country": "United States"}}}}]}}, {"id": 36566159, "seedNum": 7, "entrant": {"id": 21231398, "name": "Tiseas", "participants": [{"id": 19524582, "gamerTag": "Tiseas", "prefix": null, "user": null, "player": {"id": 4817338, "gamerTag": "Tiseas", "prefix": null, "user": null}}]}}, {"id": 36793614, "seedNum": 9, "entrant": {"id": 21389577, "name": "Bigbrown177013", "participants": [{"id": 19661917, "gamerTag": "Bigbrown177013", "prefix": null, "user": {"location": {"city": "Rome", "state": "GA", "country": "United States"}}, "player": {"id": 3581492, "gamerTag": "Bigbrown177013", "prefix": null, "user": {"location": {"city": "Rome", "state": "GA", "country": "United States"}}}}]}}, {"id": 36803002, "seedNum": 10, "entrant": {"id": 21396652, "name": "EISEN", "participants": [{"id": 19667840, "gamerTag": "EISEN", "prefix": "", "user": {"location": {"city": null, "state": null, "country": "United States"}}, "player": {"id": 3483274, "gamerTag": "EISEN", "prefix": "", "user": {"location": {"city": null, "state": null, "country": "United States"}}}}]}}, {"id": 36566152, "seedNum": 4, "entrant": {"id": 21231391, "name": "Deez", "participants": [{"id": 19524578, "gamerTag": "Deez", "prefix": "", "user": {"location": null}, "player": {"id": 22852, "gamerTag": "Deez", "prefix": "", "user": {"location": null}}}]}}, {"id": 36721178, "seedNum": 6, "entrant": {"id": 21338835, "name": "FNG | SHB", "participants": [{"id": 19616314, "gamerTag": "SHB", "prefix": "FNG", "user": {"location": {"city": null, "state": null, "country": "United States"}}, "player": {"id": 3194253, "gamerTag": "SHB", "prefix": "FNG", "user": {"location": {"city": null, "state": null, "country": "United States"}}}}]}}, {"id": 36552413, "seedNum": 8, "entrant": {"id": 21221663, "name": "I AM | The Young Flopper", "participants": [{"id": 19516149, "gamerTag": "The Young Flopper", "prefix": "I AM", "user": {"location": {"city": null, "state": "GA", "country": "United States"}}, "player": {"id": 4400710, "gamerTag": "The Young Flopper", "prefix": "I AM", "user": {"location": {"city": null, "state": "GA", "country": "United States"}}}}]}}]}}}