{"phase": {"seeds": {"pageInfo": {"totalPages": 1, "total": 41}, "nodes": [{"id": 36223511, "seedNum": 1, "entrant": {"id": 21004193, "name": "GUMP2 | ToxiC", "participants": [{"id": 19321851, "gamerTag": "ToxiC", "prefix": "GUMP2", "user": {"location": {"city": "Marietta", "state": "GA", "country": "United States"}}, "player": {"id": 2585804, "gamerTag": "ToxiC", "prefix": "GUMP2", "user": {"location": {"city": "Marietta", "state": "GA", "country": "United States"}}}}]}}, {"id": 36400374, "seedNum": 2, "entrant": {"id": 21121102, "name": "carlop", "participants": [{"id": 19427347, "gamerTag": "carlop", "prefix": null, "user": {"location": {"city": "Johns Creek", "state": "GA", "country": "United States"}}, "player": {"id": 3431919, "gamerTag": "carlop", "prefix": null, "user": {"location": {"city": "Johns Creek", "state": "GA", "country": "United States"}}}}]}}, {"id": 36411731, "seedNum": 4, "entrant": {"id": 21129404, "name": "RM | Twist!?", "participants": [{"id": 19435158, "gamerTag": "Twist!?", "prefix": "RM", "user": {"location": {"city": "Marietta", "state": "GA", "country": "United States"}}, "player": {"id": 1764076, "gamerTag": "Twist!?", "prefix": "RM", "user": {"location": {"city": "Marietta", "state": "GA", "country": "United States"}}}}]}}, {"id": 36321774, "seedNum": 6, "entrant": {"id": 21068917, "name": "Scouteka", "participants": [{"id": 19380430, "gamerTag": "Scouteka", "prefix": "", "user": {"location": {"city": "Marietta", "state": "GA", "country": "United States"}}, "player": {"id": 2055957, "gamerTag": "Scouteka", "prefix": "", "user": {"location": {"city": "Marietta", "state": "GA", "country": "United States"}}}}]}}, {"id": 36398719, "seedNum": 5, "entrant": {"id": 21119788, "name": "UTO|WhaLey | Kingwifi", "participants": [{"id": 19426202, "gamerTag": "Kingwifi", "prefix": "UTO|WhaLey", "user": {"location": {"city": "Stone Mountain", "state": "GA", "country": "United States"}}, "player": {"id": 2016149, "gamerTag": "Whaley", "prefix": "KSU|UTO|BLZE", "user": {"location": {"city": "Stone Mountain", "state": "GA", "country": "United States"}}}}]}}, {"id": 36329965, "seedNum": 16, "entrant": {"id": 21075375, "name": "V2Kwame", "participants": [{"id": 19386189, "gamerTag": "V2Kwame", "prefix": "", "user": {"location": {"city": "Dallas", "state": "GA", "country": "United States"}}, "player": {"id": 2764337, "gamerTag": "V2Kwame", "prefix": "", "user": {"location": {"city": "Dallas", "state": "GA", "country": "United States"}}}}]}}, {"id": 36280425, "seedNum": 8, "entrant": {"id": 21040395, "name": "BlaZR", "participants": [{"id": 19354869, "gamerTag": "BlaZR", "prefix": "", "user": {"location": {"city": "ur mum", "state": null, "country": "United States"}}, "player": {"id": 1804122, "gamerTag": "BlaZR", "prefix": "", "user": {"location": {"city": "ur mum", "state": null, "country": "United States"}}}}]}}, {"id": 36310121, "seedNum": 13, "entrant": {"id": 21061138, "name": "CHEESE", "participants": [{"id": 19373326, "gamerTag": "CHEESE", "prefix": null, "user": {"location": {"city": "Buford", "state": "GA", "country": "United States"}}, "player": {"id": 3429754, "gamerTag": "CHEESE", "prefix": null, "user": {"location": {"city": "Buford", "state": "GA", "country": "United States"}}}}]}}, {"id": 36291463, "seedNum": 3, "entrant": {"id": 21047567, "name": "red dot", "participants": [{"id": 19361293, "gamerTag": "red dot", "prefix": "", "user": {"location": {"city": "Milton", "state": "GA", "country": "United States"}}, "player": {"id": 1812177, "gamerTag": "red dot", "prefix": "", "user": {"location": {"city": "Milton", "state": "GA", "country": "United States"}}}}]}}, {"id": 36224782, "seedNum": 7, "entrant": {"id": 21004884, "name": "KSU | colorful\u029a\u025e", "participants": [{"id": 19322534, "gamerTag": "colorful\u029a\u025e", "prefix": "KSU", "user": {"location": {"city": "Kennesaw", "state": "GA", "country": "United States"}}, "player": {"id": 1783074, "gamerTag": "colorful\u029a\u025e", "prefix": "KSU | RM", "user": {"location": {"city": "Kennesaw", "state": "GA", "country": "United States"}}}}]}}, {"id": 36280811, "seedNum": 14, "entrant": {"id": 21040545, "name": "SaggyMilkJug", "participants": [{"id": 19355012, "gamerTag": "SaggyMilkJug", "prefix": "", "user": {"location": {"city": "Atlanta", "state": "GA", "country": "United States"}}, "player": {"id": 4651404, "gamerTag": "SaggyMilkJug", "prefix": "", "user": {"location": {"city": "Atlanta", "state": "GA", "country": "United States"}}}}]}}, {"id": 36343439, "seedNum": 23, "entrant": {"id": 21084803, "name": "kahdeh", "participants": [{"id": 19394775, "gamerTag": "kahdeh", "prefix": null, "user": {"location": {"city": null, "state": "GA", "country": "United States"}}, "player": {"id": 3730125, "gamerTag": "kahdeh", "prefix": null, "user": {"location": {"city": null, "state": "GA", "country": "United States"}}}}]}}, {"id": 36267955, "seedNum": 10, "entrant": {"id": 21031217, "name": "promamamia", "participants": [{"id": 19346365, "gamerTag": "promamamia", "prefix": "", "user": {"location": {"city": "Alpharetta", "state": "GA", "country": "United States"}}, "player": {"id": 3548468, "gamerTag": "promamamia", "prefix": "", "user": {"location": {"city": "Alpharetta", "state": "GA", "country": "United States"}}}}]}}, {"id": 36280430, "seedNum": 11, "entrant": {"id": 21040401, "name": "RM | PrincePeach", "participants": [{"id": 19354876, "gamerTag": "PrincePeach", "prefix": "RM", "user": {"location": {"city": "Stone Mountain", "state": "GA", "country": "United States"}}, "player": {"id": 3003562, "gamerTag": "Prince Peach", "prefix": "RM", "user": {"location": {"city": "Stone Mountain", "state": "GA", "country": "United States"}}}}]}}, {"id": 36353954, "seedNum": 12, "entrant": {"id": 21089045, "name": "KSU | Subzero", "participants": [{"id": 19398545, "gamerTag": "Subzero", "prefix": "KSU", "user": {"location": {"city": "Acworth", "state": "GA", "country": "United States"}}, "player": {"id": 1808159, "gamerTag": "Subzero", "prefix": "KSU", "user": {"location": {"city": "Acworth", "state": "GA", "country": "United States"}}}}]}}, {"id": 36407025, "seedNum": 15, "entrant": {"id": 21125670, "name": "Omar", "participants": [{"id": 19431429, "gamerTag": "Omar", "prefix": "", "user": {"location": {"city": null, "state": "GA", "country": "United States"}}, "player": {"id": 4300029, "gamerTag": "Omar", "prefix": "", "user": {"location": {"city": null, "state": "GA", "country": "United States"}}}}]}}, {"id": 36411081, "seedNum": 9, "entrant": {"id": 21128843, "name": "MONEY | ImNoPro", "participants": [{"id": 19434629, "gamerTag": "ImNoPro", "prefix": "MONEY", "user": {"location": {"city": "Calhoun", "state": "GA", "country": "United States"}}, "player": {"id": 2149803, "gamerTag": "ImNoPro", "prefix": "MONEY", "user": {"location": {"city": "Calhoun", "state": "GA", "country": "United States"}}}}]}}, {"id": 36327498, "seedNum": 18, "entrant": {"id": 21073526, "name": "Mavis", "participants": [{"id": 19384646, "gamerTag": "Mavis", "prefix": "", "user": {"location": {"city": null, "state": "GA", "country": "United States"}}, "player": {"id": 1666352, "gamerTag": "Mavis", "prefix": "", "user": {"location": {"city": null, "state": "GA", "country": "United States"}}}}]}}, {"id": 36407062, "seedNum": 19, "entrant": {"id": 21125677, "name": "jack | jazzman", "participants": [{"id": 19431436, "gamerTag": "jazzman", "prefix": "jack", "user": {"location": {"city": "Athens", "state": "GA", "country": "United States"}}, "player": {"id": 3883272, "gamerTag": "jazzman", "prefix": "jack", "user": {"location": {"city": "Athens", "state": "GA", "country": "United States"}}}}]}}, {"id": 36408132, "seedNum": 21, "entrant": {"id": 21126423, "name": "Vertebrae", "participants": [{"id": 19432167, "gamerTag": "Vertebrae", "prefix": "", "user": {"location": {"city": "Athens", "state": "GA", "country": "United States"}}, "player": {"id": 1583946, "gamerTag": "Vertebrae", "prefix": "CC", "user": {"location": {"city": "Athens", "state": "GA", "country": "United States"}}}}]}}, {"id": 36344247, "seedNum": 24, "entrant": {"id": 21085466, "name": "PlexiTier", "participants": [{"id": 19395365, "gamerTag": "PlexiTier", "prefix": "", "user": {"location": {"city": "Hampton", "state": "GA", "country": "United States"}}, "player": {"id": 1807346, "gamerTag": "PlexiTier", "prefix": "", "user": {"location": {"city": "Hampton", "state": "GA", "country": "United States"}}}}]}}, {"id": 36280428, "seedNum": 26, "entrant": {"id": 21040399, "name": "KSU | MikePTM", "participants": [{"id": 19354874, "gamerTag": "MikePTM", "prefix": "KSU", "user": {"location": {"city": null, "state": null, "country": "United States"}}, "player": {"id": 3586658, "gamerTag": "MikePTM", "prefix": "KSU", "user": {"location": {"city": null, "state": null, "country": "United States"}}}}]}}, {"id": 36412094, "seedNum": 33, "entrant": {"id": 21129665, "name": "LostCause919", "participants": [{"id": 19435319, "gamerTag": "LostCause919", "prefix": "", "user": {"location": {"city": null, "state": "GA", "country": "United States"}}, "player": {"id": 4950961, "gamerTag": "LostCause919", "prefix": "", "user": {"location": {"city": null, "state": "GA", "country": "United States"}}}}]}}, {"id": 36280621, "seedNum": 38, "entrant": {"id": 21040481, "name": "Readymade", "participants": [{"id": 19354950, "gamerTag": "Readymade", "prefix": "", "user": {"location": {"city": null, "state": null, "country": "United States"}}, "player": {"id": 4934887, "gamerTag": "Readymade", "prefix": "", "user": {"location": {"city": null, "state": null, "country": "United States"}}}}]}}, {"id": 36321146, "seedNum": 22, "entrant": {"id": 21068405, "name": "Kori", "participants": [{"id": 19379961, "gamerTag": "Kori", "prefix": "", "user": {"location": {"city": "", "state": "GA", "country": "United States"}}, "player": {"id": 2030915, "gamerTag": "Kori", "prefix": "", "user": {"location": {"city": "", "state": "GA", "country": "United States"}}}}]}}, {"id": 36324647, "seedNum": 25, "entrant": {"id": 21071243, "name": "T | Trent", "participants": [{"id": 19382566, "gamerTag": "Trent", "prefix": "T", "user": {"location": {"city": "Norcoss", "state": "GA", "country": "United States"}}, "player": {"id": 4666330, "gamerTag": "Unity", "prefix": "UNT", "user": {"location": {"city": "Norcoss", "state": "GA", "country": "United States"}}}}]}}, {"id": 36246409, "seedNum": 27, "entrant": {"id": 21018127, "name": "Hewdraw300", "participants": [{"id": 19334356, "gamerTag": "Hewdraw300", "prefix": null, "user": {"location": {"city": null, "state": null, "country": null}}, "player": {"id": 2383650, "gamerTag": "Hewdraw300", "prefix": null, "user": {"location": {"city": null, "state": null, "country": null}}}}]}}, {"id": 36412081, "seedNum": 28, "entrant": {"id": 21129651, "name": "Infinite_Radiance", "participants": [{"id": 19435305, "gamerTag": "Infinite_Radiance", "prefix": "", "user": {"location": {"city": null, "state": "GA", "country": "United States"}}, "player": {"id": 4926508, "gamerTag": "Infinite_Radiance", "prefix": "CC UGA", "user": {"location": {"city": null, "state": "GA", "country": "United States"}}}}]}}, {"id": 36406464, "seedNum": 30, "entrant": {"id": 21125432, "name": "E | Turtle_", "participants": [{"id": 19431208, "gamerTag": "Turtle_", "prefix": "E", "user": {"location": {"city": "Atlanta", "state": "GA", "country": "United States"}}, "player": {"id": 2722036, "gamerTag": "Turtle_", "prefix": "E", "user": {"location": {"city": "Atlanta", "state": "GA", "country": "United States"}}}}]}}, {"id": 36265816, "seedNum": 34, "entrant": {"id": 21029806, "name": "Stock Stealers | T.K.O", "participants": [{"id": 19345067, "gamerTag": "T.K.O", "prefix": "Stock Stealers", "user": {"location": {"city": "Smyrna", "state": "GA", "country": "United States"}}, "player": {"id": 4933114, "gamerTag": "T.K.O", "prefix": "Stock Stealer", "user": {"location": {"city": "Smyrna", "state": "GA", "country": "United States"}}}}]}}, {"id": 36406693, "seedNum": 36, "entrant": {"id": 21125552, "name": "Smash | S0UND4", "participants": [{"id": 19431313, "gamerTag": "S0UND4", "prefix": "Smash", "user": {"location": {"city": null, "state": null, "country": "Georgia"}}, "player": {"id": 4949248, "gamerTag": "S0UND4", "prefix": "Smash", "user": {"location": {"city": null, "state": null, "country": "Georgia"}}}}]}}, {"id": 36287428, "seedNum": 39, "entrant": {"id": 21045139, "name": "Dusk_", "participants": [{"id": 19359311, "gamerTag": "Dusk_", "prefix": null, "user": {"location": {"city": "Atlanta", "state": "GA", "country": "United States"}}, "player": {"id": 2095313, "gamerTag": "Dusk_", "prefix": null, "user": {"location": {"city": "Atlanta", "state": "GA", "country": "United States"}}}}]}}, {"id": 36399353, "seedNum": 17, "entrant": {"id": 21120327, "name": "TioMing69", "participants": [{"id": 19426663, "gamerTag": "TioMing69", "prefix": null, "user": {"location": {"city": null, "state": null, "country": null}}, "player": {"id": 3161888, "gamerTag": "TioMing69", "prefix": null, "user": {"location": {"city": null, "state": null, "country": null}}}}]}}, {"id": 36292492, "seedNum": 20, "entrant": {"id": 21048466, "name": "RM | [0.0]n11CHaN^.^ -A- wOw", "participants": [{"id": 19362037, "gamerTag": "[0.0]n11CHaN^.^ -A- wOw", "prefix": "RM", "user": {"location": {"city": null, "state": null, "country": "United States"}}, "player": {"id": 2122107, "gamerTag": "[0.0]n11CHaN^.^ -A- wOw", "prefix": "RM", "user": {"location": {"city": null, "state": null, "country": "United States"}}}}]}}, {"id": 36362185, "seedNum": 29, "entrant": {"id": 21095425, "name": "Noot", "participants": [{"id": 19404303, "gamerTag": "Noot", "prefix": "", "user": {"location": {"city": null, "state": null, "country": "United States"}}, "player": {"id": 4001469, "gamerTag": "Noot", "prefix": "", "user": {"location": {"city": null, "state": null, "country": "United States"}}}}]}}, {"id": 36230093, "seedNum": 31, "entrant": {"id": 21008377, "name": "Nefarious", "participants": [{"id": 19325635, "gamerTag": "Nefarious", "prefix": "", "user": {"location": {"city": null, "state": null, "country": "United States"}}, "player": {"id": 2981587, "gamerTag": "Nefarious", "prefix": "", "user": {"location": {"city": null, "state": null, "country": "United States"}}}}]}}, {"id": 36223777, "seedNum": 32, "entrant": {"id": 21004271, "name": "princeHB05", "participants": [{"id": 19321931, "gamerTag": "princeHB05", "prefix": "", "user": {"location": {"city": null, "state": null, "country": "United States"}}, "player": {"id": 4929603, "gamerTag": "princeHB05", "prefix": "", "user": {"location": {"city": null, "state": null, "country": "United States"}}}}]}}, {"id": 36395806, "seedNum": 35, "entrant": {"id": 21117761, "name": "Linkxs", "participants": [{"id": 19424401, "gamerTag": "Linkxs", "prefix": null, "user": {"location": {"city": null, "state": "GA", "country": "United States"}}, "player": {"id": 4522381, "gamerTag": "Linkxs", "prefix": null, "user": {"location": {"city": null, "state": "GA", "country": "United States"}}}}]}}, {"id": 36378394, "seedNum": 37, "entrant": {"id": 21105136, "name": "RenegadeRaider", "participants": [{"id": 19413117, "gamerTag": "RenegadeRaider", "prefix": "", "user": {"location": {"city": "Marietta", "state": "GA", "country": "United States"}}, "player": {"id": 4945168, "gamerTag": "RenegadeRaider", "prefix": "", "user": {"location": {"city": "Marietta", "state": "GA", "country": "United States"}}}}]}}, {"id": 36344424, "seedNum": 40, "entrant": {"id": 21085641, "name": "Sir Ferrum", "participants": [{"id": 19395524, "gamerTag": "Sir Ferrum", "prefix": "", "user": {"location": {"city": null, "state": null, "country": "United States"}}, "player": {"id": 4942765, "gamerTag": "Sir Ferrum", "prefix": "", "user": {"location": {"city": null, "state": null, "country": "United States"}}}}]}}, {"id": 36413467, "seedNum": 41, "entrant": {"id": 21130778, "name": "CoolCesar99", "participants": [{"id": 19436377, "gamerTag": "CoolCesar99", "prefix": "", "user": {"location": {"city": "Merrietta", "state": "GA", "country": "United States"}}, "player": {"id": 4951161, "gamerTag": "CoolCesar99", "prefix": "", "user": {"location": {"city": "Merrietta", "state": "GA", "country": "United States"}}}}]}}]}}}