{"event": {"sets": {"pageInfo": {"totalPages": 22, "total": 318}, "nodes": [{"id": 92227390, "state": 3, "round": 2, "fullRoundText": "Winners Round 2", "completedAt": 1754167966, "winnerId": 20773742, "slots": [{"id": "92227390-0", "entrant": {"id": 20773742, "name": "Raven!", "participants": [{"id": 19118186, "gamerTag": "Raven!", "prefix": "", "user": {"location": {"city": "Toney", "state": "AL", "country": "United States"}}, "player": {"id": 3698114, "gamerTag": "Raven!", "prefix": "MTSU | MONO", "user": {"location": {"city": "Toney", "state": "AL", "country": "United States"}}}}]}, "standing": {"placement": 1, "stats": {"score": {"value": 2}}}}, {"id": "92227390-1", "entrant": {"id": 20500222, "name": "BE/JLE | CaptainMilkMan", "participants": [{"id": 18877814, "gamerTag": "CaptainMilkMan", "prefix": "BE/JLE", "user": {"location": {"city": "Albany", "state": "GA", "country": "United States"}}, "player": {"id": 1101654, "gamerTag": "CaptainMilkMan", "prefix": "BE/JLE", "user": {"location": {"city": "Albany", "state": "GA", "country": "United States"}}}}]}, "standing": {"placement": 2, "stats": {"score": {"value": 0}}}}], "games": null}, {"id": 92227628, "state": 3, "round": 2, "fullRoundText": "Winners Round 2", "completedAt": 1754174210, "winnerId": 20615765, "slots": [{"id": "92227628-0", "entrant": {"id": 20615765, "name": "RM | GUMP2 | Kr!stal:0", "participants": [{"id": 18978540, "gamerTag": "Kr!stal:0", "prefix": "RM | GUMP2", "user": {"location": {"city": "Lawrenceville", "state": "GA", "country": "United States"}}, "player": {"id": 2409815, "gamerTag": "AO ASHI SEASON 2 2026", "prefix": "RM | GUMP2", "user": {"location": {"city": "Lawrenceville", "state": "GA", "country": "United States"}}}}]}, "standing": {"placement": 1, "stats": {"score": {"value": 2}}}}, {"id": "92227628-1", "entrant": {"id": 20703207, "name": "Fedora", "participants": [{"id": 19054258, "gamerTag": "Fedora", "prefix": "", "user": {"location": {"city": "Dalton", "state": "GA", "country": "United States"}}, "player": {"id": 1110820, "gamerTag": "Fedora", "prefix": "", "user": {"location": {"city": "Dalton", "state": "GA", "country": "United States"}}}}]}, "standing": {"placement": 2, "stats": {"score": {"value": 0}}}}], "games": null}, {"id": 92227840, "state": 3, "round": 2, "fullRoundText": "Winners Round 2", "completedAt": 1754174689, "winnerId": 20709705, "slots": [{"id": "92227840-0", "entrant": {"id": 20709705, "name": "Cobalt", "participants": [{"id": 19060234, "gamerTag": "Cobalt", "prefix": null, "user": {"location": {"city": "Gainesville", "state": "GA", "country": "United States"}}, "player": {"id": 181792, "gamerTag": "Cobalt", "prefix": null, "user": {"location": {"city": "Gainesville", "state": "GA", "country": "United States"}}}}]}, "standing": {"placement": 1, "stats": {"score": {"value": 2}}}}, {"id": "92227840-1", "entrant": {"id": 20685811, "name": "SyN | Mexjandro", "participants": [{"id": 19039011, "gamerTag": "Mexjandro", "prefix": "SyN", "user": {"location": {"city": "Pelham", "state": "AL", "country": "United States"}}, "player": {"id": 160281, "gamerTag": "Mexjandro", "prefix": "SyN", "user": {"location": {"city": "Pelham", "state": "AL", "country": "United States"}}}}]}, "standing": {"placement": 2, "stats": {"score": {"value": 0}}}}], "games": null}, {"id": 92227199, "state": 3, "round": 2, "fullRoundText": "Winners Round 2", "completedAt": 1754167615, "winnerId": 20501806, "slots": [{"id": "92227199-0", "entrant": {"id": 20501806, "name": "GUMP2 | STiCK", "participants": [{"id": 18879245, "gamerTag": "STiCK", "prefix": "GUMP2", "user": {"location": {"city": "Woodstock", "state": "GA", "country": "United States"}}, "player": {"id": 282674, "gamerTag": "STiCK", "prefix": "GUMP2", "user": {"location": {"city": "Woodstock", "state": "GA", "country": "United States"}}}}]}, "standing": {"placement": 1, "stats": {"score": {"value": null}}}}, {"id": "92227199-1", "entrant": {"id": 20580571, "name": "pristinetao", "participants": [{"id": 18947970, "gamerTag": "pristinetao", "prefix": "", "user": {"location": {"city": null, "state": null, "country": null}}, "player": {"id": 2721225, "gamerTag": "pristinetao", "prefix": "", "user": {"location": {"city": null, "state": null, "country": null}}}}]}, "standing": {"placement": 2, "stats": {"score": {"value": -1}}}}], "games": null}, {"id": 92227841, "state": 3, "round": 2, "fullRoundText": "Winners Round 2", "completedAt": 1754175560, "winnerId": 20495676, "slots": [{"id": "92227841-0", "entrant": {"id": 20495676, "name": "Hell Mode | ROB Slayer", "participants": [{"id": 18873880, "gamerTag": "ROB Slayer", "prefix": "Hell Mode", "user": {"location": {"city": "Atlanta", "state": "GA", "country": "United States"}}, "player": {"id": 2414381, "gamerTag": "ROB Slayer", "prefix": "Hell Mode", "user": {"location": {"city": "Atlanta", "state": "GA", "country": "United States"}}}}]}, "standing": {"placement": 1, "stats": {"score": {"value": 2}}}}, {"id": "92227841-1", "entrant": {"id": 20488896, "name": "BB | Buddwaur", "participants": [{"id": 18867819, "gamerTag": "Buddwaur", "prefix": "BB", "user": {"location": {"city": "Holly Springs", "state": "NC", "country": "United States"}}, "player": {"id": 1469415, "gamerTag": "Buddwaur", "prefix": "BB", "user": {"location": {"city": "Holly Springs", "state": "NC", "country": "United States"}}}}]}, "standing": {"placement": 2, "stats": {"score": {"value": 0}}}}], "games": null}, {"id": 92227629, "state": 3, "round": 2, "fullRoundText": "Winners Round 2", "completedAt": 1754175027, "winnerId": 20488678, "slots": [{"id": "92227629-0", "entrant": {"id": 20488678, "name": "GUMP2 | Eleven", "participants": [{"id": 18867622, "gamerTag": "Eleven", "prefix": "GUMP2", "user": {"location": {"city": null, "state": null, "country": null}}, "player": {"id": 2348605, "gamerTag": "Ryu from Streets", "prefix": "GUMP2", "user": {"location": {"city": null, "state": null, "country": null}}}}]}, "standing": {"placement": 1, "stats": {"score": {"value": 2}}}}, {"id": "92227629-1", "entrant": {"id": 20727930, "name": "11D7", "participants": [{"id": 19076051, "gamerTag": "11D7", "prefix": null, "user": {"location": {"city": "Alpharetta", "state": "GA", "country": "United States"}}, "player": {"id": 4064891, "gamerTag": "11D7", "prefix": null, "user": {"location": {"city": "Alpharetta", "state": "GA", "country": "United States"}}}}]}, "standing": {"placement": 2, "stats": {"score": {"value": 0}}}}], "games": null}, {"id": 92227391, "state": 3, "round": 2, "fullRoundText": "Winners Round 2", "completedAt": 1754167960, "winnerId": 20554478, "slots": [{"id": "92227391-0", "entrant": {"id": 20554478, "name": "Cake", "participants": [{"id": 18925007, "gamerTag": "Cake", "prefix": "", "user": {"location": {"city": "Dallas", "state": "AL", "country": "United States"}}, "player": {"id": 1046075, "gamerTag": "Cake", "prefix": "", "user": {"location": {"city": "Dallas", "state": "AL", "country": "United States"}}}}]}, "standing": {"placement": 1, "stats": {"score": {"value": 2}}}}, {"id": "92227391-1", "entrant": {"id": 20488513, "name": "BE | Bumble", "participants": [{"id": 18867472, "gamerTag": "Bumble", "prefix": "BE", "user": {"location": {"city": "Savannah", "state": "GA", "country": "United States"}}, "player": {"id": 1169889, "gamerTag": "Bumble", "prefix": "", "user": {"location": {"city": "Savannah", "state": "GA", "country": "United States"}}}}]}, "standing": {"placement": 2, "stats": {"score": {"value": 0}}}}], "games": null}, {"id": 92227200, "state": 3, "round": 2, "fullRoundText": "Winners Round 2", "completedAt": 1754168118, "winnerId": 20720131, "slots": [{"id": "92227200-0", "entrant": {"id": 20720131, "name": "PHNM | Chunky", "participants": [{"id": 19069296, "gamerTag": "Chunky", "prefix": "PHNM", "user": {"location": {"city": "Summerville", "state": "SC", "country": "United States"}}, "player": {"id": 1479891, "gamerTag": "Chunky", "prefix": "PHNM", "user": {"location": {"city": "Summerville", "state": "SC", "country": "United States"}}}}]}, "standing": {"placement": 1, "stats": {"score": {"value": 2}}}}, {"id": "92227200-1", "entrant": {"id": 20488423, "name": "Sol | Spruce", "participants": [{"id": 18867391, "gamerTag": "Spruce", "prefix": "Sol", "user": {"location": {"city": null, "state": null, "country": "United States"}}, "player": {"id": 1100077, "gamerTag": "Spruce", "prefix": "Sol", "user": {"location": {"city": null, "state": null, "country": "United States"}}}}]}, "standing": {"placement": 2, "stats": {"score": {"value": 0}}}}], "games": null}, {"id": 92227201, "state": 3, "round": 2, "fullRoundText": "Winners Round 2", "completedAt": 1754168237, "winnerId": 20498466, "slots": [{"id": "92227201-0", "entrant": {"id": 20498466, "name": "Yonko", "participants": [{"id": 18876446, "gamerTag": "Yonko", "prefix": "", "user": {"location": {"city": "Birmingham", "state": "AL", "country": "United States"}}, "player": {"id": 2453334, "gamerTag": "Yonko", "prefix": "", "user": {"location": {"city": "Birmingham", "state": "AL", "country": "United States"}}}}]}, "standing": {"placement": 1, "stats": {"score": {"value": 2}}}}, {"id": "92227201-1", "entrant": {"id": 20747804, "name": "GG | varunk", "participants": [{"id": 19093426, "gamerTag": "varunk", "prefix": "GG", "user": {"location": {"city": "Marietta", "state": "GA", "country": "United States"}}, "player": {"id": 1653684, "gamerTag": "varunk", "prefix": "GG", "user": {"location": {"city": "Marietta", "state": "GA", "country": "United States"}}}}]}, "standing": {"placement": 2, "stats": {"score": {"value": 0}}}}], "games": null}, {"id": 92227842, "state": 3, "round": 2, "fullRoundText": "Winners Round 2", "completedAt": 1754175245, "winnerId": 20783378, "slots": [{"id": "92227842-0", "entrant": {"id": 20730462, "name": "REAL | Jonestly", "participants": [{"id": 19078147, "gamerTag": "Jonestly", "prefix": "REAL", "user": {"location": {"city": "Alpharetta", "state": "GA", "country": "United States"}}, "player": {"id": 30532, "gamerTag": "Jonestly", "prefix": "REAL", "user": {"location": {"city": "Alpharetta", "state": "GA", "country": "United States"}}}}]}, "standing": {"placement": 2, "stats": {"score": {"value": 1}}}}, {"id": "92227842-1", "entrant": {"id": 20783378, "name": "FreeDubs", "participants": [{"id": 19127053, "gamerTag": "FreeDubs", "prefix": "", "user": {"location": {"city": "Atlanta", "state": null, "country": "United States"}}, "player": {"id": 4888408, "gamerTag": "FreeDubs", "prefix": "", "user": {"location": {"city": "Atlanta", "state": null, "country": "United States"}}}}]}, "standing": {"placement": 1, "stats": {"score": {"value": 2}}}}], "games": null}, {"id": 92227392, "state": 3, "round": 2, "fullRoundText": "Winners Round 2", "completedAt": 1754168424, "winnerId": 20487847, "slots": [{"id": "92227392-0", "entrant": {"id": 20487847, "name": "GUMP2 | ToxiC", "participants": [{"id": 18867033, "gamerTag": "ToxiC", "prefix": "GUMP2", "user": {"location": {"city": "Marietta", "state": "GA", "country": "United States"}}, "player": {"id": 2585804, "gamerTag": "ToxiC", "prefix": "GUMP2", "user": {"location": {"city": "Marietta", "state": "GA", "country": "United States"}}}}]}, "standing": {"placement": 1, "stats": {"score": {"value": 2}}}}, {"id": "92227392-1", "entrant": {"id": 20788471, "name": "eggbob", "participants": [{"id": 19131983, "gamerTag": "eggbob", "prefix": "", "user": {"location": {"city": null, "state": null, "country": "United States"}}, "player": {"id": 3796596, "gamerTag": "eggbob", "prefix": "", "user": {"location": {"city": null, "state": null, "country": "United States"}}}}]}, "standing": {"placement": 2, "stats": {"score": {"value": 0}}}}], "games": null}, {"id": 92227630, "state": 3, "round": 2, "fullRoundText": "Winners Round 2", "completedAt": 1754174341, "winnerId": 20488353, "slots": [{"id": "92227630-0", "entrant": {"id": 20851153, "name": "CJay", "participants": [{"id": 19187296, "gamerTag": "CJay", "prefix": null, "user": {"location": {"city": "tallahassee", "state": "FL", "country": "United States"}}, "player": {"id": 1852984, "gamerTag": "CJay", "prefix": null, "user": {"location": {"city": "tallahassee", "state": "FL", "country": "United States"}}}}]}, "standing": {"placement": 2, "stats": {"score": {"value": 0}}}}, {"id": "92227630-1", "entrant": {"id": 20488353, "name": "Cromat", "participants": [{"id": 18867338, "gamerTag": "Cromat", "prefix": "", "user": {"location": {"city": "Savannah", "state": "GA", "country": "United States"}}, "player": {"id": 3055798, "gamerTag": "Cromat", "prefix": "", "user": {"location": {"city": "Savannah", "state": "GA", "country": "United States"}}}}]}, "standing": {"placement": 1, "stats": {"score": {"value": 2}}}}], "games": null}, {"id": 92110850, "state": 3, "round": -6, "fullRoundText": "Losers Round 4", "completedAt": 1754184749, "winnerId": 20735917, "slots": [{"id": "92110850-0", "entrant": {"id": 20735917, "name": "DTN | Fatality", "participants": [{"id": 19082720, "gamerTag": "Fatality", "prefix": "DTN", "user": {"location": {"city": "Lilburn", "state": "GA", "country": "United States"}}, "player": {"id": 15921, "gamerTag": "Fatality", "prefix": "DTN", "user": {"location": {"city": "Lilburn", "state": "GA", "country": "United States"}}}}]}, "standing": {"placement": 1, "stats": {"score": {"value": 2}}}}, {"id": "92110850-1", "entrant": {"id": 20723478, "name": "ROK | Karu!", "participants": [{"id": 19072257, "gamerTag": "Karu!", "prefix": "ROK", "user": {"location": {"city": null, "state": null, "country": "United States"}}, "player": {"id": 1964751, "gamerTag": "Super Awesome Duck", "prefix": "ROK", "user": {"location": {"city": null, "state": null, "country": "United States"}}}}]}, "standing": {"placement": 2, "stats": {"score": {"value": 0}}}}], "games": null}, {"id": 92110851, "state": 3, "round": -6, "fullRoundText": "Losers Round 4", "completedAt": 1754184001, "winnerId": 20487903, "slots": [{"id": "92110851-0", "entrant": {"id": 20487903, "name": "DGS | spickles", "participants": [{"id": 18867085, "gamerTag": "spickles", "prefix": "DGS", "user": {"location": {"city": null, "state": null, "country": "United States"}}, "player": {"id": 1154793, "gamerTag": "spickles", "prefix": "DGS", "user": {"location": {"city": null, "state": null, "country": "United States"}}}}]}, "standing": {"placement": 1, "stats": {"score": {"value": 2}}}}, {"id": "92110851-1", "entrant": {"id": 20730596, "name": "TTV | aj_waves", "participants": [{"id": 19078266, "gamerTag": "aj_waves", "prefix": "TTV", "user": {"location": {"city": "Statesboro", "state": "GA", "country": "United States"}}, "player": {"id": 3430874, "gamerTag": "aj_waves", "prefix": "TTV", "user": {"location": {"city": "Statesboro", "state": "GA", "country": "United States"}}}}]}, "standing": {"placement": 2, "stats": {"score": {"value": 0}}}}], "games": null}, {"id": 92110852, "state": 3, "round": -6, "fullRoundText": "Losers Round 4", "completedAt": 1754185140, "winnerId": 20749158, "slots": [{"id": "92110852-0", "entrant": {"id": 20749158, "name": "NS | BeastModePaul", "participants": [{"id": 19094723, "gamerTag": "BeastModePaul", "prefix": "NS", "user": {"location": {"city": null, "state": null, "country": null}}, "player": {"id": 1868170, "gamerTag": "BeastModePaul", "prefix": "NS", "user": {"location": {"city": null, "state": null, "country": null}}}}]}, "standing": {"placement": 1, "stats": {"score": {"value": 2}}}}, {"id": "92110852-1", "entrant": {"id": 20720131, "name": "PHNM | Chunky", "participants": [{"id": 19069296, "gamerTag": "Chunky", "prefix": "PHNM", "user": {"location": {"city": "Summerville", "state": "SC", "country": "United States"}}, "player": {"id": 1479891, "gamerTag": "Chunky", "prefix": "PHNM", "user": {"location": {"city": "Summerville", "state": "SC", "country": "United States"}}}}]}, "standing": {"placement": 2, "stats": {"score": {"value": 1}}}}], "games": null}]}}}