{"phase": {"seeds": {"pageInfo": {"totalPages": 1, "total": 4}, "nodes": [{"id": 36765066, "seedNum": 4, "entrant": {"id": 21369817, "name": "Stock Stealers | T.K.O", "participants": [{"id": 19640782, "gamerTag": "T.K.O", "prefix": "Stock Stealers", "user": {"location": {"city": "Smyrna", "state": "GA", "country": "United States"}}, "player": {"id": 4933114, "gamerTag": "T.K.O", "prefix": "Stock Stealer", "user": {"location": {"city": "Smyrna", "state": "GA", "country": "United States"}}}}]}}, {"id": 36763721, "seedNum": 2, "entrant": {"id": 21368770, "name": "Zarek", "participants": [{"id": 19643544, "gamerTag": "Zarek", "prefix": "", "user": {"location": {"city": "Atlanta", "state": "GA", "country": "United States"}}, "player": {"id": 405682, "gamerTag": "Zarek", "prefix": "", "user": {"location": {"city": "Atlanta", "state": "GA", "country": "United States"}}}}]}}, {"id": 36763890, "seedNum": 1, "entrant": {"id": 21368897, "name": "Boo", "participants": [{"id": 19643659, "gamerTag": "Boo", "prefix": "", "user": {"location": {"city": "Cumming", "state": "GA", "country": "United States"}}, "player": {"id": 2647915, "gamerTag": "Boo", "prefix": "", "user": {"location": {"city": "Cumming", "state": "GA", "country": "United States"}}}}]}}, {"id": 36756974, "seedNum": 3, "entrant": {"id": 21363791, "name": "IceWave4", "participants": [{"id": 19639069, "gamerTag": "IceWave4", "prefix": null, "user": {"location": {"city": "Dallas", "state": "GA", "country": "United States"}}, "player": {"id": 4191196, "gamerTag": "IceWave4", "prefix": null, "user": {"location": {"city": "Dallas", "state": "GA", "country": "United States"}}}}]}}]}}}