{"phase": {"seeds": {"pageInfo": {"totalPages": 1, "total": 45}, "nodes": [{"id": 36352355, "seedNum": 6, "entrant": {"id": 21088207, "name": "4o4 | Musa", "participants": [{"id": 19397799, "gamerTag": "Musa", "prefix": "4o4", "user": {"location": {"city": null, "state": null, "country": "United States"}}, "player": {"id": 131537, "gamerTag": "Musa", "prefix": "4o4", "user": {"location": {"city": null, "state": null, "country": "United States"}}}}]}}, {"id": 36041860, "seedNum": 4, "entrant": {"id": 20893225, "name": "4o4 | MessatsuIM", "participants": [{"id": 19224033, "gamerTag": "MessatsuIM", "prefix": "4o4", "user": {"location": {"city": "Kennesaw", "state": "GA", "country": "United States"}}, "player": {"id": 3564235, "gamerTag": "MessatsuIM", "prefix": "4o4", "user": {"location": {"city": "Kennesaw", "state": "GA", "country": "United States"}}}}]}}, {"id": 36261976, "seedNum": 3, "entrant": {"id": 21027734, "name": "Magneto_1080p", "participants": [{"id": 19343075, "gamerTag": "Magneto_1080p", "prefix": null, "user": {"location": {"city": "Austin", "state": "TX", "country": "United States"}}, "player": {"id": 131810, "gamerTag": "Magneto_1080p", "prefix": null, "user": {"location": {"city": "Austin", "state": "TX", "country": "United States"}}}}]}}, {"id": 36321457, "seedNum": 2, "entrant": {"id": 21068651, "name": "Buddylikefriend", "participants": [{"id": 19380192, "gamerTag": "Buddylikefriend", "prefix": null, "user": {"location": {"city": "Atlanta", "state": "GA", "country": "United States"}}, "player": {"id": 785557, "gamerTag": "Buddylikefriend", "prefix": null, "user": {"location": {"city": "Atlanta", "state": "GA", "country": "United States"}}}}]}}, {"id": 36194430, "seedNum": 8, "entrant": {"id": 20984580, "name": "4o4 | Yugo", "participants": [{"id": 19304369, "gamerTag": "Yugo", "prefix": "4o4", "user": {"location": {"city": "Sandy springs", "state": "GA", "country": "United States"}}, "player": {"id": 338020, "gamerTag": "Yugo", "prefix": "4o4", "user": {"location": {"city": "Sandy springs", "state": "GA", "country": "United States"}}}}]}}, {"id": 36378969, "seedNum": 32, "entrant": {"id": 21105576, "name": "Chaos Theory", "participants": [{"id": 19413511, "gamerTag": "Chaos Theory", "prefix": null, "user": {"location": {"city": "Atlanta", "state": "GA", "country": "United States"}}, "player": {"id": 3605408, "gamerTag": "Chaos Theory", "prefix": null, "user": {"location": {"city": "Atlanta", "state": "GA", "country": "United States"}}}}]}}, {"id": 36224797, "seedNum": 5, "entrant": {"id": 21004898, "name": "4o4 | chrisymandias", "participants": [{"id": 19322554, "gamerTag": "chrisymandias", "prefix": "4o4", "user": {"location": {"city": "Dacula", "state": "GA", "country": "United States"}}, "player": {"id": 258173, "gamerTag": "chrisymandias", "prefix": "4o4", "user": {"location": {"city": "Dacula", "state": "GA", "country": "United States"}}}}]}}, {"id": 36323975, "seedNum": 23, "entrant": {"id": 21070660, "name": "EvilDED2", "participants": [{"id": 19382027, "gamerTag": "EvilDED2", "prefix": null, "user": {"location": {"city": "ATLANTA", "state": "GA", "country": "United States"}}, "player": {"id": 3002216, "gamerTag": "EvilDED2", "prefix": null, "user": {"location": {"city": "ATLANTA", "state": "GA", "country": "United States"}}}}]}}, {"id": 36382600, "seedNum": 7, "entrant": {"id": 21108077, "name": "4o4 | Noodle", "participants": [{"id": 19415755, "gamerTag": "Noodle", "prefix": "4o4", "user": {"location": {"city": "McDonough", "state": "GA", "country": "United States"}}, "player": {"id": 3029288, "gamerTag": "Noodle", "prefix": "", "user": {"location": {"city": "McDonough", "state": "GA", "country": "United States"}}}}]}}, {"id": 35793212, "seedNum": 12, "entrant": {"id": 20745468, "name": "AXPS420", "participants": [{"id": 19091173, "gamerTag": "AXPS420", "prefix": null, "user": {"location": {"city": "Atlanta", "state": "GA", "country": "United States"}}, "player": {"id": 3573620, "gamerTag": "AXPS420", "prefix": null, "user": {"location": {"city": "Atlanta", "state": "GA", "country": "United States"}}}}]}}, {"id": 36322272, "seedNum": 22, "entrant": {"id": 21069251, "name": "Caleko", "participants": [{"id": 19380729, "gamerTag": "Caleko", "prefix": null, "user": {"location": {"city": "Cookeville", "state": "TN", "country": "United States"}}, "player": {"id": 3460600, "gamerTag": "Caleko", "prefix": null, "user": {"location": {"city": "Cookeville", "state": "TN", "country": "United States"}}}}]}}, {"id": 36353203, "seedNum": 26, "entrant": {"id": 21088530, "name": "Fl0wchart", "participants": [{"id": 19398080, "gamerTag": "Fl0wchart", "prefix": null, "user": {"location": {"city": "Burnsville", "state": null, "country": null}}, "player": {"id": 864596, "gamerTag": "Fl0wchart", "prefix": null, "user": {"location": {"city": "Burnsville", "state": null, "country": null}}}}]}}, {"id": 36061413, "seedNum": 16, "entrant": {"id": 20903541, "name": "Phloppie", "participants": [{"id": 19233165, "gamerTag": "Phloppie", "prefix": "", "user": {"location": {"city": "Land O Lakes", "state": "FL", "country": "United States"}}, "player": {"id": 598375, "gamerTag": "Phloppie", "prefix": "", "user": {"location": {"city": "Land O Lakes", "state": "FL", "country": "United States"}}}}]}}, {"id": 36360265, "seedNum": 27, "entrant": {"id": 21094160, "name": "1STPAI", "participants": [{"id": 19403243, "gamerTag": "1STPAI", "prefix": "", "user": {"location": {"city": "Atlanta", "state": "GA", "country": "United States"}}, "player": {"id": 2355717, "gamerTag": "1STPAI", "prefix": "", "user": {"location": {"city": "Atlanta", "state": "GA", "country": "United States"}}}}]}}, {"id": 36363802, "seedNum": 29, "entrant": {"id": 21096752, "name": "The Scary Door", "participants": [{"id": 19405341, "gamerTag": "The Scary Door", "prefix": "", "user": {"location": {"city": "Atlanta", "state": "GA", "country": "United States"}}, "player": {"id": 4944131, "gamerTag": "The Scary Door", "prefix": "", "user": {"location": {"city": "Atlanta", "state": "GA", "country": "United States"}}}}]}}, {"id": 36398030, "seedNum": 41, "entrant": {"id": 21119146, "name": "Manhattan205", "participants": [{"id": 19425717, "gamerTag": "Manhattan205", "prefix": null, "user": {"location": {"city": null, "state": null, "country": null}}, "player": {"id": 3873973, "gamerTag": "Manhattan205", "prefix": null, "user": {"location": {"city": null, "state": null, "country": null}}}}]}}, {"id": 36354298, "seedNum": 9, "entrant": {"id": 21089314, "name": "Archway", "participants": [{"id": 19398797, "gamerTag": "Archway", "prefix": "", "user": {"location": {"city": "Sandy Springs", "state": "GA", "country": "United States"}}, "player": {"id": 1435251, "gamerTag": "Archway", "prefix": "", "user": {"location": {"city": "Sandy Springs", "state": "GA", "country": "United States"}}}}]}}, {"id": 36085296, "seedNum": 18, "entrant": {"id": 20919743, "name": "JDG | NoBrainThinker", "participants": [{"id": 19247795, "gamerTag": "NoBrainThinker", "prefix": "JDG", "user": {"location": {"city": "Marietta", "state": "GA", "country": "United States"}}, "player": {"id": 4912998, "gamerTag": "NoBrainer", "prefix": "JDG", "user": {"location": {"city": "Marietta", "state": "GA", "country": "United States"}}}}]}}, {"id": 36170174, "seedNum": 19, "entrant": {"id": 20974570, "name": "Jel-Sensei", "participants": [{"id": 19295829, "gamerTag": "Jel-Sensei", "prefix": "", "user": {"location": {"city": "birmingham", "state": "AL", "country": "United States"}}, "player": {"id": 1966345, "gamerTag": "Jel-Sensei", "prefix": "", "user": {"location": {"city": "birmingham", "state": "AL", "country": "United States"}}}}]}}, {"id": 36327398, "seedNum": 24, "entrant": {"id": 21073424, "name": "aScells", "participants": [{"id": 19384555, "gamerTag": "aScells", "prefix": null, "user": {"location": {"city": "Atlanta", "state": "GA", "country": "United States"}}, "player": {"id": 3775729, "gamerTag": "aScells", "prefix": null, "user": {"location": {"city": "Atlanta", "state": "GA", "country": "United States"}}}}]}}, {"id": 36361060, "seedNum": 28, "entrant": {"id": 21094597, "name": "CHINGU | Dires", "participants": [{"id": 19403668, "gamerTag": "Dires", "prefix": "CHINGU", "user": {"location": {"city": "Savannah", "state": "GA", "country": "United States"}}, "player": {"id": 1780650, "gamerTag": "Dires", "prefix": "CHINGU", "user": {"location": {"city": "Savannah", "state": "GA", "country": "United States"}}}}]}}, {"id": 36391590, "seedNum": 37, "entrant": {"id": 21114781, "name": "AKTN | P1kaso", "participants": [{"id": 19421855, "gamerTag": "P1kaso", "prefix": "AKTN", "user": {"location": {"city": null, "state": null, "country": null}}, "player": {"id": 561673, "gamerTag": "P1kaso", "prefix": "AKTN", "user": {"location": {"city": null, "state": null, "country": null}}}}]}}, {"id": 36392668, "seedNum": 38, "entrant": {"id": 21115637, "name": "EXC | Blinduv", "participants": [{"id": 19422556, "gamerTag": "Blinduv", "prefix": "EXC", "user": {"location": {"city": "Richmond", "state": "VA", "country": "United States"}}, "player": {"id": 1236931, "gamerTag": "Blinduv", "prefix": "EXC", "user": {"location": {"city": "Richmond", "state": "VA", "country": "United States"}}}}]}}, {"id": 36405103, "seedNum": 45, "entrant": {"id": 21124286, "name": "YoshiAteMyPizza", "participants": [{"id": 19430127, "gamerTag": "YoshiAteMyPizza", "prefix": "", "user": {"location": {"city": "Norcross", "state": "GA", "country": "United States"}}, "player": {"id": 2364649, "gamerTag": "YoshiAteMyPizza", "prefix": "", "user": {"location": {"city": "Norcross", "state": "GA", "country": "United States"}}}}]}}, {"id": 36278077, "seedNum": 10, "entrant": {"id": 21038666, "name": "Xangief", "participants": [{"id": 19353145, "gamerTag": "Xangief", "prefix": null, "user": {"location": {"city": "Atlanta", "state": "GA", "country": "United States"}}, "player": {"id": 135082, "gamerTag": "Xangief", "prefix": null, "user": {"location": {"city": "Atlanta", "state": "GA", "country": "United States"}}}}]}}, {"id": 36378073, "seedNum": 11, "entrant": {"id": 21104811, "name": "WFG | ChaosDunk", "participants": [{"id": 19412853, "gamerTag": "ChaosDunk", "prefix": "WFG", "user": {"location": {"city": "Woodstock", "state": "GA", "country": "United States"}}, "player": {"id": 24721, "gamerTag": "ChaosDunk", "prefix": "WFG", "user": {"location": {"city": "Woodstock", "state": "GA", "country": "United States"}}}}]}}, {"id": 35803264, "seedNum": 13, "entrant": {"id": 20750467, "name": "ARK | Foxloaf", "participants": [{"id": 19095956, "gamerTag": "Foxloaf", "prefix": "ARK", "user": {"location": {"city": "Batesville", "state": "AR", "country": "United States"}}, "player": {"id": 2729162, "gamerTag": "Foxloaf", "prefix": null, "user": {"location": {"city": "Batesville", "state": "AR", "country": "United States"}}}}]}}, {"id": 35811438, "seedNum": 14, "entrant": {"id": 20755230, "name": "ShadowWork", "participants": [{"id": 19100876, "gamerTag": "ShadowWork", "prefix": "", "user": {"location": {"city": "Decatur", "state": "GA", "country": "United States"}}, "player": {"id": 3584711, "gamerTag": "ShadowWork", "prefix": "", "user": {"location": {"city": "Decatur", "state": "GA", "country": "United States"}}}}]}}, {"id": 36295879, "seedNum": 21, "entrant": {"id": 21050481, "name": "Vincenzo", "participants": [{"id": 19363924, "gamerTag": "Vincenzo", "prefix": "", "user": {"location": {"city": "Raleigh", "state": "NC", "country": "United States"}}, "player": {"id": 4381443, "gamerTag": "SirBacon", "prefix": null, "user": {"location": {"city": "Raleigh", "state": "NC", "country": "United States"}}}}]}}, {"id": 36335443, "seedNum": 25, "entrant": {"id": 21079580, "name": "Royal Gamers | Breaka", "participants": [{"id": 19390140, "gamerTag": "Breaka", "prefix": "Royal Gamers", "user": {"location": {"city": "Jacksonville", "state": "FL", "country": "United States"}}, "player": {"id": 4328686, "gamerTag": "Breaka", "prefix": "Royal Blunts", "user": {"location": {"city": "Jacksonville", "state": "FL", "country": "United States"}}}}]}}, {"id": 36372580, "seedNum": 31, "entrant": {"id": 21100717, "name": "CHINGU | Bahamut", "participants": [{"id": 19409109, "gamerTag": "Bahamut", "prefix": "CHINGU", "user": {"location": {"city": "Atlanta", "state": "GA", "country": "United States"}}, "player": {"id": 3598331, "gamerTag": "Bahamut", "prefix": "", "user": {"location": {"city": "Atlanta", "state": "GA", "country": "United States"}}}}]}}, {"id": 36402701, "seedNum": 43, "entrant": {"id": 21122590, "name": "darkarcanine14", "participants": [{"id": 19428643, "gamerTag": "darkarcanine14", "prefix": null, "user": {"location": {"city": "Allen", "state": "TX", "country": "Mexico"}}, "player": {"id": 3755672, "gamerTag": "darkarcanine14", "prefix": null, "user": {"location": {"city": "Allen", "state": "TX", "country": "Mexico"}}}}]}}, {"id": 36398446, "seedNum": 1, "entrant": {"id": 21119527, "name": "Ursus Major", "participants": [{"id": 19426000, "gamerTag": "Ursus Major", "prefix": "", "user": {"location": {"city": "Marietta", "state": "GA", "country": "United States"}}, "player": {"id": 746367, "gamerTag": "Ursus Major", "prefix": "", "user": {"location": {"city": "Marietta", "state": "GA", "country": "United States"}}}}]}}, {"id": 35854485, "seedNum": 15, "entrant": {"id": 20777910, "name": "Qualken", "participants": [{"id": 19122024, "gamerTag": "Qualken", "prefix": null, "user": {"location": {"city": "Vicksburg", "state": "MS", "country": "United States"}}, "player": {"id": 4585302, "gamerTag": "Qualken", "prefix": null, "user": {"location": {"city": "Vicksburg", "state": "MS", "country": "United States"}}}}]}}, {"id": 36077937, "seedNum": 17, "entrant": {"id": 20914722, "name": "Halcyon", "participants": [{"id": 19243374, "gamerTag": "Halcyon", "prefix": "", "user": {"location": {"city": "Woodstock", "state": "GA", "country": "United States"}}, "player": {"id": 4914733, "gamerTag": "Halcyon", "prefix": "", "user": {"location": {"city": "Woodstock", "state": "GA", "country": "United States"}}}}]}}, {"id": 36259605, "seedNum": 20, "entrant": {"id": 21025926, "name": "CT | PacGod", "participants": [{"id": 19341592, "gamerTag": "PacGod", "prefix": "CT", "user": {"location": {"city": "Conyers", "state": "GA", "country": "United States"}}, "player": {"id": 346216, "gamerTag": "PacGod", "prefix": "CT", "user": {"location": {"city": "Conyers", "state": "GA", "country": "United States"}}}}]}}, {"id": 36368712, "seedNum": 30, "entrant": {"id": 21098484, "name": "taebyoung", "participants": [{"id": 19406942, "gamerTag": "taebyoung", "prefix": null, "user": {"location": {"city": "Troy", "state": "OH", "country": "United States"}}, "player": {"id": 1646770, "gamerTag": "taebyoung", "prefix": null, "user": {"location": {"city": "Troy", "state": "OH", "country": "United States"}}}}]}}, {"id": 36382620, "seedNum": 33, "entrant": {"id": 21108081, "name": "hazywoods", "participants": [{"id": 19415758, "gamerTag": "hazywoods", "prefix": "", "user": {"location": {"city": null, "state": null, "country": null}}, "player": {"id": 855372, "gamerTag": "hazywoods", "prefix": "", "user": {"location": {"city": null, "state": null, "country": null}}}}]}}, {"id": 36384087, "seedNum": 34, "entrant": {"id": 21108899, "name": "Scottythepreparedartist", "participants": [{"id": 19416558, "gamerTag": "Scottythepreparedartist", "prefix": "", "user": {"location": {"city": "Newnan", "state": "GA", "country": "United States"}}, "player": {"id": 4757730, "gamerTag": "Thepreparedartist", "prefix": "", "user": {"location": {"city": "Newnan", "state": "GA", "country": "United States"}}}}]}}, {"id": 36384136, "seedNum": 35, "entrant": {"id": 21108949, "name": "Circuit", "participants": [{"id": 19416602, "gamerTag": "Circuit", "prefix": null, "user": {"location": {"city": "Gainesville", "state": "GA", "country": "United States"}}, "player": {"id": 1318584, "gamerTag": "Circuit", "prefix": "", "user": {"location": {"city": "Gainesville", "state": "GA", "country": "United States"}}}}]}}, {"id": 36390924, "seedNum": 36, "entrant": {"id": 21114341, "name": "Saikyo-Ryu Dojo | Dan Hibiki", "participants": [{"id": 19421506, "gamerTag": "Dan Hibiki", "prefix": "Saikyo-Ryu Dojo", "user": {"location": {"city": "Palm Beach", "state": "FL", "country": "United States"}}, "player": {"id": 4946846, "gamerTag": "Dan Hibiki", "prefix": "Saikyo-Ryu Dojo", "user": {"location": {"city": "Palm Beach", "state": "FL", "country": "United States"}}}}]}}, {"id": 36393283, "seedNum": 39, "entrant": {"id": 21116050, "name": "Juicewithme", "participants": [{"id": 19422883, "gamerTag": "Juicewithme", "prefix": "", "user": {"location": {"city": "Greenville", "state": "SC", "country": "United States"}}, "player": {"id": 3365670, "gamerTag": "Juicewithme", "prefix": "", "user": {"location": {"city": "Greenville", "state": "SC", "country": "United States"}}}}]}}, {"id": 36393303, "seedNum": 40, "entrant": {"id": 21116054, "name": "goostain", "participants": [{"id": 19422888, "gamerTag": "goostain", "prefix": null, "user": {"location": {"city": "Huntersville", "state": "NC", "country": "United States"}}, "player": {"id": 3365655, "gamerTag": "goostain", "prefix": "", "user": {"location": {"city": "Huntersville", "state": "NC", "country": "United States"}}}}]}}, {"id": 36400133, "seedNum": 42, "entrant": {"id": 21120916, "name": "HC | Crame Splendor", "participants": [{"id": 19427211, "gamerTag": "Crame Splendor", "prefix": "HC", "user": {"location": {"city": "Atlanta", "state": "GA", "country": "United States"}}, "player": {"id": 4292285, "gamerTag": "Crame Splendor", "prefix": "HC", "user": {"location": {"city": "Atlanta", "state": "GA", "country": "United States"}}}}]}}, {"id": 36404513, "seedNum": 44, "entrant": {"id": 21123799, "name": "Sweem", "participants": [{"id": 19429472, "gamerTag": "Sweem", "prefix": null, "user": {"location": {"city": "Columbus", "state": "OH", "country": "United States"}}, "player": {"id": 4948871, "gamerTag": "Sweem", "prefix": "", "user": {"location": {"city": "Columbus", "state": "OH", "country": "United States"}}}}]}}]}}}