{"phase": {"seeds": {"pageInfo": {"totalPages": 1, "total": 4}, "nodes": [{"id": 36819956, "seedNum": 3, "entrant": {"id": 21407279, "name": "Aloe", "participants": [{"id": 19676840, "gamerTag": "Aloe", "prefix": null, "user": {"location": {"city": "Savannah", "state": "WI", "country": "United States"}}, "player": {"id": 2656903, "gamerTag": "Aloe", "prefix": null, "user": {"location": {"city": "Savannah", "state": "WI", "country": "United States"}}}}]}}, {"id": 36819014, "seedNum": 1, "entrant": {"id": 21406567, "name": "KnifeHand", "participants": [{"id": 19676201, "gamerTag": "KnifeHand", "prefix": null, "user": {"location": {"city": "Boise", "state": "ID", "country": "United States"}}, "player": {"id": 1980212, "gamerTag": "KnifeHand", "prefix": null, "user": {"location": {"city": "Boise", "state": "ID", "country": "United States"}}}}]}}, {"id": 36819924, "seedNum": 2, "entrant": {"id": 21407242, "name": "otherzenith", "participants": [{"id": 19676814, "gamerTag": "otherzenith", "prefix": "", "user": {"location": {"city": "Kennesaw", "state": null, "country": "United States"}}, "player": {"id": 3827458, "gamerTag": "otherzenith", "prefix": "", "user": {"location": {"city": "Kennesaw", "state": null, "country": "United States"}}}}]}}, {"id": 36820134, "seedNum": 4, "entrant": {"id": 21407430, "name": "Drowsy", "participants": [{"id": 19676983, "gamerTag": "Drowsy", "prefix": "", "user": {"location": {"city": null, "state": null, "country": null}}, "player": {"id": 1600842, "gamerTag": "Drowsy", "prefix": "", "user": {"location": {"city": null, "state": null, "country": null}}}}]}}]}}}