{"event": {"sets": {"pageInfo": {"totalPages": 3, "total": 34}, "nodes": [{"id": 92749500, "state": 3, "round": 6, "fullRoundText": "Grand Final", "completedAt": 1755390755, "winnerId": 20971035, "slots": [{"id": "92749500-0", "entrant": {"id": 20971035, "name": "Pokchop", "participants": [{"id": 19292652, "gamerTag": "Pokchop", "prefix": "", "user": {"location": {"city": "Atlanta", "state": "GA", "country": "United States"}}, "player": {"id": 150402, "gamerTag": "Pokchop", "prefix": "", "user": {"location": {"city": "Atlanta", "state": "GA", "country": "United States"}}}}]}, "standing": {"placement": 1, "stats": {"score": {"value": 3}}}}, {"id": "92749500-1", "entrant": {"id": 20976253, "name": "TheJestur", "participants": [{"id": 19297334, "gamerTag": "TheJestur", "prefix": "", "user": {"location": {"city": "Warner Robins", "state": null, "country": "United States"}}, "player": {"id": 609621, "gamerTag": "TheJestur", "prefix": "", "user": {"location": {"city": "Warner Robins", "state": null, "country": "United States"}}}}]}, "standing": {"placement": 2, "stats": {"score": {"value": 2}}}}], "games": null}, {"id": 92749499, "state": 3, "round": 5, "fullRoundText": "Winners Final", "completedAt": 1755385686, "winnerId": 20971035, "slots": [{"id": "92749499-0", "entrant": {"id": 20971035, "name": "Pokchop", "participants": [{"id": 19292652, "gamerTag": "Pokchop", "prefix": "", "user": {"location": {"city": "Atlanta", "state": "GA", "country": "United States"}}, "player": {"id": 150402, "gamerTag": "Pokchop", "prefix": "", "user": {"location": {"city": "Atlanta", "state": "GA", "country": "United States"}}}}]}, "standing": {"placement": 1, "stats": {"score": {"value": 3}}}}, {"id": "92749499-1", "entrant": {"id": 20976253, "name": "TheJestur", "participants": [{"id": 19297334, "gamerTag": "TheJestur", "prefix": "", "user": {"location": {"city": "Warner Robins", "state": null, "country": "United States"}}, "player": {"id": 609621, "gamerTag": "TheJestur", "prefix": "", "user": {"location": {"city": "Warner Robins", "state": null, "country": "United States"}}}}]}, "standing": {"placement": 2, "stats": {"score": {"value": 0}}}}], "games": null}, {"id": 92749563, "state": 3, "round": -10, "fullRoundText": "Losers Final", "completedAt": 1755389549, "winnerId": 20976253, "slots": [{"id": "92749563-0", "entrant": {"id": 20976253, "name": "TheJestur", "participants": [{"id": 19297334, "gamerTag": "TheJestur", "prefix": "", "user": {"location": {"city": "Warner Robins", "state": null, "country": "United States"}}, "player": {"id": 609621, "gamerTag": "TheJestur", "prefix": "", "user": {"location": {"city": "Warner Robins", "state": null, "country": "United States"}}}}]}, "standing": {"placement": 1, "stats": {"score": {"value": 3}}}}, {"id": "92749563-1", "entrant": {"id": 20966643, "name": "Luff", "participants": [{"id": 19288626, "gamerTag": "Luff", "prefix": null, "user": {"location": {"city": "Savannah", "state": "GA", "country": "United States"}}, "player": {"id": 4102348, "gamerTag": "Luff", "prefix": "SQ1", "user": {"location": {"city": "Savannah", "state": "GA", "country": "United States"}}}}]}, "standing": {"placement": 2, "stats": {"score": {"value": 2}}}}], "games": null}, {"id": 92749562, "state": 3, "round": -9, "fullRoundText": "Losers Semi-Final", "completedAt": 1755388624, "winnerId": 20966643, "slots": [{"id": "92749562-0", "entrant": {"id": 20966643, "name": "Luff", "participants": [{"id": 19288626, "gamerTag": "Luff", "prefix": null, "user": {"location": {"city": "Savannah", "state": "GA", "country": "United States"}}, "player": {"id": 4102348, "gamerTag": "Luff", "prefix": "SQ1", "user": {"location": {"city": "Savannah", "state": "GA", "country": "United States"}}}}]}, "standing": {"placement": 1, "stats": {"score": {"value": 3}}}}, {"id": "92749562-1", "entrant": {"id": 20958573, "name": "LOL!", "participants": [{"id": 19281775, "gamerTag": "LOL!", "prefix": null, "user": {"location": {"city": "Byron", "state": "GA", "country": "United States"}}, "player": {"id": 730420, "gamerTag": "LOL!", "prefix": "HJE", "user": {"location": {"city": "Byron", "state": "GA", "country": "United States"}}}}]}, "standing": {"placement": 2, "stats": {"score": {"value": 1}}}}], "games": null}, {"id": 92749497, "state": 3, "round": 4, "fullRoundText": "Winners Semi-Final", "completedAt": 1755383326, "winnerId": 20971035, "slots": [{"id": "92749497-0", "entrant": {"id": 20971035, "name": "Pokchop", "participants": [{"id": 19292652, "gamerTag": "Pokchop", "prefix": "", "user": {"location": {"city": "Atlanta", "state": "GA", "country": "United States"}}, "player": {"id": 150402, "gamerTag": "Pokchop", "prefix": "", "user": {"location": {"city": "Atlanta", "state": "GA", "country": "United States"}}}}]}, "standing": {"placement": 1, "stats": {"score": {"value": 2}}}}, {"id": "92749497-1", "entrant": {"id": 20958573, "name": "LOL!", "participants": [{"id": 19281775, "gamerTag": "LOL!", "prefix": null, "user": {"location": {"city": "Byron", "state": "GA", "country": "United States"}}, "player": {"id": 730420, "gamerTag": "LOL!", "prefix": "HJE", "user": {"location": {"city": "Byron", "state": "GA", "country": "United States"}}}}]}, "standing": {"placement": 2, "stats": {"score": {"value": 0}}}}], "games": null}, {"id": 92749498, "state": 3, "round": 4, "fullRoundText": "Winners Semi-Final", "completedAt": 1755382448, "winnerId": 20976253, "slots": [{"id": "92749498-0", "entrant": {"id": 20947552, "name": "Foam Root", "participants": [{"id": 19272375, "gamerTag": "Foam Root", "prefix": "", "user": {"location": {"city": "Covington", "state": "GA", "country": "United States"}}, "player": {"id": 541222, "gamerTag": "Foam Root", "prefix": "", "user": {"location": {"city": "Covington", "state": "GA", "country": "United States"}}}}]}, "standing": {"placement": 2, "stats": {"score": {"value": 0}}}}, {"id": "92749498-1", "entrant": {"id": 20976253, "name": "TheJestur", "participants": [{"id": 19297334, "gamerTag": "TheJestur", "prefix": "", "user": {"location": {"city": "Warner Robins", "state": null, "country": "United States"}}, "player": {"id": 609621, "gamerTag": "TheJestur", "prefix": "", "user": {"location": {"city": "Warner Robins", "state": null, "country": "United States"}}}}]}, "standing": {"placement": 1, "stats": {"score": {"value": 2}}}}], "games": null}, {"id": 92749560, "state": 3, "round": -8, "fullRoundText": "Losers Quarter-Final", "completedAt": 1755387440, "winnerId": 20966643, "slots": [{"id": "92749560-0", "entrant": {"id": 20947552, "name": "Foam Root", "participants": [{"id": 19272375, "gamerTag": "Foam Root", "prefix": "", "user": {"location": {"city": "Covington", "state": "GA", "country": "United States"}}, "player": {"id": 541222, "gamerTag": "Foam Root", "prefix": "", "user": {"location": {"city": "Covington", "state": "GA", "country": "United States"}}}}]}, "standing": {"placement": 2, "stats": {"score": {"value": 0}}}}, {"id": "92749560-1", "entrant": {"id": 20966643, "name": "Luff", "participants": [{"id": 19288626, "gamerTag": "Luff", "prefix": null, "user": {"location": {"city": "Savannah", "state": "GA", "country": "United States"}}, "player": {"id": 4102348, "gamerTag": "Luff", "prefix": "SQ1", "user": {"location": {"city": "Savannah", "state": "GA", "country": "United States"}}}}]}, "standing": {"placement": 1, "stats": {"score": {"value": 2}}}}], "games": null}, {"id": 92749561, "state": 3, "round": -8, "fullRoundText": "Losers Quarter-Final", "completedAt": 1755386623, "winnerId": 20958573, "slots": [{"id": "92749561-0", "entrant": {"id": 20958573, "name": "LOL!", "participants": [{"id": 19281775, "gamerTag": "LOL!", "prefix": null, "user": {"location": {"city": "Byron", "state": "GA", "country": "United States"}}, "player": {"id": 730420, "gamerTag": "LOL!", "prefix": "HJE", "user": {"location": {"city": "Byron", "state": "GA", "country": "United States"}}}}]}, "standing": {"placement": 1, "stats": {"score": {"value": 2}}}}, {"id": "92749561-1", "entrant": {"id": 20989455, "name": "BRUHnana", "participants": [{"id": 19308399, "gamerTag": "BRUHnana", "prefix": null, "user": {"location": {"city": "Warner Robins", "state": "GA", "country": "United States"}}, "player": {"id": 3570019, "gamerTag": "BRUHnana", "prefix": null, "user": {"location": {"city": "Warner Robins", "state": "GA", "country": "United States"}}}}]}, "standing": {"placement": 2, "stats": {"score": {"value": 0}}}}], "games": null}, {"id": 92749558, "state": 3, "round": -7, "fullRoundText": "Losers Round 4", "completedAt": 1755386102, "winnerId": 20966643, "slots": [{"id": "92749558-0", "entrant": {"id": 20989021, "name": "Midira", "participants": [{"id": 19308019, "gamerTag": "Midira", "prefix": null, "user": {"location": {"city": "Kathleen", "state": "GA", "country": "United States"}}, "player": {"id": 779164, "gamerTag": "Midira", "prefix": null, "user": {"location": {"city": "Kathleen", "state": "GA", "country": "United States"}}}}]}, "standing": {"placement": 2, "stats": {"score": {"value": 0}}}}, {"id": "92749558-1", "entrant": {"id": 20966643, "name": "Luff", "participants": [{"id": 19288626, "gamerTag": "Luff", "prefix": null, "user": {"location": {"city": "Savannah", "state": "GA", "country": "United States"}}, "player": {"id": 4102348, "gamerTag": "Luff", "prefix": "SQ1", "user": {"location": {"city": "Savannah", "state": "GA", "country": "United States"}}}}]}, "standing": {"placement": 1, "stats": {"score": {"value": 2}}}}], "games": null}, {"id": 92749559, "state": 3, "round": -7, "fullRoundText": "Losers Round 4", "completedAt": 1755385447, "winnerId": 20989455, "slots": [{"id": "92749559-0", "entrant": {"id": 20989455, "name": "BRUHnana", "participants": [{"id": 19308399, "gamerTag": "BRUHnana", "prefix": null, "user": {"location": {"city": "Warner Robins", "state": "GA", "country": "United States"}}, "player": {"id": 3570019, "gamerTag": "BRUHnana", "prefix": null, "user": {"location": {"city": "Warner Robins", "state": "GA", "country": "United States"}}}}]}, "standing": {"placement": 1, "stats": {"score": {"value": 2}}}}, {"id": "92749559-1", "entrant": {"id": 20989071, "name": "RBG | Cpain20", "participants": [{"id": 19308063, "gamerTag": "Cpain20", "prefix": "RBG", "user": {"location": {"city": "Macon", "state": "GA", "country": "United States"}}, "player": {"id": 1528477, "gamerTag": "Cpain20", "prefix": "RBG", "user": {"location": {"city": "Macon", "state": "GA", "country": "United States"}}}}]}, "standing": {"placement": 2, "stats": {"score": {"value": 1}}}}], "games": null}, {"id": 92749493, "state": 3, "round": 3, "fullRoundText": "Winners Quarter-Final", "completedAt": 1755381566, "winnerId": 20971035, "slots": [{"id": "92749493-0", "entrant": {"id": 20971035, "name": "Pokchop", "participants": [{"id": 19292652, "gamerTag": "Pokchop", "prefix": "", "user": {"location": {"city": "Atlanta", "state": "GA", "country": "United States"}}, "player": {"id": 150402, "gamerTag": "Pokchop", "prefix": "", "user": {"location": {"city": "Atlanta", "state": "GA", "country": "United States"}}}}]}, "standing": {"placement": 1, "stats": {"score": {"value": 2}}}}, {"id": "92749493-1", "entrant": {"id": 20966643, "name": "Luff", "participants": [{"id": 19288626, "gamerTag": "Luff", "prefix": null, "user": {"location": {"city": "Savannah", "state": "GA", "country": "United States"}}, "player": {"id": 4102348, "gamerTag": "Luff", "prefix": "SQ1", "user": {"location": {"city": "Savannah", "state": "GA", "country": "United States"}}}}]}, "standing": {"placement": 2, "stats": {"score": {"value": 0}}}}], "games": null}, {"id": 92749494, "state": 3, "round": 3, "fullRoundText": "Winners Quarter-Final", "completedAt": 1755383197, "winnerId": 20958573, "slots": [{"id": "92749494-0", "entrant": {"id": 20958573, "name": "LOL!", "participants": [{"id": 19281775, "gamerTag": "LOL!", "prefix": null, "user": {"location": {"city": "Byron", "state": "GA", "country": "United States"}}, "player": {"id": 730420, "gamerTag": "LOL!", "prefix": "HJE", "user": {"location": {"city": "Byron", "state": "GA", "country": "United States"}}}}]}, "standing": {"placement": 1, "stats": {"score": {"value": 2}}}}, {"id": "92749494-1", "entrant": {"id": 20976517, "name": "Area_478 | BigBoss_DP", "participants": [{"id": 19297563, "gamerTag": "BigBoss_DP", "prefix": "Area_478", "user": {"location": {"city": "Macon", "state": "GA", "country": "United States"}}, "player": {"id": 146751, "gamerTag": "BigBoss_DP", "prefix": "Area_478", "user": {"location": {"city": "Macon", "state": "GA", "country": "United States"}}}}]}, "standing": {"placement": 2, "stats": {"score": {"value": 1}}}}], "games": null}, {"id": 92749495, "state": 3, "round": 3, "fullRoundText": "Winners Quarter-Final", "completedAt": 1755381365, "winnerId": 20947552, "slots": [{"id": "92749495-0", "entrant": {"id": 20920900, "name": "JSH3LLZ", "participants": [{"id": 19248764, "gamerTag": "JSH3LLZ", "prefix": null, "user": {"location": {"city": "atlanta", "state": "GA", "country": "United States"}}, "player": {"id": 1379919, "gamerTag": "JSH3LLZ", "prefix": null, "user": {"location": {"city": "atlanta", "state": "GA", "country": "United States"}}}}]}, "standing": {"placement": 2, "stats": {"score": {"value": 1}}}}, {"id": "92749495-1", "entrant": {"id": 20947552, "name": "Foam Root", "participants": [{"id": 19272375, "gamerTag": "Foam Root", "prefix": "", "user": {"location": {"city": "Covington", "state": "GA", "country": "United States"}}, "player": {"id": 541222, "gamerTag": "Foam Root", "prefix": "", "user": {"location": {"city": "Covington", "state": "GA", "country": "United States"}}}}]}, "standing": {"placement": 1, "stats": {"score": {"value": 2}}}}], "games": null}, {"id": 92749496, "state": 3, "round": 3, "fullRoundText": "Winners Quarter-Final", "completedAt": 1755380181, "winnerId": 20976253, "slots": [{"id": "92749496-0", "entrant": {"id": 20976253, "name": "TheJestur", "participants": [{"id": 19297334, "gamerTag": "TheJestur", "prefix": "", "user": {"location": {"city": "Warner Robins", "state": null, "country": "United States"}}, "player": {"id": 609621, "gamerTag": "TheJestur", "prefix": "", "user": {"location": {"city": "Warner Robins", "state": null, "country": "United States"}}}}]}, "standing": {"placement": 1, "stats": {"score": {"value": 2}}}}, {"id": "92749496-1", "entrant": {"id": 20981286, "name": "TimBob", "participants": [{"id": 19301778, "gamerTag": "TimBob", "prefix": null, "user": {"location": {"city": "Macon", "state": "GA", "country": "United States"}}, "player": {"id": 4345861, "gamerTag": "TimBob", "prefix": null, "user": {"location": {"city": "Macon", "state": "GA", "country": "United States"}}}}]}, "standing": {"placement": 2, "stats": {"score": {"value": 0}}}}], "games": null}, {"id": 92749555, "state": 3, "round": -6, "fullRoundText": "Losers Round 3", "completedAt": 1755382124, "winnerId": 20966643, "slots": [{"id": "92749555-0", "entrant": {"id": 20966643, "name": "Luff", "participants": [{"id": 19288626, "gamerTag": "Luff", "prefix": null, "user": {"location": {"city": "Savannah", "state": "GA", "country": "United States"}}, "player": {"id": 4102348, "gamerTag": "Luff", "prefix": "SQ1", "user": {"location": {"city": "Savannah", "state": "GA", "country": "United States"}}}}]}, "standing": {"placement": 1, "stats": {"score": {"value": 2}}}}, {"id": "92749555-1", "entrant": {"id": 20985264, "name": "SQ1 | dertdobber", "participants": [{"id": 19304856, "gamerTag": "dertdobber", "prefix": "SQ1", "user": {"location": {"city": "Savannah", "state": "GA", "country": "United States"}}, "player": {"id": 173899, "gamerTag": "dertdobber", "prefix": null, "user": {"location": {"city": "Savannah", "state": "GA", "country": "United States"}}}}]}, "standing": {"placement": 2, "stats": {"score": {"value": 0}}}}], "games": null}]}}}