{"phase": {"seeds": {"pageInfo": {"totalPages": 1, "total": 5}, "nodes": [{"id": 36862746, "seedNum": 1, "entrant": {"id": 21437798, "name": "The Simpsons | Ryu from Streets", "participants": [{"id": 19703337, "gamerTag": "Ryu from Streets", "prefix": "The Simpsons", "user": {"location": {"city": null, "state": null, "country": null}}, "player": {"id": 2348605, "gamerTag": "Ryu from Streets", "prefix": "GUMP2", "user": {"location": {"city": null, "state": null, "country": null}}}}]}}, {"id": 36861714, "seedNum": 3, "entrant": {"id": 21436834, "name": "Boo", "participants": [{"id": 19702463, "gamerTag": "Boo", "prefix": "", "user": {"location": {"city": "Cumming", "state": "GA", "country": "United States"}}, "player": {"id": 2647915, "gamerTag": "Boo", "prefix": "", "user": {"location": {"city": "Cumming", "state": "GA", "country": "United States"}}}}]}}, {"id": 36859948, "seedNum": 2, "entrant": {"id": 21435584, "name": "Rain~", "participants": [{"id": 19701397, "gamerTag": "Rain~", "prefix": null, "user": {"location": {"city": "Atlanta", "state": "GA", "country": "United States"}}, "player": {"id": 4240164, "gamerTag": "Rain~", "prefix": null, "user": {"location": {"city": "Atlanta", "state": "GA", "country": "United States"}}}}]}}, {"id": 36859319, "seedNum": 4, "entrant": {"id": 21434990, "name": "KSU | Subzero", "participants": [{"id": 19700932, "gamerTag": "Subzero", "prefix": "KSU", "user": {"location": {"city": "Acworth", "state": "GA", "country": "United States"}}, "player": {"id": 1808159, "gamerTag": "Subzero", "prefix": "KSU", "user": {"location": {"city": "Acworth", "state": "GA", "country": "United States"}}}}]}}, {"id": 36861614, "seedNum": 5, "entrant": {"id": 21436741, "name": "Zarek", "participants": [{"id": 19702380, "gamerTag": "Zarek", "prefix": "", "user": {"location": {"city": "Atlanta", "state": "GA", "country": "United States"}}, "player": {"id": 405682, "gamerTag": "Zarek", "prefix": "", "user": {"location": {"city": "Atlanta", "state": "GA", "country": "United States"}}}}]}}]}}}