{"event": {"sets": {"pageInfo": {"totalPages": 2, "total": 21}, "nodes": [{"id": 94417556, "state": 3, "round": 5, "fullRoundText": "Grand Final", "completedAt": 1759032787, "winnerId": 21231354, "slots": [{"id": "94417556-0", "entrant": {"id": 21212019, "name": "Captain C", "participants": [{"id": 19507827, "gamerTag": "Captain C", "prefix": null, "user": {"location": {"city": null, "state": null, "country": null}}, "player": {"id": 802498, "gamerTag": "Captain C", "prefix": null, "user": {"location": {"city": null, "state": null, "country": null}}}}]}, "standing": {"placement": 2, "stats": {"score": {"value": 1}}}}, {"id": "94417556-1", "entrant": {"id": 21231354, "name": "Boxboy", "participants": [{"id": 19524550, "gamerTag": "Boxboy", "prefix": "", "user": {"location": {"city": "Tifton", "state": "GA", "country": "United States"}}, "player": {"id": 1174039, "gamerTag": "Boxboy", "prefix": "", "user": {"location": {"city": "Tifton", "state": "GA", "country": "United States"}}}}]}, "standing": {"placement": 1, "stats": {"score": {"value": 3}}}}], "games": [{"id": 32926628, "orderNum": 1, "winnerId": 21212019, "entrant1Score": 0, "entrant2Score": 0, "stage": null, "selections": null}, {"id": 32926629, "orderNum": 2, "winnerId": 21231354, "entrant1Score": 0, "entrant2Score": 0, "stage": null, "selections": null}, {"id": 32926630, "orderNum": 3, "winnerId": 21231354, "entrant1Score": 0, "entrant2Score": null, "stage": null, "selections": null}, {"id": 32926631, "orderNum": 4, "winnerId": 21231354, "entrant1Score": 0, "entrant2Score": 0, "stage": null, "selections": null}]}, {"id": 94417557, "state": 3, "round": 5, "fullRoundText": "Grand Final Reset", "completedAt": 1759032815, "winnerId": 21212019, "slots": [{"id": "94417557-0", "entrant": {"id": 21231354, "name": "Boxboy", "participants": [{"id": 19524550, "gamerTag": "Boxboy", "prefix": "", "user": {"location": {"city": "Tifton", "state": "GA", "country": "United States"}}, "player": {"id": 1174039, "gamerTag": "Boxboy", "prefix": "", "user": {"location": {"city": "Tifton", "state": "GA", "country": "United States"}}}}]}, "standing": {"placement": 2, "stats": {"score": {"value": 1}}}}, {"id": "94417557-1", "entrant": {"id": 21212019, "name": "Captain C", "participants": [{"id": 19507827, "gamerTag": "Captain C", "prefix": null, "user": {"location": {"city": null, "state": null, "country": null}}, "player": {"id": 802498, "gamerTag": "Captain C", "prefix": null, "user": {"location": {"city": null, "state": null, "country": null}}}}]}, "standing": {"placement": 1, "stats": {"score": {"value": 3}}}}], "games": null}, {"id": 94417555, "state": 3, "round": 4, "fullRoundText": "Winners Final", "completedAt": 1759014556, "winnerId": 21212019, "slots": [{"id": "94417555-0", "entrant": {"id": 21231354, "name": "Boxboy", "participants": [{"id": 19524550, "gamerTag": "Boxboy", "prefix": "", "user": {"location": {"city": "Tifton", "state": "GA", "country": "United States"}}, "player": {"id": 1174039, "gamerTag": "Boxboy", "prefix": "", "user": {"location": {"city": "Tifton", "state": "GA", "country": "United States"}}}}]}, "standing": {"placement": 2, "stats": {"score": {"value": 1}}}}, {"id": "94417555-1", "entrant": {"id": 21212019, "name": "Captain C", "participants": [{"id": 19507827, "gamerTag": "Captain C", "prefix": null, "user": {"location": {"city": null, "state": null, "country": null}}, "player": {"id": 802498, "gamerTag": "Captain C", "prefix": null, "user": {"location": {"city": null, "state": null, "country": null}}}}]}, "standing": {"placement": 1, "stats": {"score": {"value": 3}}}}], "games": null}, {"id": 94417587, "state": 3, "round": -8, "fullRoundText": "Losers Final", "completedAt": 1759015885, "winnerId": 21231354, "slots": [{"id": "94417587-0", "entrant": {"id": 21231354, "name": "Boxboy", "participants": [{"id": 19524550, "gamerTag": "Boxboy", "prefix": "", "user": {"location": {"city": "Tifton", "state": "GA", "country": "United States"}}, "player": {"id": 1174039, "gamerTag": "Boxboy", "prefix": "", "user": {"location": {"city": "Tifton", "state": "GA", "country": "United States"}}}}]}, "standing": {"placement": 1, "stats": {"score": {"value": 3}}}}, {"id": "94417587-1", "entrant": {"id": 21367990, "name": "Cubonez", "participants": [{"id": 19642818, "gamerTag": "Cubonez", "prefix": "", "user": {"location": {"city": "Gainesville", "state": "GA", "country": "United States"}}, "player": {"id": 4806236, "gamerTag": "Cubonez", "prefix": "", "user": {"location": {"city": "Gainesville", "state": "GA", "country": "United States"}}}}]}, "standing": {"placement": 2, "stats": {"score": {"value": 2}}}}], "games": null}, {"id": 94417586, "state": 3, "round": -7, "fullRoundText": "Losers Semi-Final", "completedAt": 1759036985, "winnerId": 21367990, "slots": [{"id": "94417586-0", "entrant": {"id": 21338090, "name": "FNG | S0URCEC0DE", "participants": [{"id": 19615640, "gamerTag": "S0URCEC0DE", "prefix": "FNG", "user": {"location": {"city": "Macon", "state": "GA", "country": "United States"}}, "player": {"id": 2699776, "gamerTag": "S0URCEC0DE", "prefix": "FNG", "user": {"location": {"city": "Macon", "state": "GA", "country": "United States"}}}}]}, "standing": {"placement": 2, "stats": {"score": {"value": 0}}}}, {"id": "94417586-1", "entrant": {"id": 21367990, "name": "Cubonez", "participants": [{"id": 19642818, "gamerTag": "Cubonez", "prefix": "", "user": {"location": {"city": "Gainesville", "state": "GA", "country": "United States"}}, "player": {"id": 4806236, "gamerTag": "Cubonez", "prefix": "", "user": {"location": {"city": "Gainesville", "state": "GA", "country": "United States"}}}}]}, "standing": {"placement": 1, "stats": {"score": {"value": 2}}}}], "games": null}, {"id": 94417553, "state": 3, "round": 3, "fullRoundText": "Winners Semi-Final", "completedAt": 1759012030, "winnerId": 21231354, "slots": [{"id": "94417553-0", "entrant": {"id": 21231354, "name": "Boxboy", "participants": [{"id": 19524550, "gamerTag": "Boxboy", "prefix": "", "user": {"location": {"city": "Tifton", "state": "GA", "country": "United States"}}, "player": {"id": 1174039, "gamerTag": "Boxboy", "prefix": "", "user": {"location": {"city": "Tifton", "state": "GA", "country": "United States"}}}}]}, "standing": {"placement": 1, "stats": {"score": {"value": 2}}}}, {"id": "94417553-1", "entrant": {"id": 21175778, "name": "BluuZ00", "participants": [{"id": 19475879, "gamerTag": "BluuZ00", "prefix": "", "user": {"location": {"city": null, "state": null, "country": "United States"}}, "player": {"id": 4241203, "gamerTag": "BluuZ00", "prefix": "", "user": {"location": {"city": null, "state": null, "country": "United States"}}}}]}, "standing": {"placement": 2, "stats": {"score": {"value": 0}}}}], "games": null}, {"id": 94417554, "state": 3, "round": 3, "fullRoundText": "Winners Semi-Final", "completedAt": 1759012488, "winnerId": 21212019, "slots": [{"id": "94417554-0", "entrant": {"id": 21212019, "name": "Captain C", "participants": [{"id": 19507827, "gamerTag": "Captain C", "prefix": null, "user": {"location": {"city": null, "state": null, "country": null}}, "player": {"id": 802498, "gamerTag": "Captain C", "prefix": null, "user": {"location": {"city": null, "state": null, "country": null}}}}]}, "standing": {"placement": 1, "stats": {"score": {"value": 2}}}}, {"id": "94417554-1", "entrant": {"id": 21367990, "name": "Cubonez", "participants": [{"id": 19642818, "gamerTag": "Cubonez", "prefix": "", "user": {"location": {"city": "Gainesville", "state": "GA", "country": "United States"}}, "player": {"id": 4806236, "gamerTag": "Cubonez", "prefix": "", "user": {"location": {"city": "Gainesville", "state": "GA", "country": "United States"}}}}]}, "standing": {"placement": 2, "stats": {"score": {"value": 1}}}}], "games": null}, {"id": 94417584, "state": 3, "round": -6, "fullRoundText": "Losers Quarter-Final", "completedAt": 1759012728, "winnerId": 21338090, "slots": [{"id": "94417584-0", "entrant": {"id": 21175778, "name": "BluuZ00", "participants": [{"id": 19475879, "gamerTag": "BluuZ00", "prefix": "", "user": {"location": {"city": null, "state": null, "country": "United States"}}, "player": {"id": 4241203, "gamerTag": "BluuZ00", "prefix": "", "user": {"location": {"city": null, "state": null, "country": "United States"}}}}]}, "standing": {"placement": 2, "stats": {"score": {"value": 0}}}}, {"id": "94417584-1", "entrant": {"id": 21338090, "name": "FNG | S0URCEC0DE", "participants": [{"id": 19615640, "gamerTag": "S0URCEC0DE", "prefix": "FNG", "user": {"location": {"city": "Macon", "state": "GA", "country": "United States"}}, "player": {"id": 2699776, "gamerTag": "S0URCEC0DE", "prefix": "FNG", "user": {"location": {"city": "Macon", "state": "GA", "country": "United States"}}}}]}, "standing": {"placement": 1, "stats": {"score": {"value": 2}}}}], "games": null}, {"id": 94417585, "state": 3, "round": -6, "fullRoundText": "Losers Quarter-Final", "completedAt": 1759013122, "winnerId": 21367990, "slots": [{"id": "94417585-0", "entrant": {"id": 21367990, "name": "Cubonez", "participants": [{"id": 19642818, "gamerTag": "Cubonez", "prefix": "", "user": {"location": {"city": "Gainesville", "state": "GA", "country": "United States"}}, "player": {"id": 4806236, "gamerTag": "Cubonez", "prefix": "", "user": {"location": {"city": "Gainesville", "state": "GA", "country": "United States"}}}}]}, "standing": {"placement": 1, "stats": {"score": {"value": 2}}}}, {"id": "94417585-1", "entrant": {"id": 21231398, "name": "Tiseas", "participants": [{"id": 19524582, "gamerTag": "Tiseas", "prefix": null, "user": null, "player": {"id": 4817338, "gamerTag": "Tiseas", "prefix": null, "user": null}}]}, "standing": {"placement": 2, "stats": {"score": {"value": 0}}}}], "games": null}, {"id": 94417582, "state": 3, "round": -5, "fullRoundText": "Losers Round 2", "completedAt": 1759012290, "winnerId": 21338090, "slots": [{"id": "94417582-0", "entrant": {"id": 21338090, "name": "FNG | S0URCEC0DE", "participants": [{"id": 19615640, "gamerTag": "S0URCEC0DE", "prefix": "FNG", "user": {"location": {"city": "Macon", "state": "GA", "country": "United States"}}, "player": {"id": 2699776, "gamerTag": "S0URCEC0DE", "prefix": "FNG", "user": {"location": {"city": "Macon", "state": "GA", "country": "United States"}}}}]}, "standing": {"placement": 1, "stats": {"score": {"value": 2}}}}, {"id": "94417582-1", "entrant": {"id": 21396652, "name": "EISEN", "participants": [{"id": 19667840, "gamerTag": "EISEN", "prefix": "", "user": {"location": {"city": null, "state": null, "country": "United States"}}, "player": {"id": 3483274, "gamerTag": "EISEN", "prefix": "", "user": {"location": {"city": null, "state": null, "country": "United States"}}}}]}, "standing": {"placement": 2, "stats": {"score": {"value": 0}}}}], "games": null}, {"id": 94417583, "state": 3, "round": -5, "fullRoundText": "Losers Round 2", "completedAt": 1759012575, "winnerId": 21231398, "slots": [{"id": "94417583-0", "entrant": {"id": 21231398, "name": "Tiseas", "participants": [{"id": 19524582, "gamerTag": "Tiseas", "prefix": null, "user": null, "player": {"id": 4817338, "gamerTag": "Tiseas", "prefix": null, "user": null}}]}, "standing": {"placement": 1, "stats": {"score": {"value": 2}}}}, {"id": "94417583-1", "entrant": {"id": 21389577, "name": "Bigbrown177013", "participants": [{"id": 19661917, "gamerTag": "Bigbrown177013", "prefix": null, "user": {"location": {"city": "Rome", "state": "GA", "country": "United States"}}, "player": {"id": 3581492, "gamerTag": "Bigbrown177013", "prefix": null, "user": {"location": {"city": "Rome", "state": "GA", "country": "United States"}}}}]}, "standing": {"placement": 2, "stats": {"score": {"value": 0}}}}], "games": null}, {"id": 94417549, "state": 3, "round": 2, "fullRoundText": "Winners Quarter-Final", "completedAt": 1759069503, "winnerId": 21231354, "slots": [{"id": "94417549-0", "entrant": {"id": 21231354, "name": "Boxboy", "participants": [{"id": 19524550, "gamerTag": "Boxboy", "prefix": "", "user": {"location": {"city": "Tifton", "state": "GA", "country": "United States"}}, "player": {"id": 1174039, "gamerTag": "Boxboy", "prefix": "", "user": {"location": {"city": "Tifton", "state": "GA", "country": "United States"}}}}]}, "standing": {"placement": 1, "stats": {"score": {"value": 2}}}}, {"id": "94417549-1", "entrant": {"id": 21389577, "name": "Bigbrown177013", "participants": [{"id": 19661917, "gamerTag": "Bigbrown177013", "prefix": null, "user": {"location": {"city": "Rome", "state": "GA", "country": "United States"}}, "player": {"id": 3581492, "gamerTag": "Bigbrown177013", "prefix": null, "user": {"location": {"city": "Rome", "state": "GA", "country": "United States"}}}}]}, "standing": {"placement": 2, "stats": {"score": {"value": 1}}}}], "games": null}, {"id": 94417550, "state": 3, "round": 2, "fullRoundText": "Winners Quarter-Final", "completedAt": 1759010058, "winnerId": 21175778, "slots": [{"id": "94417550-0", "entrant": {"id": 21231391, "name": "Deez", "participants": [{"id": 19524578, "gamerTag": "Deez", "prefix": "", "user": {"location": null}, "player": {"id": 22852, "gamerTag": "Deez", "prefix": "", "user": {"location": null}}}]}, "standing": {"placement": 2, "stats": {"score": {"value": 0}}}}, {"id": "94417550-1", "entrant": {"id": 21175778, "name": "BluuZ00", "participants": [{"id": 19475879, "gamerTag": "BluuZ00", "prefix": "", "user": {"location": {"city": null, "state": null, "country": "United States"}}, "player": {"id": 4241203, "gamerTag": "BluuZ00", "prefix": "", "user": {"location": {"city": null, "state": null, "country": "United States"}}}}]}, "standing": {"placement": 1, "stats": {"score": {"value": 2}}}}], "games": null}, {"id": 94417551, "state": 3, "round": 2, "fullRoundText": "Winners Quarter-Final", "completedAt": 1759010394, "winnerId": 21212019, "slots": [{"id": "94417551-0", "entrant": {"id": 21212019, "name": "Captain C", "participants": [{"id": 19507827, "gamerTag": "Captain C", "prefix": null, "user": {"location": {"city": null, "state": null, "country": null}}, "player": {"id": 802498, "gamerTag": "Captain C", "prefix": null, "user": {"location": {"city": null, "state": null, "country": null}}}}]}, "standing": {"placement": 1, "stats": {"score": {"value": 2}}}}, {"id": "94417551-1", "entrant": {"id": 21396652, "name": "EISEN", "participants": [{"id": 19667840, "gamerTag": "EISEN", "prefix": "", "user": {"location": {"city": null, "state": null, "country": "United States"}}, "player": {"id": 3483274, "gamerTag": "EISEN", "prefix": "", "user": {"location": {"city": null, "state": null, "country": "United States"}}}}]}, "standing": {"placement": 2, "stats": {"score": {"value": 0}}}}], "games": null}, {"id": 94417552, "state": 3, "round": 2, "fullRoundText": "Winners Quarter-Final", "completedAt": 1759010929, "winnerId": 21367990, "slots": [{"id": "94417552-0", "entrant": {"id": 21338090, "name": "FNG | S0URCEC0DE", "participants": [{"id": 19615640, "gamerTag": "S0URCEC0DE", "prefix": "FNG", "user": {"location": {"city": "Macon", "state": "GA", "country": "United States"}}, "player": {"id": 2699776, "gamerTag": "S0URCEC0DE", "prefix": "FNG", "user": {"location": {"city": "Macon", "state": "GA", "country": "United States"}}}}]}, "standing": {"placement": 2, "stats": {"score": {"value": 1}}}}, {"id": "94417552-1", "entrant": {"id": 21367990, "name": "Cubonez", "participants": [{"id": 19642818, "gamerTag": "Cubonez", "prefix": "", "user": {"location": {"city": "Gainesville", "state": "GA", "country": "United States"}}, "player": {"id": 4806236, "gamerTag": "Cubonez", "prefix": "", "user": {"location": {"city": "Gainesville", "state": "GA", "country": "United States"}}}}]}, "standing": {"placement": 1, "stats": {"score": {"value": 2}}}}], "games": null}]}}}