{"event": {"sets": {"pageInfo": {"totalPages": 4, "total": 59}, "nodes": [{"id": 94203606, "state": 3, "round": 3, "fullRoundText": "Grand Final", "completedAt": 1758513006, "winnerId": 21339275, "slots": [{"id": "94203606-0", "entrant": {"id": 21341769, "name": "TnT | Damp\u00e9", "participants": [{"id": 19618990, "gamerTag": "Damp\u00e9", "prefix": "TnT", "user": {"location": {"city": "Atlanta", "state": "GA", "country": "United States"}}, "player": {"id": 1170738, "gamerTag": "Damp\u00e9", "prefix": "TnT", "user": {"location": {"city": "Atlanta", "state": "GA", "country": "United States"}}}}]}, "standing": {"placement": 2, "stats": {"score": {"value": 0}}}}, {"id": "94203606-1", "entrant": {"id": 21339275, "name": "Kid Kaioken", "participants": [{"id": 19616734, "gamerTag": "Kid Kaioken", "prefix": "", "user": {"location": {"city": "Norcross", "state": "GA", "country": "United States"}}, "player": {"id": 2730912, "gamerTag": "Kid Kaioken", "prefix": "", "user": {"location": {"city": "Norcross", "state": "GA", "country": "United States"}}}}]}, "standing": {"placement": 1, "stats": {"score": {"value": 3}}}}], "games": null}, {"id": 94203607, "state": 3, "round": 3, "fullRoundText": "Grand Final Reset", "completedAt": 1758513010, "winnerId": 21339275, "slots": [{"id": "94203607-0", "entrant": {"id": 21339275, "name": "Kid Kaioken", "participants": [{"id": 19616734, "gamerTag": "Kid Kaioken", "prefix": "", "user": {"location": {"city": "Norcross", "state": "GA", "country": "United States"}}, "player": {"id": 2730912, "gamerTag": "Kid Kaioken", "prefix": "", "user": {"location": {"city": "Norcross", "state": "GA", "country": "United States"}}}}]}, "standing": {"placement": 1, "stats": {"score": {"value": 3}}}}, {"id": "94203607-1", "entrant": {"id": 21341769, "name": "TnT | Damp\u00e9", "participants": [{"id": 19618990, "gamerTag": "Damp\u00e9", "prefix": "TnT", "user": {"location": {"city": "Atlanta", "state": "GA", "country": "United States"}}, "player": {"id": 1170738, "gamerTag": "Damp\u00e9", "prefix": "TnT", "user": {"location": {"city": "Atlanta", "state": "GA", "country": "United States"}}}}]}, "standing": {"placement": 2, "stats": {"score": {"value": 0}}}}], "games": null}, {"id": 94203281, "state": 3, "round": 3, "fullRoundText": "Winners Semi-Final", "completedAt": 1758506942, "winnerId": 21341101, "slots": [{"id": "94203281-0", "entrant": {"id": 21341705, "name": "Yummy", "participants": [{"id": 19618940, "gamerTag": "Yummy", "prefix": "", "user": {"location": {"city": "Atlanta", "state": "GA", "country": "United States"}}, "player": {"id": 1743866, "gamerTag": "Yummy", "prefix": "", "user": {"location": {"city": "Atlanta", "state": "GA", "country": "United States"}}}}]}, "standing": {"placement": 2, "stats": {"score": {"value": 0}}}}, {"id": "94203281-1", "entrant": {"id": 21341101, "name": "RM | Retro18", "participants": [{"id": 19618400, "gamerTag": "Retro18", "prefix": "RM", "user": {"location": {"city": "Loganville", "state": "GA", "country": "United States"}}, "player": {"id": 867830, "gamerTag": "Retro18", "prefix": "RM", "user": {"location": {"city": "Loganville", "state": "GA", "country": "United States"}}}}]}, "standing": {"placement": 1, "stats": {"score": {"value": 2}}}}], "games": null}, {"id": 94203328, "state": 3, "round": 3, "fullRoundText": "Winners Semi-Final", "completedAt": 1758506209, "winnerId": 21337620, "slots": [{"id": "94203328-0", "entrant": {"id": 21341563, "name": "RM | lawl", "participants": [{"id": 19618820, "gamerTag": "lawl", "prefix": "RM", "user": {"location": {"city": "Dacula", "state": "GA", "country": "United States"}}, "player": {"id": 2116990, "gamerTag": "lawl", "prefix": "RM", "user": {"location": {"city": "Dacula", "state": "GA", "country": "United States"}}}}]}, "standing": {"placement": 2, "stats": {"score": {"value": 0}}}}, {"id": "94203328-1", "entrant": {"id": 21337620, "name": "TFT | BigCheese", "participants": [{"id": 19615184, "gamerTag": "BigCheese", "prefix": "TFT", "user": {"location": {"city": null, "state": null, "country": null}}, "player": {"id": 3991446, "gamerTag": "BigCheese", "prefix": "TFT", "user": {"location": {"city": null, "state": null, "country": null}}}}]}, "standing": {"placement": 1, "stats": {"score": {"value": 3}}}}], "games": null}, {"id": 94203282, "state": 3, "round": 3, "fullRoundText": "Winners Semi-Final", "completedAt": 1758506379, "winnerId": 21341769, "slots": [{"id": "94203282-0", "entrant": {"id": 21341761, "name": "Jdaddy", "participants": [{"id": 19618982, "gamerTag": "Jdaddy", "prefix": null, "user": {"location": {"city": "Atlanta", "state": "GA", "country": "United States"}}, "player": {"id": 4384721, "gamerTag": "Jdaddy", "prefix": null, "user": {"location": {"city": "Atlanta", "state": "GA", "country": "United States"}}}}]}, "standing": {"placement": 2, "stats": {"score": {"value": 1}}}}, {"id": "94203282-1", "entrant": {"id": 21341769, "name": "TnT | Damp\u00e9", "participants": [{"id": 19618990, "gamerTag": "Damp\u00e9", "prefix": "TnT", "user": {"location": {"city": "Atlanta", "state": "GA", "country": "United States"}}, "player": {"id": 1170738, "gamerTag": "Damp\u00e9", "prefix": "TnT", "user": {"location": {"city": "Atlanta", "state": "GA", "country": "United States"}}}}]}, "standing": {"placement": 1, "stats": {"score": {"value": 2}}}}], "games": null}, {"id": 94203329, "state": 3, "round": 3, "fullRoundText": "Winners Semi-Final", "completedAt": 1758505695, "winnerId": 21338347, "slots": [{"id": "94203329-0", "entrant": {"id": 21338347, "name": "Heart", "participants": [{"id": 19615870, "gamerTag": "Heart", "prefix": null, "user": {"location": {"city": "Atlanta", "state": "GA", "country": "United States"}}, "player": {"id": 4287822, "gamerTag": "Heart", "prefix": "", "user": {"location": {"city": "Atlanta", "state": "GA", "country": "United States"}}}}]}, "standing": {"placement": 1, "stats": {"score": {"value": 2}}}}, {"id": "94203329-1", "entrant": {"id": 21339275, "name": "Kid Kaioken", "participants": [{"id": 19616734, "gamerTag": "Kid Kaioken", "prefix": "", "user": {"location": {"city": "Norcross", "state": "GA", "country": "United States"}}, "player": {"id": 2730912, "gamerTag": "Kid Kaioken", "prefix": "", "user": {"location": {"city": "Norcross", "state": "GA", "country": "United States"}}}}]}, "standing": {"placement": 2, "stats": {"score": {"value": 1}}}}], "games": null}, {"id": 94203313, "state": 3, "round": -6, "fullRoundText": "Losers Quarter-Final", "completedAt": 1758507469, "winnerId": 21341638, "slots": [{"id": "94203313-0", "entrant": {"id": 21341761, "name": "Jdaddy", "participants": [{"id": 19618982, "gamerTag": "Jdaddy", "prefix": null, "user": {"location": {"city": "Atlanta", "state": "GA", "country": "United States"}}, "player": {"id": 4384721, "gamerTag": "Jdaddy", "prefix": null, "user": {"location": {"city": "Atlanta", "state": "GA", "country": "United States"}}}}]}, "standing": {"placement": 2, "stats": {"score": {"value": 1}}}}, {"id": "94203313-1", "entrant": {"id": 21341638, "name": "RAMS | RussianJesus", "participants": [{"id": 19618881, "gamerTag": "RussianJesus", "prefix": "RAMS", "user": {"location": {"city": "Atlanta", "state": "GA", "country": "United States"}}, "player": {"id": 1140567, "gamerTag": "RussianJesus", "prefix": "RAMS", "user": {"location": {"city": "Atlanta", "state": "GA", "country": "United States"}}}}]}, "standing": {"placement": 1, "stats": {"score": {"value": 2}}}}], "games": null}, {"id": 94203360, "state": 3, "round": -6, "fullRoundText": "Losers Quarter-Final", "completedAt": 1758507043, "winnerId": 21339275, "slots": [{"id": "94203360-0", "entrant": {"id": 21339275, "name": "Kid Kaioken", "participants": [{"id": 19616734, "gamerTag": "Kid Kaioken", "prefix": "", "user": {"location": {"city": "Norcross", "state": "GA", "country": "United States"}}, "player": {"id": 2730912, "gamerTag": "Kid Kaioken", "prefix": "", "user": {"location": {"city": "Norcross", "state": "GA", "country": "United States"}}}}]}, "standing": {"placement": 1, "stats": {"score": {"value": 2}}}}, {"id": "94203360-1", "entrant": {"id": 21341811, "name": "TnT | Sid", "participants": [{"id": 19619027, "gamerTag": "Sid", "prefix": "TnT", "user": {"location": {"city": "Powder Springs", "state": "GA", "country": "United States"}}, "player": {"id": 1229067, "gamerTag": "Sid", "prefix": "TnT", "user": {"location": {"city": "Powder Springs", "state": "GA", "country": "United States"}}}}]}, "standing": {"placement": 2, "stats": {"score": {"value": 0}}}}], "games": null}, {"id": 94203359, "state": 3, "round": -6, "fullRoundText": "Losers Quarter-Final", "completedAt": 1758506988, "winnerId": 21341563, "slots": [{"id": "94203359-0", "entrant": {"id": 21341563, "name": "RM | lawl", "participants": [{"id": 19618820, "gamerTag": "lawl", "prefix": "RM", "user": {"location": {"city": "Dacula", "state": "GA", "country": "United States"}}, "player": {"id": 2116990, "gamerTag": "lawl", "prefix": "RM", "user": {"location": {"city": "Dacula", "state": "GA", "country": "United States"}}}}]}, "standing": {"placement": 1, "stats": {"score": {"value": 2}}}}, {"id": "94203359-1", "entrant": {"id": 21340970, "name": "SamRice", "participants": [{"id": 19618279, "gamerTag": "SamRice", "prefix": "", "user": {"location": {"city": "Norcross", "state": "GA", "country": "United States"}}, "player": {"id": 2387403, "gamerTag": "SamRice", "prefix": "", "user": {"location": {"city": "Norcross", "state": "GA", "country": "United States"}}}}]}, "standing": {"placement": 2, "stats": {"score": {"value": 1}}}}], "games": null}, {"id": 94203312, "state": 3, "round": -6, "fullRoundText": "Losers Quarter-Final", "completedAt": 1758507750, "winnerId": 21341705, "slots": [{"id": "94203312-0", "entrant": {"id": 21341705, "name": "Yummy", "participants": [{"id": 19618940, "gamerTag": "Yummy", "prefix": "", "user": {"location": {"city": "Atlanta", "state": "GA", "country": "United States"}}, "player": {"id": 1743866, "gamerTag": "Yummy", "prefix": "", "user": {"location": {"city": "Atlanta", "state": "GA", "country": "United States"}}}}]}, "standing": {"placement": 1, "stats": {"score": {"value": 2}}}}, {"id": "94203312-1", "entrant": {"id": 21341664, "name": "PhaZe", "participants": [{"id": 19618904, "gamerTag": "PhaZe", "prefix": "", "user": {"location": {"city": "Gainesville", "state": "GA", "country": "United States"}}, "player": {"id": 36212, "gamerTag": "PhaZe", "prefix": "", "user": {"location": {"city": "Gainesville", "state": "GA", "country": "United States"}}}}]}, "standing": {"placement": 2, "stats": {"score": {"value": 1}}}}], "games": null}, {"id": 94203310, "state": 3, "round": -5, "fullRoundText": "Losers Round 3", "completedAt": 1758506767, "winnerId": 21341664, "slots": [{"id": "94203310-0", "entrant": {"id": 21341768, "name": "millano", "participants": [{"id": 19618989, "gamerTag": "millano", "prefix": "", "user": null, "player": {"id": 4214682, "gamerTag": "millano", "prefix": "", "user": null}}]}, "standing": {"placement": 2, "stats": {"score": {"value": 0}}}}, {"id": "94203310-1", "entrant": {"id": 21341664, "name": "PhaZe", "participants": [{"id": 19618904, "gamerTag": "PhaZe", "prefix": "", "user": {"location": {"city": "Gainesville", "state": "GA", "country": "United States"}}, "player": {"id": 36212, "gamerTag": "PhaZe", "prefix": "", "user": {"location": {"city": "Gainesville", "state": "GA", "country": "United States"}}}}]}, "standing": {"placement": 1, "stats": {"score": {"value": 2}}}}], "games": null}, {"id": 94203357, "state": 3, "round": -5, "fullRoundText": "Losers Round 3", "completedAt": 1758506270, "winnerId": 21340970, "slots": [{"id": "94203357-0", "entrant": {"id": 21341612, "name": "Tilted", "participants": [{"id": 19618860, "gamerTag": "Tilted", "prefix": null, "user": {"location": {"city": "Norcross", "state": "GA", "country": "United States"}}, "player": {"id": 2377635, "gamerTag": "Tilted", "prefix": null, "user": {"location": {"city": "Norcross", "state": "GA", "country": "United States"}}}}]}, "standing": {"placement": 2, "stats": {"score": {"value": 1}}}}, {"id": "94203357-1", "entrant": {"id": 21340970, "name": "SamRice", "participants": [{"id": 19618279, "gamerTag": "SamRice", "prefix": "", "user": {"location": {"city": "Norcross", "state": "GA", "country": "United States"}}, "player": {"id": 2387403, "gamerTag": "SamRice", "prefix": "", "user": {"location": {"city": "Norcross", "state": "GA", "country": "United States"}}}}]}, "standing": {"placement": 1, "stats": {"score": {"value": 2}}}}], "games": null}, {"id": 94203311, "state": 3, "round": -5, "fullRoundText": "Losers Round 3", "completedAt": 1758506515, "winnerId": 21341638, "slots": [{"id": "94203311-0", "entrant": {"id": 21341638, "name": "RAMS | RussianJesus", "participants": [{"id": 19618881, "gamerTag": "RussianJesus", "prefix": "RAMS", "user": {"location": {"city": "Atlanta", "state": "GA", "country": "United States"}}, "player": {"id": 1140567, "gamerTag": "RussianJesus", "prefix": "RAMS", "user": {"location": {"city": "Atlanta", "state": "GA", "country": "United States"}}}}]}, "standing": {"placement": 1, "stats": {"score": {"value": 2}}}}, {"id": "94203311-1", "entrant": {"id": 21339369, "name": "Mickeydeez", "participants": [{"id": 19616811, "gamerTag": "Mickeydeez", "prefix": "", "user": {"location": {"city": "Atlanta", "state": "GA", "country": "United States"}}, "player": {"id": 4825580, "gamerTag": "Mickeydeez", "prefix": "", "user": {"location": {"city": "Atlanta", "state": "GA", "country": "United States"}}}}]}, "standing": {"placement": 2, "stats": {"score": {"value": 0}}}}], "games": null}, {"id": 94203358, "state": 3, "round": -5, "fullRoundText": "Losers Round 3", "completedAt": 1758506788, "winnerId": 21341811, "slots": [{"id": "94203358-0", "entrant": {"id": 21341549, "name": "MONEY | ImNoPro", "participants": [{"id": 19618812, "gamerTag": "ImNoPro", "prefix": "MONEY", "user": {"location": {"city": "Calhoun", "state": "GA", "country": "United States"}}, "player": {"id": 2149803, "gamerTag": "ImNoPro", "prefix": "MONEY", "user": {"location": {"city": "Calhoun", "state": "GA", "country": "United States"}}}}]}, "standing": {"placement": 2, "stats": {"score": {"value": 0}}}}, {"id": "94203358-1", "entrant": {"id": 21341811, "name": "TnT | Sid", "participants": [{"id": 19619027, "gamerTag": "Sid", "prefix": "TnT", "user": {"location": {"city": "Powder Springs", "state": "GA", "country": "United States"}}, "player": {"id": 1229067, "gamerTag": "Sid", "prefix": "TnT", "user": {"location": {"city": "Powder Springs", "state": "GA", "country": "United States"}}}}]}, "standing": {"placement": 1, "stats": {"score": {"value": 2}}}}], "games": null}, {"id": 94203605, "state": 3, "round": 2, "fullRoundText": "Winners Final", "completedAt": 1758510482, "winnerId": 21341769, "slots": [{"id": "94203605-0", "entrant": {"id": 21341769, "name": "TnT | Damp\u00e9", "participants": [{"id": 19618990, "gamerTag": "Damp\u00e9", "prefix": "TnT", "user": {"location": {"city": "Atlanta", "state": "GA", "country": "United States"}}, "player": {"id": 1170738, "gamerTag": "Damp\u00e9", "prefix": "TnT", "user": {"location": {"city": "Atlanta", "state": "GA", "country": "United States"}}}}]}, "standing": {"placement": 1, "stats": {"score": {"value": 3}}}}, {"id": "94203605-1", "entrant": {"id": 21338347, "name": "Heart", "participants": [{"id": 19615870, "gamerTag": "Heart", "prefix": null, "user": {"location": {"city": "Atlanta", "state": "GA", "country": "United States"}}, "player": {"id": 4287822, "gamerTag": "Heart", "prefix": "", "user": {"location": {"city": "Atlanta", "state": "GA", "country": "United States"}}}}]}, "standing": {"placement": 2, "stats": {"score": {"value": 2}}}}], "games": null}]}}}