{"event": {"sets": {"pageInfo": {"totalPages": 5, "total": 68}, "nodes": [{"id": 93361812, "state": 3, "round": -6, "fullRoundText": "Losers Round 3", "completedAt": 1756685174, "winnerId": 21126719, "slots": [{"id": "93361812-0", "entrant": {"id": 21126719, "name": "Iso.Dgaf", "participants": [{"id": 19432428, "gamerTag": "Iso.Dgaf", "prefix": null, "user": {"location": {"city": "Acworth", "state": "GA", "country": "United States"}}, "player": {"id": 4285541, "gamerTag": "Iso.Dgaf", "prefix": null, "user": {"location": {"city": "Acworth", "state": "GA", "country": "United States"}}}}]}, "standing": {"placement": 1, "stats": {"score": {"value": 2}}}}, {"id": "93361812-1", "entrant": {"id": 21118870, "name": "Shadowmerc360", "participants": [{"id": 19425456, "gamerTag": "Shadowmerc360", "prefix": null, "user": {"location": {"city": "Detroit", "state": "MI", "country": "United States"}}, "player": {"id": 4093609, "gamerTag": "Shadowmerc360", "prefix": null, "user": {"location": {"city": "Detroit", "state": "MI", "country": "United States"}}}}]}, "standing": {"placement": 2, "stats": {"score": {"value": 0}}}}], "games": null}, {"id": 93361813, "state": 3, "round": -6, "fullRoundText": "Losers Round 3", "completedAt": 1756685065, "winnerId": 20984581, "slots": [{"id": "93361813-0", "entrant": {"id": 20984581, "name": "4o4 | Yugo", "participants": [{"id": 19304369, "gamerTag": "Yugo", "prefix": "4o4", "user": {"location": {"city": "Sandy springs", "state": "GA", "country": "United States"}}, "player": {"id": 338020, "gamerTag": "Yugo", "prefix": "4o4", "user": {"location": {"city": "Sandy springs", "state": "GA", "country": "United States"}}}}]}, "standing": {"placement": 1, "stats": {"score": {"value": 2}}}}, {"id": "93361813-1", "entrant": {"id": 21130366, "name": "Xylias", "participants": [{"id": 19435967, "gamerTag": "Xylias", "prefix": "", "user": {"location": {"city": "Conyers", "state": "GA", "country": "United States"}}, "player": {"id": 4780181, "gamerTag": "Xyylias", "prefix": "", "user": {"location": {"city": "Conyers", "state": "GA", "country": "United States"}}}}]}, "standing": {"placement": 2, "stats": {"score": {"value": 1}}}}], "games": null}, {"id": 93361814, "state": 3, "round": -6, "fullRoundText": "Losers Round 3", "completedAt": 1756685591, "winnerId": 21133246, "slots": [{"id": "93361814-0", "entrant": {"id": 21133246, "name": "Owen Dos | BlackHeart", "participants": [{"id": 19438468, "gamerTag": "BlackHeart", "prefix": "Owen Dos", "user": {"location": {"city": "Buford", "state": "GA", "country": "United States"}}, "player": {"id": 2228433, "gamerTag": "BlackHeart", "prefix": "Owen Dos", "user": {"location": {"city": "Buford", "state": "GA", "country": "United States"}}}}]}, "standing": {"placement": 1, "stats": {"score": {"value": 2}}}}, {"id": "93361814-1", "entrant": {"id": 21109986, "name": "stonecold913", "participants": [{"id": 19417569, "gamerTag": "stonecold913", "prefix": null, "user": {"location": {"city": "Brick", "state": "NJ", "country": "United States"}}, "player": {"id": 3198373, "gamerTag": "stonecold913", "prefix": null, "user": {"location": {"city": "Brick", "state": "NJ", "country": "United States"}}}}]}, "standing": {"placement": 2, "stats": {"score": {"value": 0}}}}], "games": null}, {"id": 93361815, "state": 3, "round": -6, "fullRoundText": "Losers Round 3", "completedAt": 1756685336, "winnerId": 21111503, "slots": [{"id": "93361815-0", "entrant": {"id": 20919744, "name": "JDG | NoBrainThinker", "participants": [{"id": 19247795, "gamerTag": "NoBrainThinker", "prefix": "JDG", "user": {"location": {"city": "Marietta", "state": "GA", "country": "United States"}}, "player": {"id": 4912998, "gamerTag": "NoBrainer", "prefix": "JDG", "user": {"location": {"city": "Marietta", "state": "GA", "country": "United States"}}}}]}, "standing": {"placement": 2, "stats": {"score": {"value": 0}}}}, {"id": "93361815-1", "entrant": {"id": 21111503, "name": "HtK | toties", "participants": [{"id": 19418880, "gamerTag": "toties", "prefix": "HtK", "user": {"location": {"city": "Atlanta", "state": "GA", "country": "United States"}}, "player": {"id": 3927021, "gamerTag": "toties", "prefix": "HtK", "user": {"location": {"city": "Atlanta", "state": "GA", "country": "United States"}}}}]}, "standing": {"placement": 1, "stats": {"score": {"value": 2}}}}], "games": null}, {"id": 93361816, "state": 3, "round": -6, "fullRoundText": "Losers Round 3", "completedAt": 1756685186, "winnerId": 21101541, "slots": [{"id": "93361816-0", "entrant": {"id": 21108900, "name": "Scottythepreparedartist", "participants": [{"id": 19416558, "gamerTag": "Scottythepreparedartist", "prefix": "", "user": {"location": {"city": "Newnan", "state": "GA", "country": "United States"}}, "player": {"id": 4757730, "gamerTag": "Thepreparedartist", "prefix": "", "user": {"location": {"city": "Newnan", "state": "GA", "country": "United States"}}}}]}, "standing": {"placement": 2, "stats": {"score": {"value": 0}}}}, {"id": "93361816-1", "entrant": {"id": 21101541, "name": "N_W_Alucard", "participants": [{"id": 19409884, "gamerTag": "N_W_Alucard", "prefix": "", "user": {"location": {"city": "Jackson", "state": "MS", "country": "United States"}}, "player": {"id": 1297677, "gamerTag": "N_W_Alucard", "prefix": "", "user": {"location": {"city": "Jackson", "state": "MS", "country": "United States"}}}}]}, "standing": {"placement": 1, "stats": {"score": {"value": 2}}}}], "games": null}, {"id": 93361817, "state": 3, "round": -6, "fullRoundText": "Losers Round 3", "completedAt": 1756686441, "winnerId": 21123301, "slots": [{"id": "93361817-0", "entrant": {"id": 21084462, "name": "MKWH | Paretk", "participants": [{"id": 19394562, "gamerTag": "Paretk", "prefix": "MKWH", "user": {"location": {"city": null, "state": null, "country": "Saudi Arabia"}}, "player": {"id": 4942649, "gamerTag": "Paretk", "prefix": "MKWH", "user": {"location": {"city": null, "state": null, "country": "Saudi Arabia"}}}}]}, "standing": {"placement": 2, "stats": {"score": {"value": 1}}}}, {"id": "93361817-1", "entrant": {"id": 21123301, "name": "Rated R", "participants": [{"id": 19386004, "gamerTag": "Rated R", "prefix": null, "user": {"location": {"city": null, "state": null, "country": "United States"}}, "player": {"id": 2703555, "gamerTag": "Rated R", "prefix": null, "user": {"location": {"city": null, "state": null, "country": "United States"}}}}]}, "standing": {"placement": 1, "stats": {"score": {"value": 2}}}}], "games": null}, {"id": 93361818, "state": 3, "round": -6, "fullRoundText": "Losers Round 3", "completedAt": 1756685557, "winnerId": 20738293, "slots": [{"id": "93361818-0", "entrant": {"id": 20738293, "name": "BOLT | Slash", "participants": [{"id": 19084598, "gamerTag": "Slash", "prefix": "BOLT", "user": {"location": {"city": "Grovetown", "state": "GA", "country": "United States"}}, "player": {"id": 4020750, "gamerTag": "Slash", "prefix": "BOLT", "user": {"location": {"city": "Grovetown", "state": "GA", "country": "United States"}}}}]}, "standing": {"placement": 1, "stats": {"score": {"value": 2}}}}, {"id": "93361818-1", "entrant": {"id": 21117211, "name": "Risan.The0utsider_36", "participants": [{"id": 19423909, "gamerTag": "Risan.The0utsider_36", "prefix": null, "user": {"location": {"city": "Douglasville", "state": "GA", "country": "United States"}}, "player": {"id": 2584378, "gamerTag": "Risan.The0utsider_36", "prefix": null, "user": {"location": {"city": "Douglasville", "state": "GA", "country": "United States"}}}}]}, "standing": {"placement": 2, "stats": {"score": {"value": 1}}}}], "games": null}, {"id": 93361819, "state": 3, "round": -6, "fullRoundText": "Losers Round 3", "completedAt": 1756685882, "winnerId": 21059692, "slots": [{"id": "93361819-0", "entrant": {"id": 21059692, "name": "Bitazeee", "participants": [{"id": 19371927, "gamerTag": "Bitazeee", "prefix": null, "user": {"location": {"city": "Charlotte", "state": "NC", "country": "United States"}}, "player": {"id": 3817099, "gamerTag": "Bitazeee", "prefix": null, "user": {"location": {"city": "Charlotte", "state": "NC", "country": "United States"}}}}]}, "standing": {"placement": 1, "stats": {"score": {"value": 2}}}}, {"id": "93361819-1", "entrant": {"id": 21131840, "name": "UTINNI | MontanaY2J", "participants": [{"id": 19437311, "gamerTag": "MontanaY2J", "prefix": "UTINNI", "user": {"location": {"city": "Atlanta", "state": "GA", "country": "United States"}}, "player": {"id": 4091753, "gamerTag": "MontanaY2J", "prefix": "UTINNI", "user": {"location": {"city": "Atlanta", "state": "GA", "country": "United States"}}}}]}, "standing": {"placement": 2, "stats": {"score": {"value": 0}}}}], "games": null}, {"id": 93361804, "state": 3, "round": -5, "fullRoundText": "Losers Round 2", "completedAt": 1756684299, "winnerId": 21118870, "slots": [{"id": "93361804-0", "entrant": {"id": 21130951, "name": "Shaggy", "participants": [{"id": 19436549, "gamerTag": "Shaggy", "prefix": "", "user": {"location": {"city": "Atlanta", "state": "GA", "country": "United States"}}, "player": {"id": 4951149, "gamerTag": "Shaggy", "prefix": "", "user": {"location": {"city": "Atlanta", "state": "GA", "country": "United States"}}}}]}, "standing": {"placement": 2, "stats": {"score": {"value": 0}}}}, {"id": "93361804-1", "entrant": {"id": 21118870, "name": "Shadowmerc360", "participants": [{"id": 19425456, "gamerTag": "Shadowmerc360", "prefix": null, "user": {"location": {"city": "Detroit", "state": "MI", "country": "United States"}}, "player": {"id": 4093609, "gamerTag": "Shadowmerc360", "prefix": null, "user": {"location": {"city": "Detroit", "state": "MI", "country": "United States"}}}}]}, "standing": {"placement": 1, "stats": {"score": {"value": 2}}}}], "games": null}, {"id": 93361805, "state": 3, "round": -5, "fullRoundText": "Losers Round 2", "completedAt": 1756684033, "winnerId": 21130366, "slots": [{"id": "93361805-0", "entrant": {"id": 21070467, "name": "Oni_Shogi", "participants": [{"id": 19381871, "gamerTag": "Oni_Shogi", "prefix": "", "user": {"location": {"city": "Atlanta", "state": "GA", "country": "United States"}}, "player": {"id": 1400524, "gamerTag": "Oni_Shogi", "prefix": "", "user": {"location": {"city": "Atlanta", "state": "GA", "country": "United States"}}}}]}, "standing": {"placement": 2, "stats": {"score": {"value": -1}}}}, {"id": "93361805-1", "entrant": {"id": 21130366, "name": "Xylias", "participants": [{"id": 19435967, "gamerTag": "Xylias", "prefix": "", "user": {"location": {"city": "Conyers", "state": "GA", "country": "United States"}}, "player": {"id": 4780181, "gamerTag": "Xyylias", "prefix": "", "user": {"location": {"city": "Conyers", "state": "GA", "country": "United States"}}}}]}, "standing": {"placement": 1, "stats": {"score": {"value": null}}}}], "games": null}, {"id": 93361806, "state": 3, "round": -5, "fullRoundText": "Losers Round 2", "completedAt": 1756683558, "winnerId": 21109986, "slots": [{"id": "93361806-0", "entrant": {"id": 21109986, "name": "stonecold913", "participants": [{"id": 19417569, "gamerTag": "stonecold913", "prefix": null, "user": {"location": {"city": "Brick", "state": "NJ", "country": "United States"}}, "player": {"id": 3198373, "gamerTag": "stonecold913", "prefix": null, "user": {"location": {"city": "Brick", "state": "NJ", "country": "United States"}}}}]}, "standing": {"placement": 1, "stats": {"score": {"value": null}}}}, {"id": "93361806-1", "entrant": {"id": 21118206, "name": "6thRaikage", "participants": [{"id": 19424815, "gamerTag": "6thRaikage", "prefix": "", "user": {"location": {"city": "Stone mountain", "state": null, "country": "South Korea"}}, "player": {"id": 1290793, "gamerTag": "6thRaikage", "prefix": "", "user": {"location": {"city": "Stone mountain", "state": null, "country": "South Korea"}}}}]}, "standing": {"placement": 2, "stats": {"score": {"value": -1}}}}], "games": null}, {"id": 93361807, "state": 3, "round": -5, "fullRoundText": "Losers Round 2", "completedAt": 1756684961, "winnerId": 21111503, "slots": [{"id": "93361807-0", "entrant": {"id": 21111503, "name": "HtK | toties", "participants": [{"id": 19418880, "gamerTag": "toties", "prefix": "HtK", "user": {"location": {"city": "Atlanta", "state": "GA", "country": "United States"}}, "player": {"id": 3927021, "gamerTag": "toties", "prefix": "HtK", "user": {"location": {"city": "Atlanta", "state": "GA", "country": "United States"}}}}]}, "standing": {"placement": 1, "stats": {"score": {"value": 2}}}}, {"id": "93361807-1", "entrant": {"id": 21130689, "name": "Bleachedbagel", "participants": [{"id": 19436156, "gamerTag": "Bleachedbagel", "prefix": null, "user": {"location": {"city": "McDonough", "state": "GA", "country": "United States"}}, "player": {"id": 4951110, "gamerTag": "Bleachedbagel", "prefix": "", "user": {"location": {"city": "McDonough", "state": "GA", "country": "United States"}}}}]}, "standing": {"placement": 2, "stats": {"score": {"value": 0}}}}], "games": null}, {"id": 93361808, "state": 3, "round": -5, "fullRoundText": "Losers Round 2", "completedAt": 1756684795, "winnerId": 21101541, "slots": [{"id": "93361808-0", "entrant": {"id": 21101541, "name": "N_W_Alucard", "participants": [{"id": 19409884, "gamerTag": "N_W_Alucard", "prefix": "", "user": {"location": {"city": "Jackson", "state": "MS", "country": "United States"}}, "player": {"id": 1297677, "gamerTag": "N_W_Alucard", "prefix": "", "user": {"location": {"city": "Jackson", "state": "MS", "country": "United States"}}}}]}, "standing": {"placement": 1, "stats": {"score": {"value": null}}}}, {"id": "93361808-1", "entrant": {"id": 21118963, "name": "Gamestradamous", "participants": [{"id": 19425551, "gamerTag": "Gamestradamous", "prefix": null, "user": {"location": {"city": "Arlington", "state": "TX", "country": "United States"}}, "player": {"id": 2701839, "gamerTag": "Gamestradamous", "prefix": null, "user": {"location": {"city": "Arlington", "state": "TX", "country": "United States"}}}}]}, "standing": {"placement": 2, "stats": {"score": {"value": -1}}}}], "games": null}, {"id": 93361809, "state": 3, "round": -5, "fullRoundText": "Losers Round 2", "completedAt": 1756684379, "winnerId": 21123301, "slots": [{"id": "93361809-0", "entrant": {"id": 21087481, "name": "Polobear | polobear1975", "participants": [{"id": 19397115, "gamerTag": "polobear1975", "prefix": "Polobear", "user": {"location": {"city": null, "state": null, "country": null}}, "player": {"id": 4899772, "gamerTag": "polobear1975", "prefix": null, "user": {"location": {"city": null, "state": null, "country": null}}}}]}, "standing": {"placement": 2, "stats": {"score": {"value": 0}}}}, {"id": "93361809-1", "entrant": {"id": 21123301, "name": "Rated R", "participants": [{"id": 19386004, "gamerTag": "Rated R", "prefix": null, "user": {"location": {"city": null, "state": null, "country": "United States"}}, "player": {"id": 2703555, "gamerTag": "Rated R", "prefix": null, "user": {"location": {"city": null, "state": null, "country": "United States"}}}}]}, "standing": {"placement": 1, "stats": {"score": {"value": 2}}}}], "games": null}, {"id": 93361810, "state": 3, "round": -5, "fullRoundText": "Losers Round 2", "completedAt": 1756684760, "winnerId": 21117211, "slots": [{"id": "93361810-0", "entrant": {"id": 21114148, "name": "TIF | | xS1MBA_3", "participants": [{"id": 19421342, "gamerTag": "xS1MBA_3", "prefix": "TIF |", "user": {"location": {"city": "Birmingham", "state": "AL", "country": "United States"}}, "player": {"id": 4500766, "gamerTag": "xS1MBA_3", "prefix": "TIF |", "user": {"location": {"city": "Birmingham", "state": "AL", "country": "United States"}}}}]}, "standing": {"placement": 2, "stats": {"score": {"value": 0}}}}, {"id": "93361810-1", "entrant": {"id": 21117211, "name": "Risan.The0utsider_36", "participants": [{"id": 19423909, "gamerTag": "Risan.The0utsider_36", "prefix": null, "user": {"location": {"city": "Douglasville", "state": "GA", "country": "United States"}}, "player": {"id": 2584378, "gamerTag": "Risan.The0utsider_36", "prefix": null, "user": {"location": {"city": "Douglasville", "state": "GA", "country": "United States"}}}}]}, "standing": {"placement": 1, "stats": {"score": {"value": 2}}}}], "games": null}]}}}