{"phase": {"seeds": {"pageInfo": {"totalPages": 1, "total": 16}, "nodes": [{"id": 36822846, "seedNum": 4, "entrant": {"id": 21409307, "name": "RAMS | Bragmuffin", "participants": [{"id": 19678672, "gamerTag": "Bragmuffin", "prefix": "RAMS", "user": {"location": {"city": "Alpharetta", "state": "GA", "country": "United States"}}, "player": {"id": 2354073, "gamerTag": "Bragmuffin", "prefix": "RAMS", "user": {"location": {"city": "Alpharetta", "state": "GA", "country": "United States"}}}}]}}, {"id": 36760101, "seedNum": 1, "entrant": {"id": 21365770, "name": "TFT | ALLEYCAT", "participants": [{"id": 19640831, "gamerTag": "ALLEYCAT", "prefix": "TFT", "user": {"location": {"city": "Atlanta", "state": "GA", "country": "United States"}}, "player": {"id": 1940654, "gamerTag": "ALLEYCAT", "prefix": "TFT", "user": {"location": {"city": "Atlanta", "state": "GA", "country": "United States"}}}}]}}, {"id": 36822841, "seedNum": 10, "entrant": {"id": 21409303, "name": "RAMS | XL Dukie AF", "participants": [{"id": 19678668, "gamerTag": "XL Dukie AF", "prefix": "RAMS", "user": {"location": {"city": "Peachtree Corners", "state": "GA", "country": "United States"}}, "player": {"id": 2374690, "gamerTag": "XL Dukie AF", "prefix": "RAMS", "user": {"location": {"city": "Peachtree Corners", "state": "GA", "country": "United States"}}}}]}}, {"id": 36819270, "seedNum": 5, "entrant": {"id": 21406812, "name": "TFT | Juug$tarr", "participants": [{"id": 19676428, "gamerTag": "Juug$tarr", "prefix": "TFT", "user": {"location": {"city": "Atlanta", "state": "GA", "country": "United States"}}, "player": {"id": 3621035, "gamerTag": "Juug$tarr", "prefix": "TFT", "user": {"location": {"city": "Atlanta", "state": "GA", "country": "United States"}}}}]}}, {"id": 36819163, "seedNum": 3, "entrant": {"id": 21406717, "name": "TFT | im so ugly", "participants": [{"id": 19676331, "gamerTag": "im so ugly", "prefix": "TFT", "user": {"location": {"city": "Calhoun", "state": "GA", "country": "United States"}}, "player": {"id": 2241471, "gamerTag": "lil munch", "prefix": "TFT", "user": {"location": {"city": "Calhoun", "state": "GA", "country": "United States"}}}}]}}, {"id": 36820398, "seedNum": 6, "entrant": {"id": 21407629, "name": "Nurikami", "participants": [{"id": 19677158, "gamerTag": "Nurikami", "prefix": null, "user": {"location": {"city": "Sandy Springs", "state": "GA", "country": "United States"}}, "player": {"id": 2894467, "gamerTag": "Nurikami", "prefix": null, "user": {"location": {"city": "Sandy Springs", "state": "GA", "country": "United States"}}}}]}}, {"id": 36820713, "seedNum": 2, "entrant": {"id": 21407923, "name": "RM | WFF | Sakruoi", "participants": [{"id": 19677416, "gamerTag": "Sakruoi", "prefix": "RM | WFF", "user": {"location": {"city": "atlanta", "state": "GA", "country": "United States"}}, "player": {"id": 1230555, "gamerTag": "Sakruoi", "prefix": "RM | WFF", "user": {"location": {"city": "atlanta", "state": "GA", "country": "United States"}}}}]}}, {"id": 36759170, "seedNum": 8, "entrant": {"id": 21365128, "name": "TFT/ WFF2 | Ricky Rudd", "participants": [{"id": 19640308, "gamerTag": "Ricky Rudd", "prefix": "TFT/ WFF2", "user": {"location": {"city": "Atlanta", "state": "GA", "country": "United States"}}, "player": {"id": 1751817, "gamerTag": "Ricky Rudd", "prefix": "TFT", "user": {"location": {"city": "Atlanta", "state": "GA", "country": "United States"}}}}]}}, {"id": 36760105, "seedNum": 7, "entrant": {"id": 21365773, "name": "MTM | Bob Weiner", "participants": [{"id": 19640834, "gamerTag": "Bob Weiner", "prefix": "MTM", "user": {"location": {"city": "Kennesaw", "state": "GA", "country": "United States"}}, "player": {"id": 2142601, "gamerTag": "Bob Weiner", "prefix": "MTM", "user": {"location": {"city": "Kennesaw", "state": "GA", "country": "United States"}}}}]}}, {"id": 36822805, "seedNum": 9, "entrant": {"id": 21409291, "name": "Tilted", "participants": [{"id": 19678657, "gamerTag": "Tilted", "prefix": null, "user": {"location": {"city": "Norcross", "state": "GA", "country": "United States"}}, "player": {"id": 2377635, "gamerTag": "Tilted", "prefix": null, "user": {"location": {"city": "Norcross", "state": "GA", "country": "United States"}}}}]}}, {"id": 36819769, "seedNum": 11, "entrant": {"id": 21407112, "name": "Jahku$ha", "participants": [{"id": 19676692, "gamerTag": "Jahku$ha", "prefix": "", "user": {"location": {"city": "Atlanta", "state": "GA", "country": "United States"}}, "player": {"id": 4559746, "gamerTag": "Jahku$ha", "prefix": "", "user": {"location": {"city": "Atlanta", "state": "GA", "country": "United States"}}}}]}}, {"id": 36819233, "seedNum": 12, "entrant": {"id": 21406778, "name": "MTM | X", "participants": [{"id": 19676391, "gamerTag": "X", "prefix": "MTM", "user": {"location": {"city": "Sandy Springs", "state": "GA", "country": "United States"}}, "player": {"id": 2650387, "gamerTag": "X", "prefix": "MTM", "user": {"location": {"city": "Sandy Springs", "state": "GA", "country": "United States"}}}}]}}, {"id": 36823004, "seedNum": 13, "entrant": {"id": 21409451, "name": "TnT | annamation", "participants": [{"id": 19678818, "gamerTag": "annamation", "prefix": "TnT", "user": {"location": {"city": "Atlanta", "state": "GA", "country": "United States"}}, "player": {"id": 1699369, "gamerTag": "annamation", "prefix": "TnT", "user": {"location": {"city": "Atlanta", "state": "GA", "country": "United States"}}}}]}}, {"id": 36819263, "seedNum": 14, "entrant": {"id": 21406805, "name": "Nintenbro", "participants": [{"id": 19676423, "gamerTag": "Nintenbro", "prefix": "", "user": {"location": {"city": "Decatur", "state": "GA", "country": "United States"}}, "player": {"id": 3887973, "gamerTag": "Nintenbro", "prefix": "", "user": {"location": {"city": "Decatur", "state": "GA", "country": "United States"}}}}]}}, {"id": 36820184, "seedNum": 15, "entrant": {"id": 21407468, "name": "Skittles", "participants": [{"id": 19677021, "gamerTag": "Skittles", "prefix": null, "user": {"location": {"city": "Marietta", "state": "GA", "country": "United States"}}, "player": {"id": 136086, "gamerTag": "Skittles", "prefix": null, "user": {"location": {"city": "Marietta", "state": "GA", "country": "United States"}}}}]}}, {"id": 36467449, "seedNum": 16, "entrant": {"id": 21167284, "name": "LordPapistik", "participants": [{"id": 19468273, "gamerTag": "LordPapistik", "prefix": "", "user": {"location": {"city": "Covington", "state": "GA", "country": "United States"}}, "player": {"id": 4957211, "gamerTag": "LordPapistik", "prefix": "", "user": {"location": {"city": "Covington", "state": "GA", "country": "United States"}}}}]}}]}}}