{"event": {"sets": {"pageInfo": {"totalPages": 4, "total": 51}, "nodes": [{"id": 92383085, "state": 3, "round": 1, "fullRoundText": "Winners Round 1", "completedAt": 1754612996, "winnerId": 20907739, "slots": [{"id": "92383085-0", "entrant": {"id": 20907739, "name": "carlop", "participants": [{"id": 19236915, "gamerTag": "carlop", "prefix": null, "user": {"location": {"city": "Johns Creek", "state": "GA", "country": "United States"}}, "player": {"id": 3431919, "gamerTag": "carlop", "prefix": null, "user": {"location": {"city": "Johns Creek", "state": "GA", "country": "United States"}}}}]}, "standing": {"placement": 1, "stats": {"score": {"value": 2}}}}, {"id": "92383085-1", "entrant": {"id": 20908927, "name": "SamRice", "participants": [{"id": 19238046, "gamerTag": "SamRice", "prefix": "", "user": {"location": {"city": "Norcross", "state": "GA", "country": "United States"}}, "player": {"id": 2387403, "gamerTag": "SamRice", "prefix": "", "user": {"location": {"city": "Norcross", "state": "GA", "country": "United States"}}}}]}, "standing": {"placement": 2, "stats": {"score": {"value": 0}}}}], "games": null}, {"id": 92383087, "state": 3, "round": 1, "fullRoundText": "Winners Round 1", "completedAt": 1754612902, "winnerId": 20886672, "slots": [{"id": "92383087-0", "entrant": {"id": 20909080, "name": "Yehtu", "participants": [{"id": 19238190, "gamerTag": "Yehtu", "prefix": null, "user": {"location": {"city": null, "state": null, "country": null}}, "player": {"id": 2230310, "gamerTag": "Yehtu", "prefix": null, "user": {"location": {"city": null, "state": null, "country": null}}}}]}, "standing": {"placement": 2, "stats": {"score": {"value": 0}}}}, {"id": "92383087-1", "entrant": {"id": 20886672, "name": "Nikol", "participants": [{"id": 19218563, "gamerTag": "Nikol", "prefix": "", "user": {"location": {"city": "Stockbridge", "state": "GA", "country": "United States"}}, "player": {"id": 2152846, "gamerTag": "Nikol", "prefix": "", "user": {"location": {"city": "Stockbridge", "state": "GA", "country": "United States"}}}}]}, "standing": {"placement": 1, "stats": {"score": {"value": 2}}}}], "games": null}, {"id": 92383088, "state": 3, "round": 1, "fullRoundText": "Winners Round 1", "completedAt": 1754612877, "winnerId": 20909932, "slots": [{"id": "92383088-0", "entrant": {"id": 20909932, "name": "Juncineroar", "participants": [{"id": 19238945, "gamerTag": "Juncineroar", "prefix": "", "user": {"location": {"city": "Atlanta", "state": "GA", "country": "United States"}}, "player": {"id": 208790, "gamerTag": "Juncineroar", "prefix": "", "user": {"location": {"city": "Atlanta", "state": "GA", "country": "United States"}}}}]}, "standing": {"placement": 1, "stats": {"score": {"value": 2}}}}, {"id": "92383088-1", "entrant": {"id": 20908195, "name": "Manburnot", "participants": [{"id": 19237345, "gamerTag": "Manburnot", "prefix": "", "user": {"location": {"city": "Norcross", "state": "GA", "country": "United States"}}, "player": {"id": 4831519, "gamerTag": "Manburnot", "prefix": "", "user": {"location": {"city": "Norcross", "state": "GA", "country": "United States"}}}}]}, "standing": {"placement": 2, "stats": {"score": {"value": 0}}}}], "games": null}, {"id": 92383089, "state": 3, "round": 1, "fullRoundText": "Winners Round 1", "completedAt": 1754612954, "winnerId": 20898366, "slots": [{"id": "92383089-0", "entrant": {"id": 20898366, "name": "Heart", "participants": [{"id": 19228666, "gamerTag": "Heart", "prefix": "", "user": {"location": {"city": "Atlanta", "state": "GA", "country": "United States"}}, "player": {"id": 4287822, "gamerTag": "Heart", "prefix": "", "user": {"location": {"city": "Atlanta", "state": "GA", "country": "United States"}}}}]}, "standing": {"placement": 1, "stats": {"score": {"value": 2}}}}, {"id": "92383089-1", "entrant": {"id": 20878382, "name": "brave", "participants": [{"id": 19211165, "gamerTag": "brave", "prefix": "", "user": {"location": {"city": "Lawrenceville", "state": "GA", "country": "United States"}}, "player": {"id": 1000536, "gamerTag": "brave", "prefix": "", "user": {"location": {"city": "Lawrenceville", "state": "GA", "country": "United States"}}}}]}, "standing": {"placement": 2, "stats": {"score": {"value": 0}}}}], "games": null}, {"id": 92383091, "state": 3, "round": 1, "fullRoundText": "Winners Round 1", "completedAt": 1754613474, "winnerId": 20903416, "slots": [{"id": "92383091-0", "entrant": {"id": 20905933, "name": "BlaZR", "participants": [{"id": 19235328, "gamerTag": "BlaZR", "prefix": "", "user": {"location": {"city": "ur mum", "state": null, "country": "United States"}}, "player": {"id": 1804122, "gamerTag": "BlaZR", "prefix": "", "user": {"location": {"city": "ur mum", "state": null, "country": "United States"}}}}]}, "standing": {"placement": 2, "stats": {"score": {"value": 1}}}}, {"id": "92383091-1", "entrant": {"id": 20903416, "name": "SIR | vivor", "participants": [{"id": 19233075, "gamerTag": "vivor", "prefix": "SIR", "user": {"location": {"city": "Atlanta", "state": "GA", "country": "United States"}}, "player": {"id": 3373990, "gamerTag": "vivor", "prefix": "SIR", "user": {"location": {"city": "Atlanta", "state": "GA", "country": "United States"}}}}]}, "standing": {"placement": 1, "stats": {"score": {"value": 2}}}}], "games": null}, {"id": 92383093, "state": 3, "round": 1, "fullRoundText": "Winners Round 1", "completedAt": 1754614116, "winnerId": 20907497, "slots": [{"id": "92383093-0", "entrant": {"id": 20907497, "name": "UTO | Whaley", "participants": [{"id": 19236707, "gamerTag": "Whaley", "prefix": "UTO", "user": {"location": {"city": "Stone Mountain", "state": "GA", "country": "United States"}}, "player": {"id": 2016149, "gamerTag": "Whaley", "prefix": "KSU|UTO|BLZE", "user": {"location": {"city": "Stone Mountain", "state": "GA", "country": "United States"}}}}]}, "standing": {"placement": 1, "stats": {"score": {"value": 2}}}}, {"id": "92383093-1", "entrant": {"id": 20909607, "name": "Pleeploploop", "participants": [{"id": 19238676, "gamerTag": "Pleeploploop", "prefix": "", "user": {"location": {"city": "Snellville", "state": null, "country": "United States"}}, "player": {"id": 1739676, "gamerTag": "Pleeploploop", "prefix": "", "user": {"location": {"city": "Snellville", "state": null, "country": "United States"}}}}]}, "standing": {"placement": 2, "stats": {"score": {"value": 0}}}}], "games": null}]}}}