{"phase": {"seeds": {"pageInfo": {"totalPages": 1, "total": 19}, "nodes": [{"id": 36080676, "seedNum": 1, "entrant": {"id": 20917023, "name": "Barbashop", "participants": [{"id": 19245522, "gamerTag": "Barbashop", "prefix": "", "user": {"location": {"city": null, "state": null, "country": null}}, "player": {"id": 2537853, "gamerTag": "Barbashop", "prefix": "", "user": {"location": {"city": null, "state": null, "country": null}}}}]}}, {"id": 36079155, "seedNum": 2, "entrant": {"id": 20915772, "name": "Nhiem", "participants": [{"id": 19244352, "gamerTag": "Nhiem", "prefix": "", "user": {"location": {"city": "Atlanta", "state": "GA", "country": "United States"}}, "player": {"id": 1429448, "gamerTag": "Nhiem", "prefix": "", "user": {"location": {"city": "Atlanta", "state": "GA", "country": "United States"}}}}]}}, {"id": 35316434, "seedNum": 3, "entrant": {"id": 20428758, "name": "TFT | Frank", "participants": [{"id": 18817267, "gamerTag": "Frank", "prefix": "TFT", "user": {"location": {"city": "Doraville", "state": "GA", "country": "United States"}}, "player": {"id": 1227401, "gamerTag": "Terry Labonte", "prefix": "TFT", "user": {"location": {"city": "Doraville", "state": "GA", "country": "United States"}}}}]}}, {"id": 36080720, "seedNum": 11, "entrant": {"id": 20917052, "name": "GUMP2 | RoKu", "participants": [{"id": 19245545, "gamerTag": "RoKu", "prefix": "GUMP2", "user": {"location": {"city": "Peachtree Corners", "state": "GA", "country": "United States"}}, "player": {"id": 1107285, "gamerTag": "RoKu", "prefix": "TFT", "user": {"location": {"city": "Peachtree Corners", "state": "GA", "country": "United States"}}}}]}}, {"id": 36082652, "seedNum": 5, "entrant": {"id": 20917763, "name": "WFF | Happy", "participants": [{"id": 19246155, "gamerTag": "Happy", "prefix": "WFF", "user": {"location": {"city": "Peachtree CIty", "state": "GA", "country": "United States"}}, "player": {"id": 1383907, "gamerTag": "Happy", "prefix": "WFF", "user": {"location": {"city": "Peachtree CIty", "state": "GA", "country": "United States"}}}}]}}, {"id": 36049331, "seedNum": 8, "entrant": {"id": 20898222, "name": "TnT | Monologgue", "participants": [{"id": 19228546, "gamerTag": "Monologgue", "prefix": "TnT", "user": {"location": {"city": "Atlanta", "state": "GA", "country": "United States"}}, "player": {"id": 1135679, "gamerTag": "Monologgue", "prefix": "TnT", "user": {"location": {"city": "Atlanta", "state": "GA", "country": "United States"}}}}]}}, {"id": 36076425, "seedNum": 6, "entrant": {"id": 20913802, "name": "TFT | ALLEYCAT", "participants": [{"id": 19242538, "gamerTag": "ALLEYCAT", "prefix": "TFT", "user": {"location": {"city": "Atlanta", "state": "GA", "country": "United States"}}, "player": {"id": 1940654, "gamerTag": "ALLEYCAT", "prefix": "TFT", "user": {"location": {"city": "Atlanta", "state": "GA", "country": "United States"}}}}]}}, {"id": 36081395, "seedNum": 7, "entrant": {"id": 20917309, "name": "TnT | Sid", "participants": [{"id": 19245772, "gamerTag": "Sid", "prefix": "TnT", "user": {"location": {"city": "Powder Springs", "state": "GA", "country": "United States"}}, "player": {"id": 1229067, "gamerTag": "Sid", "prefix": "TnT", "user": {"location": {"city": "Powder Springs", "state": "GA", "country": "United States"}}}}]}}, {"id": 35886814, "seedNum": 4, "entrant": {"id": 20798119, "name": "Heart", "participants": [{"id": 19141000, "gamerTag": "Heart", "prefix": "", "user": {"location": {"city": "Atlanta", "state": "GA", "country": "United States"}}, "player": {"id": 4287822, "gamerTag": "Heart", "prefix": "", "user": {"location": {"city": "Atlanta", "state": "GA", "country": "United States"}}}}]}}, {"id": 36083023, "seedNum": 9, "entrant": {"id": 20918073, "name": "Jdaddy", "participants": [{"id": 19246460, "gamerTag": "Jdaddy", "prefix": null, "user": {"location": {"city": "Atlanta", "state": "GA", "country": "United States"}}, "player": {"id": 4384721, "gamerTag": "Jdaddy", "prefix": null, "user": {"location": {"city": "Atlanta", "state": "GA", "country": "United States"}}}}]}}, {"id": 36022559, "seedNum": 13, "entrant": {"id": 20878770, "name": "TFT | yxngcyborg", "participants": [{"id": 19211522, "gamerTag": "yxngcyborg", "prefix": "TFT", "user": {"location": {"city": "Atlanta", "state": "GA", "country": "United States"}}, "player": {"id": 1751817, "gamerTag": "Ricky Rudd", "prefix": "TFT", "user": {"location": {"city": "Atlanta", "state": "GA", "country": "United States"}}}}]}}, {"id": 36025985, "seedNum": 15, "entrant": {"id": 20881527, "name": "Nurikami", "participants": [{"id": 19214215, "gamerTag": "Nurikami", "prefix": null, "user": {"location": {"city": "Sandy Springs", "state": "GA", "country": "United States"}}, "player": {"id": 2894467, "gamerTag": "Nurikami", "prefix": null, "user": {"location": {"city": "Sandy Springs", "state": "GA", "country": "United States"}}}}]}}, {"id": 36081621, "seedNum": 10, "entrant": {"id": 20917510, "name": "TFT | Juug$tarr", "participants": [{"id": 19245932, "gamerTag": "Juug$tarr", "prefix": "TFT", "user": {"location": {"city": "Atlanta", "state": "GA", "country": "United States"}}, "player": {"id": 3621035, "gamerTag": "Juug$tarr", "prefix": "TFT", "user": {"location": {"city": "Atlanta", "state": "GA", "country": "United States"}}}}]}}, {"id": 36082948, "seedNum": 12, "entrant": {"id": 20918022, "name": "MONEY | ImNoPro", "participants": [{"id": 19246417, "gamerTag": "ImNoPro", "prefix": "MONEY", "user": {"location": {"city": "Calhoun", "state": "GA", "country": "United States"}}, "player": {"id": 2149803, "gamerTag": "ImNoPro", "prefix": "MONEY", "user": {"location": {"city": "Calhoun", "state": "GA", "country": "United States"}}}}]}}, {"id": 36082814, "seedNum": 14, "entrant": {"id": 20917896, "name": "Mickey.Deeez", "participants": [{"id": 19246296, "gamerTag": "Mickey.Deeez", "prefix": null, "user": {"location": {"city": null, "state": null, "country": "Georgia"}}, "player": {"id": 4023323, "gamerTag": "Mickey.Deeez", "prefix": null, "user": {"location": {"city": null, "state": null, "country": "Georgia"}}}}]}}, {"id": 36064219, "seedNum": 16, "entrant": {"id": 20905454, "name": "TnT | annamation", "participants": [{"id": 19234882, "gamerTag": "annamation", "prefix": "TnT", "user": {"location": {"city": "Atlanta", "state": "GA", "country": "United States"}}, "player": {"id": 1699369, "gamerTag": "annamation", "prefix": "TnT", "user": {"location": {"city": "Atlanta", "state": "GA", "country": "United States"}}}}]}}, {"id": 36082059, "seedNum": 17, "entrant": {"id": 20917554, "name": "Nintenbro", "participants": [{"id": 19245976, "gamerTag": "Nintenbro", "prefix": "", "user": {"location": {"city": "Decatur", "state": "GA", "country": "United States"}}, "player": {"id": 3887973, "gamerTag": "Nintenbro", "prefix": "", "user": {"location": {"city": "Decatur", "state": "GA", "country": "United States"}}}}]}}, {"id": 36082541, "seedNum": 18, "entrant": {"id": 20917691, "name": "OWL | G-Zus", "participants": [{"id": 19246090, "gamerTag": "G-Zus", "prefix": "OWL", "user": {"location": {"city": "Atlanta", "state": "GA", "country": "United States"}}, "player": {"id": 4915385, "gamerTag": "G-Zus", "prefix": "OWL", "user": {"location": {"city": "Atlanta", "state": "GA", "country": "United States"}}}}]}}, {"id": 36082544, "seedNum": 19, "entrant": {"id": 20917694, "name": "Owl | riffgriff", "participants": [{"id": 19246093, "gamerTag": "riffgriff", "prefix": "Owl", "user": {"location": {"city": "Atlanta", "state": "GA", "country": "United States"}}, "player": {"id": 4915386, "gamerTag": "riffgriff", "prefix": "Owl", "user": {"location": {"city": "Atlanta", "state": "GA", "country": "United States"}}}}]}}]}}}