{"event": {"sets": {"pageInfo": {"totalPages": 6, "total": 85}, "nodes": [{"id": 92668258, "state": 3, "round": 2, "fullRoundText": "Winners Round 2", "completedAt": 1755218770, "winnerId": 20971654, "slots": [{"id": "92668258-0", "entrant": {"id": 20971654, "name": "DGS | spickles", "participants": [{"id": 19293214, "gamerTag": "spickles", "prefix": "DGS", "user": {"location": {"city": null, "state": null, "country": "United States"}}, "player": {"id": 1154793, "gamerTag": "spickles", "prefix": "DGS", "user": {"location": {"city": null, "state": null, "country": "United States"}}}}]}, "standing": {"placement": 1, "stats": {"score": {"value": 2}}}}, {"id": "92668258-1", "entrant": {"id": 20970877, "name": "promamamia", "participants": [{"id": 19292514, "gamerTag": "promamamia", "prefix": "", "user": {"location": {"city": "Alpharetta", "state": "GA", "country": "United States"}}, "player": {"id": 3548468, "gamerTag": "promamamia", "prefix": "", "user": {"location": {"city": "Alpharetta", "state": "GA", "country": "United States"}}}}]}, "standing": {"placement": 2, "stats": {"score": {"value": 0}}}}], "games": null}, {"id": 92668259, "state": 3, "round": 2, "fullRoundText": "Winners Round 2", "completedAt": 1755218557, "winnerId": 20970683, "slots": [{"id": "92668259-0", "entrant": {"id": 20970683, "name": "Nhiem", "participants": [{"id": 19292333, "gamerTag": "Nhiem", "prefix": "", "user": {"location": {"city": "Atlanta", "state": "GA", "country": "United States"}}, "player": {"id": 1429448, "gamerTag": "Nhiem", "prefix": "", "user": {"location": {"city": "Atlanta", "state": "GA", "country": "United States"}}}}]}, "standing": {"placement": 1, "stats": {"score": {"value": null}}}}, {"id": "92668259-1", "entrant": {"id": 20969979, "name": "REAL | Ethan Winters", "participants": [{"id": 19291685, "gamerTag": "Ethan Winters", "prefix": "REAL", "user": {"location": {"city": "Atlanta", "state": "GA", "country": "United States"}}, "player": {"id": 135265, "gamerTag": "Ethan Winters", "prefix": "REAL", "user": {"location": {"city": "Atlanta", "state": "GA", "country": "United States"}}}}]}, "standing": {"placement": 2, "stats": {"score": {"value": -1}}}}], "games": null}, {"id": 92668260, "state": 3, "round": 2, "fullRoundText": "Winners Round 2", "completedAt": 1755220189, "winnerId": 20965429, "slots": [{"id": "92668260-0", "entrant": {"id": 20965429, "name": "GUMP2 | ToxiC", "participants": [{"id": 19287515, "gamerTag": "ToxiC", "prefix": "GUMP2", "user": {"location": {"city": "Marietta", "state": "GA", "country": "United States"}}, "player": {"id": 2585804, "gamerTag": "ToxiC", "prefix": "GUMP2", "user": {"location": {"city": "Marietta", "state": "GA", "country": "United States"}}}}]}, "standing": {"placement": 1, "stats": {"score": {"value": 2}}}}, {"id": "92668260-1", "entrant": {"id": 20971772, "name": "Zarek", "participants": [{"id": 19293318, "gamerTag": "Zarek", "prefix": "", "user": {"location": {"city": "Atlanta", "state": "GA", "country": "United States"}}, "player": {"id": 405682, "gamerTag": "Zarek", "prefix": "", "user": {"location": {"city": "Atlanta", "state": "GA", "country": "United States"}}}}]}, "standing": {"placement": 2, "stats": {"score": {"value": 0}}}}], "games": [{"id": 31909368, "orderNum": 1, "winnerId": 20965429, "entrant1Score": 0, "entrant2Score": 0, "stage": {"id": 378, "name": "Pok\u00e9mon Stadium 2"}, "selections": [{"id": 47001527, "selectionType": "CHARACTER", "selectionValue": 1313, "entrant": {"id": 20965429}, "character": {"id": 1313, "name": "Ness"}}, {"id": 47001528, "selectionType": "CHARACTER", "selectionValue": 1315, "entrant": {"id": 20971772}, "character": {"id": 1315, "name": "Pac-Man"}}]}, {"id": 31909369, "orderNum": 2, "winnerId": 20965429, "entrant1Score": 0, "entrant2Score": 0, "stage": {"id": 378, "name": "Pok\u00e9mon Stadium 2"}, "selections": [{"id": 47001529, "selectionType": "CHARACTER", "selectionValue": 1313, "entrant": {"id": 20965429}, "character": {"id": 1313, "name": "Ness"}}, {"id": 47001530, "selectionType": "CHARACTER", "selectionValue": 1315, "entrant": {"id": 20971772}, "character": {"id": 1315, "name": "Pac-Man"}}]}]}, {"id": 92668359, "state": 3, "round": -4, "fullRoundText": "Losers Round 1", "completedAt": 1755219712, "winnerId": 20970217, "slots": [{"id": "92668359-0", "entrant": {"id": 20970217, "name": "UTO | Whaley", "participants": [{"id": 19291906, "gamerTag": "Whaley", "prefix": "UTO", "user": {"location": {"city": "Stone Mountain", "state": "GA", "country": "United States"}}, "player": {"id": 2016149, "gamerTag": "Whaley", "prefix": "KSU|UTO|BLZE", "user": {"location": {"city": "Stone Mountain", "state": "GA", "country": "United States"}}}}]}, "standing": {"placement": 1, "stats": {"score": {"value": 2}}}}, {"id": "92668359-1", "entrant": {"id": 20971463, "name": "Par-i-dot Alpha", "participants": [{"id": 19293039, "gamerTag": "Par-i-dot Alpha", "prefix": "", "user": {"location": {"city": "Lithoina", "state": "GA", "country": "United States"}}, "player": {"id": 36418, "gamerTag": "Avalon", "prefix": "", "user": {"location": {"city": "Lithoina", "state": "GA", "country": "United States"}}}}]}, "standing": {"placement": 2, "stats": {"score": {"value": 0}}}}], "games": null}, {"id": 92668361, "state": 3, "round": -4, "fullRoundText": "Losers Round 1", "completedAt": 1755218913, "winnerId": 20966190, "slots": [{"id": "92668361-0", "entrant": {"id": 20969979, "name": "REAL | Ethan Winters", "participants": [{"id": 19291685, "gamerTag": "Ethan Winters", "prefix": "REAL", "user": {"location": {"city": "Atlanta", "state": "GA", "country": "United States"}}, "player": {"id": 135265, "gamerTag": "Ethan Winters", "prefix": "REAL", "user": {"location": {"city": "Atlanta", "state": "GA", "country": "United States"}}}}]}, "standing": {"placement": 2, "stats": {"score": {"value": -1}}}}, {"id": "92668361-1", "entrant": {"id": 20966190, "name": "Xcite!", "participants": [{"id": 19288216, "gamerTag": "Xcite!", "prefix": "", "user": {"location": {"city": "Atlanta", "state": "GA", "country": "United States"}}, "player": {"id": 4368183, "gamerTag": "Xcite!", "prefix": "", "user": {"location": {"city": "Atlanta", "state": "GA", "country": "United States"}}}}]}, "standing": {"placement": 1, "stats": {"score": {"value": null}}}}], "games": null}, {"id": 92668362, "state": 3, "round": -4, "fullRoundText": "Losers Round 1", "completedAt": 1755219479, "winnerId": 20970877, "slots": [{"id": "92668362-0", "entrant": {"id": 20970877, "name": "promamamia", "participants": [{"id": 19292514, "gamerTag": "promamamia", "prefix": "", "user": {"location": {"city": "Alpharetta", "state": "GA", "country": "United States"}}, "player": {"id": 3548468, "gamerTag": "promamamia", "prefix": "", "user": {"location": {"city": "Alpharetta", "state": "GA", "country": "United States"}}}}]}, "standing": {"placement": 1, "stats": {"score": {"value": 2}}}}, {"id": "92668362-1", "entrant": {"id": 20971263, "name": "Muhamed2009", "participants": [{"id": 19292861, "gamerTag": "Muhamed2009", "prefix": "", "user": null, "player": {"id": 4454104, "gamerTag": "Muhamed2009", "prefix": "", "user": null}}]}, "standing": {"placement": 2, "stats": {"score": {"value": 0}}}}], "games": null}, {"id": 92668363, "state": 3, "round": -4, "fullRoundText": "Losers Round 1", "completedAt": 1755221293, "winnerId": 20970858, "slots": [{"id": "92668363-0", "entrant": {"id": 20970858, "name": "carlop", "participants": [{"id": 19292496, "gamerTag": "carlop", "prefix": null, "user": {"location": {"city": "Johns Creek", "state": "GA", "country": "United States"}}, "player": {"id": 3431919, "gamerTag": "carlop", "prefix": null, "user": {"location": {"city": "Johns Creek", "state": "GA", "country": "United States"}}}}]}, "standing": {"placement": 1, "stats": {"score": {"value": 2}}}}, {"id": "92668363-1", "entrant": {"id": 20971982, "name": "Tilted", "participants": [{"id": 19293514, "gamerTag": "Tilted", "prefix": null, "user": {"location": {"city": "Norcross", "state": "GA", "country": "United States"}}, "player": {"id": 2377635, "gamerTag": "Tilted", "prefix": null, "user": {"location": {"city": "Norcross", "state": "GA", "country": "United States"}}}}]}, "standing": {"placement": 2, "stats": {"score": {"value": 0}}}}], "games": null}, {"id": 92668365, "state": 3, "round": -4, "fullRoundText": "Losers Round 1", "completedAt": 1755220462, "winnerId": 20968107, "slots": [{"id": "92668365-0", "entrant": {"id": 20968107, "name": "Plaid", "participants": [{"id": 19289960, "gamerTag": "Plaid", "prefix": "", "user": {"location": {"city": null, "state": null, "country": null}}, "player": {"id": 1452882, "gamerTag": "Plaid", "prefix": "", "user": {"location": {"city": null, "state": null, "country": null}}}}]}, "standing": {"placement": 1, "stats": {"score": {"value": 2}}}}, {"id": "92668365-1", "entrant": {"id": 20972106, "name": "D.King79", "participants": [{"id": 19293625, "gamerTag": "D.King79", "prefix": null, "user": {"location": {"city": "Mt. Olympus", "state": "GA", "country": "United States"}}, "player": {"id": 534660, "gamerTag": "D.King79", "prefix": null, "user": {"location": {"city": "Mt. Olympus", "state": "GA", "country": "United States"}}}}]}, "standing": {"placement": 2, "stats": {"score": {"value": 0}}}}], "games": null}, {"id": 92668367, "state": 3, "round": -4, "fullRoundText": "Losers Round 1", "completedAt": 1755220022, "winnerId": 20969940, "slots": [{"id": "92668367-0", "entrant": {"id": 20969940, "name": "Heart", "participants": [{"id": 19291653, "gamerTag": "Heart", "prefix": "", "user": {"location": {"city": "Atlanta", "state": "GA", "country": "United States"}}, "player": {"id": 4287822, "gamerTag": "Heart", "prefix": "", "user": {"location": {"city": "Atlanta", "state": "GA", "country": "United States"}}}}]}, "standing": {"placement": 1, "stats": {"score": {"value": 2}}}}, {"id": "92668367-1", "entrant": {"id": 20972057, "name": "4o4 | Sh33rZ", "participants": [{"id": 19293579, "gamerTag": "Sh33rZ", "prefix": "4o4", "user": {"location": {"city": "alpharetta", "state": "GA", "country": "United States"}}, "player": {"id": 3640465, "gamerTag": "Sh33rZ", "prefix": "4o4", "user": {"location": {"city": "alpharetta", "state": "GA", "country": "United States"}}}}]}, "standing": {"placement": 2, "stats": {"score": {"value": 1}}}}], "games": null}, {"id": 92668369, "state": 3, "round": -4, "fullRoundText": "Losers Round 1", "completedAt": 1755221756, "winnerId": 20968359, "slots": [{"id": "92668369-0", "entrant": {"id": 20968359, "name": "Rain~", "participants": [{"id": 19290206, "gamerTag": "Rain~", "prefix": null, "user": {"location": {"city": "Atlanta", "state": "GA", "country": "United States"}}, "player": {"id": 4240164, "gamerTag": "Rain~", "prefix": null, "user": {"location": {"city": "Atlanta", "state": "GA", "country": "United States"}}}}]}, "standing": {"placement": 1, "stats": {"score": {"value": 2}}}}, {"id": "92668369-1", "entrant": {"id": 20971465, "name": "11D7", "participants": [{"id": 19293041, "gamerTag": "11D7", "prefix": null, "user": {"location": {"city": "Alpharetta", "state": "GA", "country": "United States"}}, "player": {"id": 4064891, "gamerTag": "11D7", "prefix": null, "user": {"location": {"city": "Alpharetta", "state": "GA", "country": "United States"}}}}]}, "standing": {"placement": 2, "stats": {"score": {"value": 0}}}}], "games": [{"id": 31910576, "orderNum": 1, "winnerId": 20968359, "entrant1Score": null, "entrant2Score": 0, "stage": null, "selections": [{"id": 47003369, "selectionType": "CHARACTER", "selectionValue": 1292, "entrant": {"id": 20968359}, "character": {"id": 1292, "name": "Inkling"}}, {"id": 47003370, "selectionType": "CHARACTER", "selectionValue": 1290, "entrant": {"id": 20971465}, "character": {"id": 1290, "name": "Ice Climbers"}}]}, {"id": 31910577, "orderNum": 2, "winnerId": 20968359, "entrant1Score": null, "entrant2Score": 0, "stage": null, "selections": [{"id": 47003371, "selectionType": "CHARACTER", "selectionValue": 1333, "entrant": {"id": 20968359}, "character": {"id": 1333, "name": "Toon Link"}}, {"id": 47003372, "selectionType": "CHARACTER", "selectionValue": 1290, "entrant": {"id": 20971465}, "character": {"id": 1290, "name": "Ice Climbers"}}]}]}, {"id": 92668370, "state": 3, "round": -4, "fullRoundText": "Losers Round 1", "completedAt": 1755219902, "winnerId": 20969908, "slots": [{"id": "92668370-0", "entrant": {"id": 20969908, "name": "SIR | vivor", "participants": [{"id": 19291628, "gamerTag": "vivor", "prefix": "SIR", "user": {"location": {"city": "Atlanta", "state": "GA", "country": "United States"}}, "player": {"id": 3373990, "gamerTag": "vivor", "prefix": "SIR", "user": {"location": {"city": "Atlanta", "state": "GA", "country": "United States"}}}}]}, "standing": {"placement": 1, "stats": {"score": {"value": 2}}}}, {"id": "92668370-1", "entrant": {"id": 20972085, "name": "LittleMac9494", "participants": [{"id": 19293606, "gamerTag": "LittleMac9494", "prefix": null, "user": {"location": {"city": "", "state": "GA", "country": "United States"}}, "player": {"id": 4890718, "gamerTag": "LittleMac9494", "prefix": null, "user": {"location": {"city": "", "state": "GA", "country": "United States"}}}}]}, "standing": {"placement": 2, "stats": {"score": {"value": 0}}}}], "games": null}, {"id": 92668371, "state": 3, "round": -4, "fullRoundText": "Losers Round 1", "completedAt": 1755219746, "winnerId": 20971168, "slots": [{"id": "92668371-0", "entrant": {"id": 20971168, "name": "Bagel", "participants": [{"id": 19292769, "gamerTag": "Bagel", "prefix": null, "user": {"location": {"city": "Atlanta", "state": "GA", "country": "United States"}}, "player": {"id": 1794753, "gamerTag": "Bagel", "prefix": "", "user": {"location": {"city": "Atlanta", "state": "GA", "country": "United States"}}}}]}, "standing": {"placement": 1, "stats": {"score": {"value": 2}}}}, {"id": "92668371-1", "entrant": {"id": 20941831, "name": "brave", "participants": [{"id": 19267387, "gamerTag": "brave", "prefix": "", "user": {"location": {"city": "Lawrenceville", "state": "GA", "country": "United States"}}, "player": {"id": 1000536, "gamerTag": "brave", "prefix": "", "user": {"location": {"city": "Lawrenceville", "state": "GA", "country": "United States"}}}}]}, "standing": {"placement": 2, "stats": {"score": {"value": 0}}}}], "games": null}, {"id": 92668373, "state": 3, "round": -4, "fullRoundText": "Losers Round 1", "completedAt": 1755218921, "winnerId": 20969961, "slots": [{"id": "92668373-0", "entrant": {"id": 20966472, "name": "Sacred", "participants": [{"id": 19288477, "gamerTag": "Sacred", "prefix": "", "user": {"location": {"city": null, "state": null, "country": "United States"}}, "player": {"id": 1007555, "gamerTag": "Sacred", "prefix": "", "user": {"location": {"city": null, "state": null, "country": "United States"}}}}]}, "standing": {"placement": 2, "stats": {"score": {"value": -1}}}}, {"id": "92668373-1", "entrant": {"id": 20969961, "name": "EdiblePine", "participants": [{"id": 19291670, "gamerTag": "EdiblePine", "prefix": "", "user": {"location": {"city": "Atlanta", "state": "GA", "country": "United States"}}, "player": {"id": 1648278, "gamerTag": "EdiblePine", "prefix": "AP", "user": {"location": {"city": "Atlanta", "state": "GA", "country": "United States"}}}}]}, "standing": {"placement": 1, "stats": {"score": {"value": null}}}}], "games": null}, {"id": 92668374, "state": 3, "round": -4, "fullRoundText": "Losers Round 1", "completedAt": 1755219655, "winnerId": 20971774, "slots": [{"id": "92668374-0", "entrant": {"id": 20971774, "name": "SamRice", "participants": [{"id": 19293320, "gamerTag": "SamRice", "prefix": "", "user": {"location": {"city": "Norcross", "state": "GA", "country": "United States"}}, "player": {"id": 2387403, "gamerTag": "SamRice", "prefix": "", "user": {"location": {"city": "Norcross", "state": "GA", "country": "United States"}}}}]}, "standing": {"placement": 1, "stats": {"score": {"value": 2}}}}, {"id": "92668374-1", "entrant": {"id": 20971600, "name": "Sage of Fire 313", "participants": [{"id": 19293164, "gamerTag": "Sage of Fire 313", "prefix": "", "user": {"location": {"city": null, "state": "GA", "country": "United States"}}, "player": {"id": 4923934, "gamerTag": "Sage of Fire 313", "prefix": "", "user": {"location": {"city": null, "state": "GA", "country": "United States"}}}}]}, "standing": {"placement": 2, "stats": {"score": {"value": 0}}}}], "games": null}, {"id": 92668215, "state": 3, "round": 1, "fullRoundText": "Winners Round 1", "completedAt": 1755218252, "winnerId": 20971774, "slots": [{"id": "92668215-0", "entrant": {"id": 20971463, "name": "Par-i-dot Alpha", "participants": [{"id": 19293039, "gamerTag": "Par-i-dot Alpha", "prefix": "", "user": {"location": {"city": "Lithoina", "state": "GA", "country": "United States"}}, "player": {"id": 36418, "gamerTag": "Avalon", "prefix": "", "user": {"location": {"city": "Lithoina", "state": "GA", "country": "United States"}}}}]}, "standing": {"placement": 2, "stats": {"score": {"value": 1}}}}, {"id": "92668215-1", "entrant": {"id": 20971774, "name": "SamRice", "participants": [{"id": 19293320, "gamerTag": "SamRice", "prefix": "", "user": {"location": {"city": "Norcross", "state": "GA", "country": "United States"}}, "player": {"id": 2387403, "gamerTag": "SamRice", "prefix": "", "user": {"location": {"city": "Norcross", "state": "GA", "country": "United States"}}}}]}, "standing": {"placement": 1, "stats": {"score": {"value": 2}}}}], "games": null}]}}}