{"event": {"sets": {"pageInfo": {"totalPages": 4, "total": 56}, "nodes": [{"id": 91543658, "state": 3, "round": 1, "fullRoundText": "Winners Round 1", "completedAt": 1752884836, "winnerId": 20696152, "slots": [{"id": "91543658-0", "entrant": {"id": 20696152, "name": "RM | WFF | Sakruoi", "participants": [{"id": 19048279, "gamerTag": "Sakruoi", "prefix": "RM | WFF", "user": {"location": {"city": "atlanta", "state": "GA", "country": "United States"}}, "player": {"id": 1230555, "gamerTag": "Sakruoi", "prefix": "RM | WFF", "user": {"location": {"city": "atlanta", "state": "GA", "country": "United States"}}}}]}, "standing": {"placement": 1, "stats": {"score": {"value": 2}}}}, {"id": "91543658-1", "entrant": {"id": 20732705, "name": "TnT | annamation", "participants": [{"id": 19080122, "gamerTag": "annamation", "prefix": "TnT", "user": {"location": {"city": "Atlanta", "state": "GA", "country": "United States"}}, "player": {"id": 1699369, "gamerTag": "annamation", "prefix": "TnT", "user": {"location": {"city": "Atlanta", "state": "GA", "country": "United States"}}}}]}, "standing": {"placement": 2, "stats": {"score": {"value": 0}}}}], "games": null}, {"id": 91543660, "state": 3, "round": 1, "fullRoundText": "Winners Round 1", "completedAt": 1752885344, "winnerId": 20732216, "slots": [{"id": "91543660-0", "entrant": {"id": 20732216, "name": "WDKL MTM | D*ron", "participants": [{"id": 19079699, "gamerTag": "D*ron", "prefix": "WDKL MTM", "user": {"location": {"city": "Smyrna", "state": "GA", "country": "United States"}}, "player": {"id": 516047, "gamerTag": "D*ron", "prefix": "WDKL MTM", "user": {"location": {"city": "Smyrna", "state": "GA", "country": "United States"}}}}]}, "standing": {"placement": 1, "stats": {"score": {"value": 2}}}}, {"id": "91543660-1", "entrant": {"id": 20690909, "name": "SamRice", "participants": [{"id": 19043811, "gamerTag": "SamRice", "prefix": "", "user": {"location": {"city": "Norcross", "state": "GA", "country": "United States"}}, "player": {"id": 2387403, "gamerTag": "SamRice", "prefix": "", "user": {"location": {"city": "Norcross", "state": "GA", "country": "United States"}}}}]}, "standing": {"placement": 2, "stats": {"score": {"value": 1}}}}], "games": [{"id": 31353371, "orderNum": 1, "winnerId": 20732216, "entrant1Score": null, "entrant2Score": 0, "stage": null, "selections": [{"id": 46139514, "selectionType": "CHARACTER", "selectionValue": 1301, "entrant": {"id": 20690909}, "character": {"id": 1301, "name": "Luigi"}}, {"id": 46139515, "selectionType": "CHARACTER", "selectionValue": 1332, "entrant": {"id": 20732216}, "character": {"id": 1332, "name": "Sonic"}}]}, {"id": 31353372, "orderNum": 2, "winnerId": 20690909, "entrant1Score": 0, "entrant2Score": null, "stage": null, "selections": [{"id": 46139516, "selectionType": "CHARACTER", "selectionValue": 1301, "entrant": {"id": 20690909}, "character": {"id": 1301, "name": "Luigi"}}, {"id": 46139517, "selectionType": "CHARACTER", "selectionValue": 1332, "entrant": {"id": 20732216}, "character": {"id": 1332, "name": "Sonic"}}]}, {"id": 31353373, "orderNum": 3, "winnerId": 20732216, "entrant1Score": null, "entrant2Score": 0, "stage": null, "selections": [{"id": 46139518, "selectionType": "CHARACTER", "selectionValue": 1301, "entrant": {"id": 20690909}, "character": {"id": 1301, "name": "Luigi"}}, {"id": 46139519, "selectionType": "CHARACTER", "selectionValue": 1332, "entrant": {"id": 20732216}, "character": {"id": 1332, "name": "Sonic"}}]}]}, {"id": 91543661, "state": 3, "round": 1, "fullRoundText": "Winners Round 1", "completedAt": 1752884929, "winnerId": 20695679, "slots": [{"id": "91543661-0", "entrant": {"id": 20695679, "name": "Penguin", "participants": [{"id": 19047881, "gamerTag": "Penguin", "prefix": "", "user": {"location": {"city": "Atlanta", "state": "GA", "country": "United States"}}, "player": {"id": 4287822, "gamerTag": "Heart", "prefix": "", "user": {"location": {"city": "Atlanta", "state": "GA", "country": "United States"}}}}]}, "standing": {"placement": 1, "stats": {"score": {"value": 2}}}}, {"id": "91543661-1", "entrant": {"id": 20733895, "name": "GOD", "participants": [{"id": 19081122, "gamerTag": "GOD", "prefix": null, "user": {"location": {"city": null, "state": null, "country": "Germany"}}, "player": {"id": 4488808, "gamerTag": "GOD", "prefix": null, "user": {"location": {"city": null, "state": null, "country": "Germany"}}}}]}, "standing": {"placement": 2, "stats": {"score": {"value": 0}}}}], "games": null}, {"id": 91543662, "state": 3, "round": 1, "fullRoundText": "Winners Round 1", "completedAt": 1752885614, "winnerId": 20729612, "slots": [{"id": "91543662-0", "entrant": {"id": 20733612, "name": "RAMS | Aloe", "participants": [{"id": 19080895, "gamerTag": "Aloe", "prefix": "RAMS", "user": {"location": {"city": "Marietta", "state": "GA", "country": "United States"}}, "player": {"id": 456565, "gamerTag": "Aloe", "prefix": "RAMS", "user": {"location": {"city": "Marietta", "state": "GA", "country": "United States"}}}}]}, "standing": {"placement": 2, "stats": {"score": {"value": 0}}}}, {"id": "91543662-1", "entrant": {"id": 20729612, "name": "Whaley", "participants": [{"id": 19077429, "gamerTag": "Whaley", "prefix": "", "user": {"location": {"city": "Stone Mountain", "state": "GA", "country": "United States"}}, "player": {"id": 2016149, "gamerTag": "Whaley", "prefix": "KSU|UTO|BLZE", "user": {"location": {"city": "Stone Mountain", "state": "GA", "country": "United States"}}}}]}, "standing": {"placement": 1, "stats": {"score": {"value": 2}}}}], "games": null}, {"id": 91543664, "state": 3, "round": 1, "fullRoundText": "Winners Round 1", "completedAt": 1752885536, "winnerId": 20728277, "slots": [{"id": "91543664-0", "entrant": {"id": 20733633, "name": "RAMS | Hakuza", "participants": [{"id": 19080909, "gamerTag": "Hakuza", "prefix": "RAMS", "user": {"location": {"city": "Atlanta", "state": "GA", "country": "United States"}}, "player": {"id": 1402044, "gamerTag": "Hakuza", "prefix": "RAMS", "user": {"location": {"city": "Atlanta", "state": "GA", "country": "United States"}}}}]}, "standing": {"placement": 2, "stats": {"score": {"value": 0}}}}, {"id": "91543664-1", "entrant": {"id": 20728277, "name": "Kuma | DelFuego", "participants": [{"id": 19076312, "gamerTag": "DelFuego", "prefix": "Kuma", "user": {"location": {"city": "Lawrenceville", "state": "GA", "country": "United States"}}, "player": {"id": 36826, "gamerTag": "DelFuego", "prefix": "Kuma", "user": {"location": {"city": "Lawrenceville", "state": "GA", "country": "United States"}}}}]}, "standing": {"placement": 1, "stats": {"score": {"value": 2}}}}], "games": [{"id": 31353525, "orderNum": 1, "winnerId": 20728277, "entrant1Score": 0, "entrant2Score": null, "stage": null, "selections": [{"id": 46139698, "selectionType": "CHARACTER", "selectionValue": 1406, "entrant": {"id": 20728277}, "character": {"id": 1406, "name": "Incineroar"}}, {"id": 46139699, "selectionType": "CHARACTER", "selectionValue": 1280, "entrant": {"id": 20733633}, "character": {"id": 1280, "name": "Donkey Kong"}}]}, {"id": 31353526, "orderNum": 2, "winnerId": 20728277, "entrant1Score": 0, "entrant2Score": null, "stage": null, "selections": [{"id": 46139700, "selectionType": "CHARACTER", "selectionValue": 1406, "entrant": {"id": 20728277}, "character": {"id": 1406, "name": "Incineroar"}}, {"id": 46139701, "selectionType": "CHARACTER", "selectionValue": 1280, "entrant": {"id": 20733633}, "character": {"id": 1280, "name": "Donkey Kong"}}]}]}, {"id": 91543665, "state": 3, "round": 1, "fullRoundText": "Winners Round 1", "completedAt": 1752885976, "winnerId": 20688811, "slots": [{"id": "91543665-0", "entrant": {"id": 20688811, "name": "Doug | DougThePlug", "participants": [{"id": 19041837, "gamerTag": "DougThePlug", "prefix": "Doug", "user": {"location": {"city": "Atlanta", "state": "GA", "country": "United States"}}, "player": {"id": 3806745, "gamerTag": "DougThePlug", "prefix": "Doug", "user": {"location": {"city": "Atlanta", "state": "GA", "country": "United States"}}}}]}, "standing": {"placement": 1, "stats": {"score": {"value": 2}}}}, {"id": "91543665-1", "entrant": {"id": 20733095, "name": "Winterfrost", "participants": [{"id": 19080454, "gamerTag": "Winterfrost", "prefix": "", "user": null, "player": {"id": 4873497, "gamerTag": "Winterfrost", "prefix": "", "user": null}}]}, "standing": {"placement": 2, "stats": {"score": {"value": 0}}}}], "games": null}, {"id": 91543666, "state": 3, "round": 1, "fullRoundText": "Winners Round 1", "completedAt": 1752885360, "winnerId": 20732595, "slots": [{"id": "91543666-0", "entrant": {"id": 20732595, "name": "MTM | Bob Weiner", "participants": [{"id": 19080024, "gamerTag": "Bob Weiner", "prefix": "MTM", "user": {"location": {"city": "Kennesaw", "state": "GA", "country": "United States"}}, "player": {"id": 2142601, "gamerTag": "Bob Weiner", "prefix": "MTM", "user": {"location": {"city": "Kennesaw", "state": "GA", "country": "United States"}}}}]}, "standing": {"placement": 1, "stats": {"score": {"value": 2}}}}, {"id": "91543666-1", "entrant": {"id": 20732724, "name": "Tilted", "participants": [{"id": 19080141, "gamerTag": "Tilted", "prefix": null, "user": {"location": {"city": "Norcross", "state": "GA", "country": "United States"}}, "player": {"id": 2377635, "gamerTag": "Tilted", "prefix": null, "user": {"location": {"city": "Norcross", "state": "GA", "country": "United States"}}}}]}, "standing": {"placement": 2, "stats": {"score": {"value": 0}}}}], "games": null}, {"id": 91554414, "state": 3, "round": -4, "fullRoundText": "Losers Quarter-Final", "completedAt": 1752893413, "winnerId": 20728825, "slots": [{"id": "91554414-0", "entrant": {"id": 20728825, "name": "Yummy", "participants": [{"id": 19076774, "gamerTag": "Yummy", "prefix": "", "user": {"location": {"city": "Atlanta", "state": "GA", "country": "United States"}}, "player": {"id": 1743866, "gamerTag": "Yummy", "prefix": "", "user": {"location": {"city": "Atlanta", "state": "GA", "country": "United States"}}}}]}, "standing": {"placement": 1, "stats": {"score": {"value": 2}}}}, {"id": "91554414-1", "entrant": {"id": 20732053, "name": "WFF | Happy", "participants": [{"id": 19079565, "gamerTag": "Happy", "prefix": "WFF", "user": {"location": {"city": "Peachtree CIty", "state": "GA", "country": "United States"}}, "player": {"id": 1383907, "gamerTag": "Happy", "prefix": "WFF", "user": {"location": {"city": "Peachtree CIty", "state": "GA", "country": "United States"}}}}]}, "standing": {"placement": 2, "stats": {"score": {"value": 0}}}}], "games": null}, {"id": 91554415, "state": 3, "round": -4, "fullRoundText": "Losers Quarter-Final", "completedAt": 1752892654, "winnerId": 20733135, "slots": [{"id": "91554415-0", "entrant": {"id": 20733135, "name": "Rain~", "participants": [{"id": 19080488, "gamerTag": "Rain~", "prefix": null, "user": {"location": {"city": "Atlanta", "state": "GA", "country": "United States"}}, "player": {"id": 4240164, "gamerTag": "Rain~", "prefix": null, "user": {"location": {"city": "Atlanta", "state": "GA", "country": "United States"}}}}]}, "standing": {"placement": 1, "stats": {"score": {"value": 2}}}}, {"id": "91554415-1", "entrant": {"id": 20729612, "name": "Whaley", "participants": [{"id": 19077429, "gamerTag": "Whaley", "prefix": "", "user": {"location": {"city": "Stone Mountain", "state": "GA", "country": "United States"}}, "player": {"id": 2016149, "gamerTag": "Whaley", "prefix": "KSU|UTO|BLZE", "user": {"location": {"city": "Stone Mountain", "state": "GA", "country": "United States"}}}}]}, "standing": {"placement": 2, "stats": {"score": {"value": 0}}}}], "games": null}, {"id": 91554412, "state": 3, "round": -3, "fullRoundText": "Losers Round 1", "completedAt": 1752893400, "winnerId": 20732053, "slots": [{"id": "91554412-0", "entrant": {"id": 20688984, "name": "RAMS | Bragmuffin", "participants": [{"id": 19041998, "gamerTag": "Bragmuffin", "prefix": "RAMS", "user": {"location": {"city": "Alpharetta", "state": "GA", "country": "United States"}}, "player": {"id": 2354073, "gamerTag": "Bragmuffin", "prefix": "RAMS", "user": {"location": {"city": "Alpharetta", "state": "GA", "country": "United States"}}}}]}, "standing": {"placement": 2, "stats": {"score": {"value": 0}}}}, {"id": "91554412-1", "entrant": {"id": 20732053, "name": "WFF | Happy", "participants": [{"id": 19079565, "gamerTag": "Happy", "prefix": "WFF", "user": {"location": {"city": "Peachtree CIty", "state": "GA", "country": "United States"}}, "player": {"id": 1383907, "gamerTag": "Happy", "prefix": "WFF", "user": {"location": {"city": "Peachtree CIty", "state": "GA", "country": "United States"}}}}]}, "standing": {"placement": 1, "stats": {"score": {"value": 2}}}}], "games": null}, {"id": 91554413, "state": 3, "round": -3, "fullRoundText": "Losers Round 1", "completedAt": 1752891722, "winnerId": 20729612, "slots": [{"id": "91554413-0", "entrant": {"id": 20729612, "name": "Whaley", "participants": [{"id": 19077429, "gamerTag": "Whaley", "prefix": "", "user": {"location": {"city": "Stone Mountain", "state": "GA", "country": "United States"}}, "player": {"id": 2016149, "gamerTag": "Whaley", "prefix": "KSU|UTO|BLZE", "user": {"location": {"city": "Stone Mountain", "state": "GA", "country": "United States"}}}}]}, "standing": {"placement": 1, "stats": {"score": {"value": 2}}}}, {"id": "91554413-1", "entrant": {"id": 20732595, "name": "MTM | Bob Weiner", "participants": [{"id": 19080024, "gamerTag": "Bob Weiner", "prefix": "MTM", "user": {"location": {"city": "Kennesaw", "state": "GA", "country": "United States"}}, "player": {"id": 2142601, "gamerTag": "Bob Weiner", "prefix": "MTM", "user": {"location": {"city": "Kennesaw", "state": "GA", "country": "United States"}}}}]}, "standing": {"placement": 2, "stats": {"score": {"value": 0}}}}], "games": null}]}}}