{"event": {"sets": {"pageInfo": {"totalPages": 2, "total": 20}, "nodes": [{"id": 93086670, "state": 3, "round": -4, "fullRoundText": "Losers Round 1", "completedAt": 1756161275, "winnerId": 21042456, "slots": [{"id": "93086670-0", "entrant": {"id": 21042456, "name": "Erika Bonchiko", "participants": [{"id": 19356872, "gamerTag": "Erika Bonchiko", "prefix": null, "user": {"location": {"city": "Atlanta", "state": "GA", "country": "United States"}}, "player": {"id": 16360, "gamerTag": "Erika Bonchiko", "prefix": null, "user": {"location": {"city": "Atlanta", "state": "GA", "country": "United States"}}}}]}, "standing": {"placement": 1, "stats": {"score": {"value": 0}}}}, {"id": "93086670-1", "entrant": {"id": 21018558, "name": "NMBS | roshi", "participants": [{"id": 19334742, "gamerTag": "roshi", "prefix": "NMBS", "user": {"location": {"city": "Atlanta", "state": "GA", "country": "United States"}}, "player": {"id": 37667, "gamerTag": "roshi", "prefix": "NMBS", "user": {"location": {"city": "Atlanta", "state": "GA", "country": "United States"}}}}]}, "standing": {"placement": 2, "stats": {"score": {"value": -1}}}}], "games": null}, {"id": 93086671, "state": 3, "round": -4, "fullRoundText": "Losers Round 1", "completedAt": 1756162230, "winnerId": 21070880, "slots": [{"id": "93086671-0", "entrant": {"id": 21070880, "name": "knight", "participants": [{"id": 19382219, "gamerTag": "knight", "prefix": "", "user": {"location": {"city": "Greer", "state": "SC", "country": "United States"}}, "player": {"id": 717797, "gamerTag": "knight", "prefix": "", "user": {"location": {"city": "Greer", "state": "SC", "country": "United States"}}}}]}, "standing": {"placement": 1, "stats": {"score": {"value": 2}}}}, {"id": "93086671-1", "entrant": {"id": 21030257, "name": "Permafrost", "participants": [{"id": 19345445, "gamerTag": "Permafrost", "prefix": "", "user": {"location": {"city": "Atlanta", "state": "GA", "country": "United States"}}, "player": {"id": 1256898, "gamerTag": "Permafrost", "prefix": "", "user": {"location": {"city": "Atlanta", "state": "GA", "country": "United States"}}}}]}, "standing": {"placement": 2, "stats": {"score": {"value": 0}}}}], "games": [{"id": 32144458, "orderNum": 1, "winnerId": 21070880, "entrant1Score": null, "entrant2Score": 0, "stage": null, "selections": [{"id": 47376585, "selectionType": "CHARACTER", "selectionValue": 1606, "entrant": {"id": 21070880}, "character": {"id": 1606, "name": "Squirtle"}}, {"id": 47376588, "selectionType": "CHARACTER", "selectionValue": 1606, "entrant": {"id": 21030257}, "character": {"id": 1606, "name": "Squirtle"}}]}, {"id": 32144459, "orderNum": 2, "winnerId": 21070880, "entrant1Score": null, "entrant2Score": 0, "stage": null, "selections": [{"id": 47376586, "selectionType": "CHARACTER", "selectionValue": 1601, "entrant": {"id": 21030257}, "character": {"id": 1601, "name": "Falco"}}, {"id": 47376587, "selectionType": "CHARACTER", "selectionValue": 1606, "entrant": {"id": 21070880}, "character": {"id": 1606, "name": "Squirtle"}}]}]}, {"id": 93086632, "state": 3, "round": 1, "fullRoundText": "Winners Round 1", "completedAt": 1756160533, "winnerId": 21072421, "slots": [{"id": "93086632-0", "entrant": {"id": 21072421, "name": "FRD | XIF", "participants": [{"id": 19379211, "gamerTag": "XIF", "prefix": "FRD", "user": {"location": {"city": "Buford", "state": "GA", "country": "United States"}}, "player": {"id": 36516, "gamerTag": "XIF", "prefix": "FRD", "user": {"location": {"city": "Buford", "state": "GA", "country": "United States"}}}}]}, "standing": {"placement": 1, "stats": {"score": {"value": 2}}}}, {"id": "93086632-1", "entrant": {"id": 21070205, "name": "KHW | Frumps", "participants": [{"id": 19381622, "gamerTag": "Frumps", "prefix": "KHW", "user": {"location": {"city": "Greenville", "state": "SC", "country": "United States"}}, "player": {"id": 2844590, "gamerTag": "Frumps", "prefix": "KHW", "user": {"location": {"city": "Greenville", "state": "SC", "country": "United States"}}}}]}, "standing": {"placement": 2, "stats": {"score": {"value": 0}}}}], "games": [{"id": 32144071, "orderNum": 1, "winnerId": 21072421, "entrant1Score": null, "entrant2Score": 0, "stage": null, "selections": [{"id": 47376060, "selectionType": "CHARACTER", "selectionValue": 1598, "entrant": {"id": 21070205}, "character": {"id": 1598, "name": "Meta Knight"}}, {"id": 47376061, "selectionType": "CHARACTER", "selectionValue": 1585, "entrant": {"id": 21072421}, "character": {"id": 1585, "name": "Peach"}}]}, {"id": 32144072, "orderNum": 2, "winnerId": 21072421, "entrant1Score": null, "entrant2Score": 0, "stage": null, "selections": [{"id": 47376062, "selectionType": "CHARACTER", "selectionValue": 1598, "entrant": {"id": 21070205}, "character": {"id": 1598, "name": "Meta Knight"}}, {"id": 47376063, "selectionType": "CHARACTER", "selectionValue": 1585, "entrant": {"id": 21072421}, "character": {"id": 1585, "name": "Peach"}}]}]}, {"id": 93086636, "state": 3, "round": 1, "fullRoundText": "Winners Round 1", "completedAt": 1756160326, "winnerId": 21067180, "slots": [{"id": "93086636-0", "entrant": {"id": 21067180, "name": "Chamu", "participants": [{"id": 19378725, "gamerTag": "Chamu", "prefix": null, "user": {"location": {"city": "Columbia", "state": "SC", "country": "United States"}}, "player": {"id": 1471872, "gamerTag": "Chamu", "prefix": null, "user": {"location": {"city": "Columbia", "state": "SC", "country": "United States"}}}}]}, "standing": {"placement": 1, "stats": {"score": {"value": 0}}}}, {"id": "93086636-1", "entrant": {"id": 21018558, "name": "NMBS | roshi", "participants": [{"id": 19334742, "gamerTag": "roshi", "prefix": "NMBS", "user": {"location": {"city": "Atlanta", "state": "GA", "country": "United States"}}, "player": {"id": 37667, "gamerTag": "roshi", "prefix": "NMBS", "user": {"location": {"city": "Atlanta", "state": "GA", "country": "United States"}}}}]}, "standing": {"placement": 2, "stats": {"score": {"value": -1}}}}], "games": null}, {"id": 93086638, "state": 3, "round": 1, "fullRoundText": "Winners Round 1", "completedAt": 1756160466, "winnerId": 21018557, "slots": [{"id": "93086638-0", "entrant": {"id": 21018557, "name": "NMBS | Phteven", "participants": [{"id": 19334741, "gamerTag": "Phteven", "prefix": "NMBS", "user": {"location": {"city": "Mableton", "state": "GA", "country": "United States"}}, "player": {"id": 209952, "gamerTag": "Phteven", "prefix": "NMBS", "user": {"location": {"city": "Mableton", "state": "GA", "country": "United States"}}}}]}, "standing": {"placement": 1, "stats": {"score": {"value": 2}}}}, {"id": "93086638-1", "entrant": {"id": 21030257, "name": "Permafrost", "participants": [{"id": 19345445, "gamerTag": "Permafrost", "prefix": "", "user": {"location": {"city": "Atlanta", "state": "GA", "country": "United States"}}, "player": {"id": 1256898, "gamerTag": "Permafrost", "prefix": "", "user": {"location": {"city": "Atlanta", "state": "GA", "country": "United States"}}}}]}, "standing": {"placement": 2, "stats": {"score": {"value": 0}}}}], "games": [{"id": 32144052, "orderNum": 1, "winnerId": 21018557, "entrant1Score": null, "entrant2Score": 0, "stage": null, "selections": [{"id": 47376032, "selectionType": "CHARACTER", "selectionValue": 1603, "entrant": {"id": 21018557}, "character": {"id": 1603, "name": "Pikachu"}}, {"id": 47376033, "selectionType": "CHARACTER", "selectionValue": 1601, "entrant": {"id": 21030257}, "character": {"id": 1601, "name": "Falco"}}]}, {"id": 32144053, "orderNum": 2, "winnerId": 21018557, "entrant1Score": null, "entrant2Score": 0, "stage": null, "selections": [{"id": 47376034, "selectionType": "CHARACTER", "selectionValue": 1603, "entrant": {"id": 21018557}, "character": {"id": 1603, "name": "Pikachu"}}, {"id": 47376035, "selectionType": "CHARACTER", "selectionValue": 1583, "entrant": {"id": 21030257}, "character": {"id": 1583, "name": "Mario"}}]}]}]}}}