{"phase": {"seeds": {"pageInfo": {"totalPages": 1, "total": 8}, "nodes": [{"id": 35769335, "seedNum": 1, "entrant": {"id": 20733429, "name": "RM | GUMP2 | Kr!stal:0", "participants": [{"id": 19080748, "gamerTag": "Kr!stal:0", "prefix": "RM | GUMP2", "user": {"location": {"city": "Lawrenceville", "state": "GA", "country": "United States"}}, "player": {"id": 2409815, "gamerTag": "AO ASHI SEASON 2 2026", "prefix": "RM | GUMP2", "user": {"location": {"city": "Lawrenceville", "state": "GA", "country": "United States"}}}}]}}, {"id": 35769337, "seedNum": 3, "entrant": {"id": 20721837, "name": "Sacred", "participants": [{"id": 19070840, "gamerTag": "Sacred", "prefix": "", "user": {"location": {"city": null, "state": null, "country": "United States"}}, "player": {"id": 1007555, "gamerTag": "Sacred", "prefix": "", "user": {"location": {"city": null, "state": null, "country": "United States"}}}}]}}, {"id": 35769336, "seedNum": 2, "entrant": {"id": 20728825, "name": "Yummy", "participants": [{"id": 19076774, "gamerTag": "Yummy", "prefix": "", "user": {"location": {"city": "Atlanta", "state": "GA", "country": "United States"}}, "player": {"id": 1743866, "gamerTag": "Yummy", "prefix": "", "user": {"location": {"city": "Atlanta", "state": "GA", "country": "United States"}}}}]}}, {"id": 35769338, "seedNum": 4, "entrant": {"id": 20733135, "name": "Rain~", "participants": [{"id": 19080488, "gamerTag": "Rain~", "prefix": null, "user": {"location": {"city": "Atlanta", "state": "GA", "country": "United States"}}, "player": {"id": 4240164, "gamerTag": "Rain~", "prefix": null, "user": {"location": {"city": "Atlanta", "state": "GA", "country": "United States"}}}}]}}, {"id": 35769339, "seedNum": 5, "entrant": {"id": 20732053, "name": "WFF | Happy", "participants": [{"id": 19079565, "gamerTag": "Happy", "prefix": "WFF", "user": {"location": {"city": "Peachtree CIty", "state": "GA", "country": "United States"}}, "player": {"id": 1383907, "gamerTag": "Happy", "prefix": "WFF", "user": {"location": {"city": "Peachtree CIty", "state": "GA", "country": "United States"}}}}]}}, {"id": 35769341, "seedNum": 7, "entrant": {"id": 20729612, "name": "Whaley", "participants": [{"id": 19077429, "gamerTag": "Whaley", "prefix": "", "user": {"location": {"city": "Stone Mountain", "state": "GA", "country": "United States"}}, "player": {"id": 2016149, "gamerTag": "Whaley", "prefix": "KSU|UTO|BLZE", "user": {"location": {"city": "Stone Mountain", "state": "GA", "country": "United States"}}}}]}}, {"id": 35769340, "seedNum": 6, "entrant": {"id": 20732595, "name": "MTM | Bob Weiner", "participants": [{"id": 19080024, "gamerTag": "Bob Weiner", "prefix": "MTM", "user": {"location": {"city": "Kennesaw", "state": "GA", "country": "United States"}}, "player": {"id": 2142601, "gamerTag": "Bob Weiner", "prefix": "MTM", "user": {"location": {"city": "Kennesaw", "state": "GA", "country": "United States"}}}}]}}, {"id": 35769342, "seedNum": 8, "entrant": {"id": 20688984, "name": "RAMS | Bragmuffin", "participants": [{"id": 19041998, "gamerTag": "Bragmuffin", "prefix": "RAMS", "user": {"location": {"city": "Alpharetta", "state": "GA", "country": "United States"}}, "player": {"id": 2354073, "gamerTag": "Bragmuffin", "prefix": "RAMS", "user": {"location": {"city": "Alpharetta", "state": "GA", "country": "United States"}}}}]}}]}}}