{"event": {"sets": {"pageInfo": {"totalPages": 5, "total": 73}, "nodes": [{"id": "preview_2961878_2_5", "state": 1, "round": 2, "fullRoundText": "Winners Round 2", "completedAt": null, "winnerId": null, "slots": [{"id": "preview_2961878_2_5-0", "entrant": {"id": 20770408, "name": "skyguy | Chris Danger", "participants": [{"id": 19115286, "gamerTag": "Chris Danger", "prefix": "skyguy", "user": {"location": {"city": "Atlanta", "state": "GA", "country": "United States"}}, "player": {"id": 2808268, "gamerTag": "Chris Danger", "prefix": "skyguy", "user": {"location": {"city": "Atlanta", "state": "GA", "country": "United States"}}}}]}, "standing": null}, {"id": "preview_2961878_2_5-1", "entrant": {"id": 20749079, "name": "pita", "participants": [{"id": 19094645, "gamerTag": "pita", "prefix": null, "user": {"location": {"city": null, "state": null, "country": null}}, "player": {"id": 3220424, "gamerTag": "pita", "prefix": "", "user": {"location": {"city": null, "state": null, "country": null}}}}]}, "standing": null}], "games": null}, {"id": "preview_2961878_2_6", "state": 1, "round": 2, "fullRoundText": "Winners Round 2", "completedAt": null, "winnerId": null, "slots": [{"id": "preview_2961878_2_6-0", "entrant": {"id": 20770078, "name": "natebug01", "participants": [{"id": 19114976, "gamerTag": "natebug01", "prefix": null, "user": {"location": {"city": "atl", "state": "GA", "country": "United States"}}, "player": {"id": 69973, "gamerTag": "natebug01", "prefix": null, "user": {"location": {"city": "atl", "state": "GA", "country": "United States"}}}}]}, "standing": null}, {"id": "preview_2961878_2_6-1", "entrant": null, "standing": null}], "games": null}, {"id": "preview_2961878_2_7", "state": 1, "round": 2, "fullRoundText": "Winners Round 2", "completedAt": null, "winnerId": null, "slots": [{"id": "preview_2961878_2_7-0", "entrant": {"id": 20792751, "name": "cardd", "participants": [{"id": 19135859, "gamerTag": "cardd", "prefix": "", "user": {"location": {"city": "ATL", "state": "GA", "country": "United States"}}, "player": {"id": 34781, "gamerTag": "cardd", "prefix": "", "user": {"location": {"city": "ATL", "state": "GA", "country": "United States"}}}}]}, "standing": null}, {"id": "preview_2961878_2_7-1", "entrant": {"id": 20769167, "name": "IHOP Dan", "participants": [{"id": 19114263, "gamerTag": "IHOP Dan", "prefix": null, "user": {"location": {"city": "Raleigh", "state": "NC", "country": "United States"}}, "player": {"id": 27780, "gamerTag": "IHOP Dan", "prefix": null, "user": {"location": {"city": "Raleigh", "state": "NC", "country": "United States"}}}}]}, "standing": null}], "games": null}, {"id": "preview_2961878_2_8", "state": 1, "round": 2, "fullRoundText": "Winners Round 2", "completedAt": null, "winnerId": null, "slots": [{"id": "preview_2961878_2_8-0", "entrant": {"id": 20749788, "name": "Eclipse", "participants": [{"id": 19095344, "gamerTag": "Eclipse", "prefix": null, "user": {"location": {"city": "Fairburn", "state": "GA", "country": "United States"}}, "player": {"id": 1496702, "gamerTag": "Eclipse", "prefix": "", "user": {"location": {"city": "Fairburn", "state": "GA", "country": "United States"}}}}]}, "standing": null}, {"id": "preview_2961878_2_8-1", "entrant": null, "standing": null}], "games": null}, {"id": "preview_2961878_2_9", "state": 1, "round": 2, "fullRoundText": "Winners Round 2", "completedAt": null, "winnerId": null, "slots": [{"id": "preview_2961878_2_9-0", "entrant": {"id": 20758577, "name": "Karan", "participants": [{"id": 19104255, "gamerTag": "Karan", "prefix": "", "user": {"location": {"city": "Atlanta", "state": "GA", "country": "United States"}}, "player": {"id": 35472, "gamerTag": "Karan", "prefix": "", "user": {"location": {"city": "Atlanta", "state": "GA", "country": "United States"}}}}]}, "standing": null}, {"id": "preview_2961878_2_9-1", "entrant": {"id": 20747620, "name": "lioX0X0", "participants": [{"id": 19093280, "gamerTag": "lioX0X0", "prefix": "", "user": {"location": {"city": "Atlanta", "state": "GA", "country": "United States"}}, "player": {"id": 2326935, "gamerTag": "lioX0X0", "prefix": "", "user": {"location": {"city": "Atlanta", "state": "GA", "country": "United States"}}}}]}, "standing": null}], "games": null}, {"id": "preview_2961878_2_10", "state": 1, "round": 2, "fullRoundText": "Winners Round 2", "completedAt": null, "winnerId": null, "slots": [{"id": "preview_2961878_2_10-0", "entrant": {"id": 20744683, "name": "audrey", "participants": [{"id": 19090414, "gamerTag": "audrey", "prefix": null, "user": {"location": {"city": "Dunwoody", "state": "GA", "country": "United States"}}, "player": {"id": 1335864, "gamerTag": "audrey", "prefix": null, "user": {"location": {"city": "Dunwoody", "state": "GA", "country": "United States"}}}}]}, "standing": null}, {"id": "preview_2961878_2_10-1", "entrant": {"id": 20748282, "name": "Wolven", "participants": [{"id": 19093843, "gamerTag": "Wolven", "prefix": null, "user": {"location": {"city": "Atlanta", "state": "GA", "country": "United States"}}, "player": {"id": 126978, "gamerTag": "Wolven", "prefix": null, "user": {"location": {"city": "Atlanta", "state": "GA", "country": "United States"}}}}]}, "standing": null}], "games": null}, {"id": "preview_2961878_2_11", "state": 1, "round": 2, "fullRoundText": "Winners Round 2", "completedAt": null, "winnerId": null, "slots": [{"id": "preview_2961878_2_11-0", "entrant": {"id": 20770958, "name": "Silk | Den", "participants": [{"id": 19115760, "gamerTag": "Den", "prefix": "Silk", "user": {"location": {"city": "Murfreesboro", "state": "TN", "country": "United States"}}, "player": {"id": 9884, "gamerTag": "Den", "prefix": "Silk", "user": {"location": {"city": "Murfreesboro", "state": "TN", "country": "United States"}}}}]}, "standing": null}, {"id": "preview_2961878_2_11-1", "entrant": {"id": 20745103, "name": "cheeks", "participants": [{"id": 19090845, "gamerTag": "cheeks", "prefix": "", "user": {"location": {"city": "Greenville", "state": "SC", "country": "United States"}}, "player": {"id": 2168044, "gamerTag": "cheeks", "prefix": "", "user": {"location": {"city": "Greenville", "state": "SC", "country": "United States"}}}}]}, "standing": null}], "games": null}, {"id": "preview_2961878_2_12", "state": 1, "round": 2, "fullRoundText": "Winners Round 2", "completedAt": null, "winnerId": null, "slots": [{"id": "preview_2961878_2_12-0", "entrant": {"id": 20944909, "name": "SDeems", "participants": [{"id": 19270075, "gamerTag": "SDeems", "prefix": null, "user": {"location": {"city": "Monroe", "state": "GA", "country": "United States"}}, "player": {"id": 62763, "gamerTag": "SDeems", "prefix": "Tipped Off", "user": {"location": {"city": "Monroe", "state": "GA", "country": "United States"}}}}]}, "standing": null}, {"id": "preview_2961878_2_12-1", "entrant": null, "standing": null}], "games": null}, {"id": "preview_2961878_2_13", "state": 1, "round": 2, "fullRoundText": "Winners Round 2", "completedAt": null, "winnerId": null, "slots": [{"id": "preview_2961878_2_13-0", "entrant": {"id": 20750817, "name": "Taza", "participants": [{"id": 19096299, "gamerTag": "Taza", "prefix": null, "user": {"location": {"city": "Roswell", "state": "GA", "country": "United States"}}, "player": {"id": 278724, "gamerTag": "Taza", "prefix": null, "user": {"location": {"city": "Roswell", "state": "GA", "country": "United States"}}}}]}, "standing": null}, {"id": "preview_2961878_2_13-1", "entrant": {"id": 20744860, "name": "Erran", "participants": [{"id": 19090594, "gamerTag": "Erran", "prefix": "", "user": {"location": {"city": "Atlanta", "state": "GA", "country": "United States"}}, "player": {"id": 36706, "gamerTag": "Erran", "prefix": "", "user": {"location": {"city": "Atlanta", "state": "GA", "country": "United States"}}}}]}, "standing": null}], "games": null}, {"id": "preview_2961878_2_14", "state": 1, "round": 2, "fullRoundText": "Winners Round 2", "completedAt": null, "winnerId": null, "slots": [{"id": "preview_2961878_2_14-0", "entrant": {"id": 20770019, "name": "TEAM FISH | GI0GOAT", "participants": [{"id": 19114926, "gamerTag": "GI0GOAT", "prefix": "TEAM FISH", "user": {"location": {"city": "Elmwood Park", "state": "IL", "country": "United States"}}, "player": {"id": 153434, "gamerTag": "GI0GOAT", "prefix": "TEAM FISH", "user": {"location": {"city": "Elmwood Park", "state": "IL", "country": "United States"}}}}]}, "standing": null}, {"id": "preview_2961878_2_14-1", "entrant": {"id": 20771084, "name": "TCS | twotoestoto", "participants": [{"id": 19115881, "gamerTag": "twotoestoto", "prefix": "TCS", "user": {"location": {"city": "Murfreesboro", "state": "TN", "country": "United States"}}, "player": {"id": 32006, "gamerTag": "twotoestoto", "prefix": "TCS", "user": {"location": {"city": "Murfreesboro", "state": "TN", "country": "United States"}}}}]}, "standing": null}], "games": null}, {"id": "preview_2961878_2_15", "state": 1, "round": 2, "fullRoundText": "Winners Round 2", "completedAt": null, "winnerId": null, "slots": [{"id": "preview_2961878_2_15-0", "entrant": {"id": 20744762, "name": "Austintacious", "participants": [{"id": 19090498, "gamerTag": "Austintacious", "prefix": null, "user": {"location": {"city": "Atlanta", "state": "GA", "country": "United States"}}, "player": {"id": 14025, "gamerTag": "Austintacious", "prefix": "", "user": {"location": {"city": "Atlanta", "state": "GA", "country": "United States"}}}}]}, "standing": null}, {"id": "preview_2961878_2_15-1", "entrant": {"id": 20992444, "name": "energy sword", "participants": [{"id": 19310988, "gamerTag": "energy sword", "prefix": "", "user": null, "player": {"id": 4927690, "gamerTag": "energy sword", "prefix": "", "user": null}}]}, "standing": null}], "games": null}, {"id": "preview_2961878_-5_0", "state": 1, "round": -5, "fullRoundText": "Losers Round 2", "completedAt": null, "winnerId": null, "slots": [{"id": "preview_2961878_-5_0-0", "entrant": null, "standing": null}, {"id": "preview_2961878_-5_0-1", "entrant": null, "standing": null}], "games": null}, {"id": "preview_2961878_-5_1", "state": 1, "round": -5, "fullRoundText": "Losers Round 2", "completedAt": null, "winnerId": null, "slots": [{"id": "preview_2961878_-5_1-0", "entrant": null, "standing": null}, {"id": "preview_2961878_-5_1-1", "entrant": null, "standing": null}], "games": null}, {"id": "preview_2961878_-5_2", "state": 1, "round": -5, "fullRoundText": "Losers Round 2", "completedAt": null, "winnerId": null, "slots": [{"id": "preview_2961878_-5_2-0", "entrant": null, "standing": null}, {"id": "preview_2961878_-5_2-1", "entrant": null, "standing": null}], "games": null}, {"id": "preview_2961878_-5_3", "state": 1, "round": -5, "fullRoundText": "Losers Round 2", "completedAt": null, "winnerId": null, "slots": [{"id": "preview_2961878_-5_3-0", "entrant": null, "standing": null}, {"id": "preview_2961878_-5_3-1", "entrant": null, "standing": null}], "games": null}]}}}