{"event": {"sets": {"pageInfo": {"totalPages": 2, "total": 24}, "nodes": [{"id": 94938587, "state": 3, "round": -4, "fullRoundText": "Losers Round 2", "completedAt": 1760219203, "winnerId": 21498178, "slots": [{"id": "94938587-0", "entrant": {"id": 21498178, "name": "JazzMo", "participants": [{"id": 19755884, "gamerTag": "JazzMo", "prefix": null, "user": {"location": {"city": "Macon", "state": "GA", "country": "United States"}}, "player": {"id": 2369252, "gamerTag": "JazzMo", "prefix": null, "user": {"location": {"city": "Macon", "state": "GA", "country": "United States"}}}}]}, "standing": {"placement": 1, "stats": {"score": {"value": 2}}}}, {"id": "94938587-1", "entrant": {"id": 21513914, "name": "AfterKast", "participants": [{"id": 19769818, "gamerTag": "AfterKast", "prefix": null, "user": {"location": {"city": "Macon", "state": "GA", "country": "United States"}}, "player": {"id": 3467624, "gamerTag": "AfterKast", "prefix": null, "user": {"location": {"city": "Macon", "state": "GA", "country": "United States"}}}}]}, "standing": {"placement": 2, "stats": {"score": {"value": 1}}}}], "games": null}, {"id": 94938588, "state": 3, "round": -4, "fullRoundText": "Losers Round 2", "completedAt": 1760219020, "winnerId": 21527590, "slots": [{"id": "94938588-0", "entrant": {"id": 21527590, "name": "Astroh", "participants": [{"id": 19781527, "gamerTag": "Astroh", "prefix": null, "user": {"location": {"city": "Byron", "state": "GA", "country": "United States"}}, "player": {"id": 1329801, "gamerTag": "Astroh", "prefix": null, "user": {"location": {"city": "Byron", "state": "GA", "country": "United States"}}}}]}, "standing": {"placement": 1, "stats": {"score": {"value": null}}}}, {"id": "94938588-1", "entrant": {"id": 21506861, "name": "BOLT | KhalRhaego", "participants": [{"id": 19763543, "gamerTag": "KhalRhaego", "prefix": "BOLT", "user": {"location": {"city": "Jonesboro", "state": "GA", "country": "United States"}}, "player": {"id": 4076327, "gamerTag": "KhalRhaego", "prefix": "BOLT", "user": {"location": {"city": "Jonesboro", "state": "GA", "country": "United States"}}}}]}, "standing": {"placement": 2, "stats": {"score": {"value": -1}}}}], "games": null}, {"id": 94938589, "state": 3, "round": -4, "fullRoundText": "Losers Round 2", "completedAt": 1760219133, "winnerId": 21513586, "slots": [{"id": "94938589-0", "entrant": {"id": 21527952, "name": "pveezy", "participants": [{"id": 19781878, "gamerTag": "pveezy", "prefix": null, "user": {"location": {"city": "Perry", "state": "GA", "country": "United States"}}, "player": {"id": 5014873, "gamerTag": "pveezy", "prefix": null, "user": {"location": {"city": "Perry", "state": "GA", "country": "United States"}}}}]}, "standing": {"placement": 2, "stats": {"score": {"value": 1}}}}, {"id": "94938589-1", "entrant": {"id": 21513586, "name": "Evernight", "participants": [{"id": 19769514, "gamerTag": "Evernight", "prefix": null, "user": {"location": {"city": "Macon", "state": "GA", "country": "United States"}}, "player": {"id": 548064, "gamerTag": "Evernight", "prefix": null, "user": {"location": {"city": "Macon", "state": "GA", "country": "United States"}}}}]}, "standing": {"placement": 1, "stats": {"score": {"value": 2}}}}], "games": null}, {"id": 94938583, "state": 3, "round": -3, "fullRoundText": "Losers Round 1", "completedAt": 1760218125, "winnerId": 21513914, "slots": [{"id": "94938583-0", "entrant": {"id": 21513914, "name": "AfterKast", "participants": [{"id": 19769818, "gamerTag": "AfterKast", "prefix": null, "user": {"location": {"city": "Macon", "state": "GA", "country": "United States"}}, "player": {"id": 3467624, "gamerTag": "AfterKast", "prefix": null, "user": {"location": {"city": "Macon", "state": "GA", "country": "United States"}}}}]}, "standing": {"placement": 1, "stats": {"score": {"value": 2}}}}, {"id": "94938583-1", "entrant": {"id": 21289060, "name": "SE UNI | Shuri", "participants": [{"id": 19573113, "gamerTag": "Shuri", "prefix": "SE UNI", "user": {"location": {"city": "Bonaire", "state": "GA", "country": "United States"}}, "player": {"id": 183894, "gamerTag": "Shuri", "prefix": "SE UNI", "user": {"location": {"city": "Bonaire", "state": "GA", "country": "United States"}}}}]}, "standing": {"placement": 2, "stats": {"score": {"value": 0}}}}], "games": null}, {"id": 94938549, "state": 3, "round": 1, "fullRoundText": "Winners Round 1", "completedAt": 1760217273, "winnerId": 21527952, "slots": [{"id": "94938549-0", "entrant": {"id": 21527952, "name": "pveezy", "participants": [{"id": 19781878, "gamerTag": "pveezy", "prefix": null, "user": {"location": {"city": "Perry", "state": "GA", "country": "United States"}}, "player": {"id": 5014873, "gamerTag": "pveezy", "prefix": null, "user": {"location": {"city": "Perry", "state": "GA", "country": "United States"}}}}]}, "standing": {"placement": 1, "stats": {"score": {"value": null}}}}, {"id": "94938549-1", "entrant": {"id": 20877640, "name": "Demon of the Mist", "participants": [{"id": 19210495, "gamerTag": "Demon of the Mist", "prefix": "", "user": {"location": {"city": "Moultrie", "state": "GA", "country": "United States"}}, "player": {"id": 253938, "gamerTag": "Demon of the Mist", "prefix": "", "user": {"location": {"city": "Moultrie", "state": "GA", "country": "United States"}}}}]}, "standing": {"placement": 2, "stats": {"score": {"value": -1}}}}], "games": null}, {"id": 94938550, "state": 3, "round": 1, "fullRoundText": "Winners Round 1", "completedAt": 1760217246, "winnerId": 21483142, "slots": [{"id": "94938550-0", "entrant": {"id": 21513914, "name": "AfterKast", "participants": [{"id": 19769818, "gamerTag": "AfterKast", "prefix": null, "user": {"location": {"city": "Macon", "state": "GA", "country": "United States"}}, "player": {"id": 3467624, "gamerTag": "AfterKast", "prefix": null, "user": {"location": {"city": "Macon", "state": "GA", "country": "United States"}}}}]}, "standing": {"placement": 2, "stats": {"score": {"value": 0}}}}, {"id": "94938550-1", "entrant": {"id": 21483142, "name": "MrMixtape", "participants": [{"id": 19742553, "gamerTag": "MrMixtape", "prefix": null, "user": {"location": {"city": null, "state": null, "country": null}}, "player": {"id": 3930310, "gamerTag": "MrMixtape", "prefix": null, "user": {"location": {"city": null, "state": null, "country": null}}}}]}, "standing": {"placement": 1, "stats": {"score": {"value": 2}}}}], "games": null}, {"id": 94938551, "state": 3, "round": 1, "fullRoundText": "Winners Round 1", "completedAt": 1760217461, "winnerId": 21527590, "slots": [{"id": "94938551-0", "entrant": {"id": 21527590, "name": "Astroh", "participants": [{"id": 19781527, "gamerTag": "Astroh", "prefix": null, "user": {"location": {"city": "Byron", "state": "GA", "country": "United States"}}, "player": {"id": 1329801, "gamerTag": "Astroh", "prefix": null, "user": {"location": {"city": "Byron", "state": "GA", "country": "United States"}}}}]}, "standing": {"placement": 1, "stats": {"score": {"value": 2}}}}, {"id": "94938551-1", "entrant": {"id": 21289060, "name": "SE UNI | Shuri", "participants": [{"id": 19573113, "gamerTag": "Shuri", "prefix": "SE UNI", "user": {"location": {"city": "Bonaire", "state": "GA", "country": "United States"}}, "player": {"id": 183894, "gamerTag": "Shuri", "prefix": "SE UNI", "user": {"location": {"city": "Bonaire", "state": "GA", "country": "United States"}}}}]}, "standing": {"placement": 2, "stats": {"score": {"value": 0}}}}], "games": null}, {"id": 94938553, "state": 3, "round": 1, "fullRoundText": "Winners Round 1", "completedAt": 1760217304, "winnerId": 21498178, "slots": [{"id": "94938553-0", "entrant": {"id": 21506861, "name": "BOLT | KhalRhaego", "participants": [{"id": 19763543, "gamerTag": "KhalRhaego", "prefix": "BOLT", "user": {"location": {"city": "Jonesboro", "state": "GA", "country": "United States"}}, "player": {"id": 4076327, "gamerTag": "KhalRhaego", "prefix": "BOLT", "user": {"location": {"city": "Jonesboro", "state": "GA", "country": "United States"}}}}]}, "standing": {"placement": 2, "stats": {"score": {"value": 0}}}}, {"id": "94938553-1", "entrant": {"id": 21498178, "name": "JazzMo", "participants": [{"id": 19755884, "gamerTag": "JazzMo", "prefix": null, "user": {"location": {"city": "Macon", "state": "GA", "country": "United States"}}, "player": {"id": 2369252, "gamerTag": "JazzMo", "prefix": null, "user": {"location": {"city": "Macon", "state": "GA", "country": "United States"}}}}]}, "standing": {"placement": 1, "stats": {"score": {"value": 2}}}}], "games": null}, {"id": 94938555, "state": 3, "round": 1, "fullRoundText": "Winners Round 1", "completedAt": 1760218428, "winnerId": 21510860, "slots": [{"id": "94938555-0", "entrant": {"id": 21510860, "name": "BlazingFox", "participants": [{"id": 19767193, "gamerTag": "BlazingFox", "prefix": "", "user": {"location": {"city": "Byron", "state": null, "country": "United States"}}, "player": {"id": 592139, "gamerTag": "BlazingFox", "prefix": "", "user": {"location": {"city": "Byron", "state": null, "country": "United States"}}}}]}, "standing": {"placement": 1, "stats": {"score": {"value": 2}}}}, {"id": "94938555-1", "entrant": {"id": 21513586, "name": "Evernight", "participants": [{"id": 19769514, "gamerTag": "Evernight", "prefix": null, "user": {"location": {"city": "Macon", "state": "GA", "country": "United States"}}, "player": {"id": 548064, "gamerTag": "Evernight", "prefix": null, "user": {"location": {"city": "Macon", "state": "GA", "country": "United States"}}}}]}, "standing": {"placement": 2, "stats": {"score": {"value": 1}}}}], "games": null}]}}}