{"event": {"sets": {"pageInfo": {"totalPages": 4, "total": 57}, "nodes": [{"id": 94145812, "state": 3, "round": 2, "fullRoundText": "Winners Round 2", "completedAt": 1758410256, "winnerId": 21332678, "slots": [{"id": "94145812-0", "entrant": {"id": 21332678, "name": "Armanisaint", "participants": [{"id": 19610948, "gamerTag": "Armanisaint", "prefix": null, "user": {"location": {"city": "Roswell", "state": "GA", "country": "United States"}}, "player": {"id": 3943806, "gamerTag": "Armanisaint", "prefix": null, "user": {"location": {"city": "Roswell", "state": "GA", "country": "United States"}}}}]}, "standing": {"placement": 1, "stats": {"score": {"value": 2}}}}, {"id": "94145812-1", "entrant": {"id": 21332288, "name": "Jet Midder", "participants": [{"id": 19610676, "gamerTag": "Jet Midder", "prefix": null, "user": {"location": {"city": null, "state": null, "country": null}}, "player": {"id": 2363656, "gamerTag": "Jet Dayo", "prefix": null, "user": {"location": {"city": null, "state": null, "country": null}}}}]}, "standing": {"placement": 2, "stats": {"score": {"value": 1}}}}], "games": null}, {"id": 94145862, "state": 3, "round": -4, "fullRoundText": "Losers Round 2", "completedAt": 1758410878, "winnerId": 21332288, "slots": [{"id": "94145862-0", "entrant": {"id": 21332288, "name": "Jet Midder", "participants": [{"id": 19610676, "gamerTag": "Jet Midder", "prefix": null, "user": {"location": {"city": null, "state": null, "country": null}}, "player": {"id": 2363656, "gamerTag": "Jet Dayo", "prefix": null, "user": {"location": {"city": null, "state": null, "country": null}}}}]}, "standing": {"placement": 1, "stats": {"score": {"value": 2}}}}, {"id": "94145862-1", "entrant": {"id": 21329414, "name": "C-2", "participants": [{"id": 19607987, "gamerTag": "C-2", "prefix": "", "user": {"location": {"city": "Atlanta", "state": "GA", "country": "United States"}}, "player": {"id": 1228856, "gamerTag": "C-2", "prefix": "", "user": {"location": {"city": "Atlanta", "state": "GA", "country": "United States"}}}}]}, "standing": {"placement": 2, "stats": {"score": {"value": 0}}}}], "games": null}, {"id": 94145863, "state": 3, "round": -4, "fullRoundText": "Losers Round 2", "completedAt": 1758411193, "winnerId": 21332235, "slots": [{"id": "94145863-0", "entrant": {"id": 21332235, "name": "4o4 | blitz", "participants": [{"id": 19610633, "gamerTag": "blitz", "prefix": "4o4", "user": {"location": {"city": "Lawrenceville", "state": "GA", "country": "United States"}}, "player": {"id": 2228539, "gamerTag": "blitz", "prefix": "4o4", "user": {"location": {"city": "Lawrenceville", "state": "GA", "country": "United States"}}}}]}, "standing": {"placement": 1, "stats": {"score": {"value": 2}}}}, {"id": "94145863-1", "entrant": {"id": 21331612, "name": "Pazure", "participants": [{"id": 19608578, "gamerTag": "Pazure", "prefix": null, "user": {"location": {"city": null, "state": null, "country": "United States"}}, "player": {"id": 72218, "gamerTag": "Pazure", "prefix": null, "user": {"location": {"city": null, "state": null, "country": "United States"}}}}]}, "standing": {"placement": 2, "stats": {"score": {"value": 0}}}}], "games": null}, {"id": 94145864, "state": 3, "round": -4, "fullRoundText": "Losers Round 2", "completedAt": 1758410809, "winnerId": 21332732, "slots": [{"id": "94145864-0", "entrant": {"id": 21332732, "name": "Iso.Dgaf", "participants": [{"id": 19610990, "gamerTag": "Iso.Dgaf", "prefix": null, "user": {"location": {"city": "Acworth", "state": "GA", "country": "United States"}}, "player": {"id": 4285541, "gamerTag": "Iso.Dgaf", "prefix": null, "user": {"location": {"city": "Acworth", "state": "GA", "country": "United States"}}}}]}, "standing": {"placement": 1, "stats": {"score": {"value": 2}}}}, {"id": "94145864-1", "entrant": {"id": 21333033, "name": "4o4 | Yugo", "participants": [{"id": 19609057, "gamerTag": "Yugo", "prefix": "4o4", "user": {"location": {"city": "Sandy springs", "state": "GA", "country": "United States"}}, "player": {"id": 338020, "gamerTag": "Yugo", "prefix": "4o4", "user": {"location": {"city": "Sandy springs", "state": "GA", "country": "United States"}}}}]}, "standing": {"placement": 2, "stats": {"score": {"value": 0}}}}], "games": null}, {"id": 94145865, "state": 3, "round": -4, "fullRoundText": "Losers Round 2", "completedAt": 1758410517, "winnerId": 21330482, "slots": [{"id": "94145865-0", "entrant": {"id": 21332255, "name": "Fiji | 100 Latinas", "participants": [{"id": 19610650, "gamerTag": "100 Latinas", "prefix": "Fiji", "user": {"location": {"city": "Lithonia", "state": "GA", "country": "United States"}}, "player": {"id": 1890427, "gamerTag": "100 Latinas", "prefix": "Fiji", "user": {"location": {"city": "Lithonia", "state": "GA", "country": "United States"}}}}]}, "standing": {"placement": 2, "stats": {"score": {"value": 1}}}}, {"id": "94145865-1", "entrant": {"id": 21330482, "name": "ToBeFrank | FF | SLAYlor Moon", "participants": [{"id": 19609169, "gamerTag": "SLAYlor Moon", "prefix": "ToBeFrank | FF", "user": {"location": {"city": "Atlanta", "state": "GA", "country": "United States"}}, "player": {"id": 267007, "gamerTag": "SLAYlor Moon", "prefix": "ToBeFrank | FF", "user": {"location": {"city": "Atlanta", "state": "GA", "country": "United States"}}}}]}, "standing": {"placement": 1, "stats": {"score": {"value": 2}}}}], "games": null}, {"id": 94145866, "state": 3, "round": -4, "fullRoundText": "Losers Round 2", "completedAt": 1758410082, "winnerId": 21329165, "slots": [{"id": "94145866-0", "entrant": {"id": 21329165, "name": "UHH | Perculitis", "participants": [{"id": 19607777, "gamerTag": "Perculitis", "prefix": "UHH", "user": {"location": {"city": "Aiken", "state": "SC", "country": "United States"}}, "player": {"id": 2633223, "gamerTag": "Perculitis", "prefix": "UHH", "user": {"location": {"city": "Aiken", "state": "SC", "country": "United States"}}}}]}, "standing": {"placement": 1, "stats": {"score": {"value": 2}}}}, {"id": "94145866-1", "entrant": {"id": 21329202, "name": "Hipster Lion", "participants": [{"id": 19607811, "gamerTag": "Hipster Lion", "prefix": "", "user": {"location": {"city": "College Park", "state": "GA", "country": "United States"}}, "player": {"id": 897409, "gamerTag": "Hipster Lion", "prefix": "", "user": {"location": {"city": "College Park", "state": "GA", "country": "United States"}}}}]}, "standing": {"placement": 2, "stats": {"score": {"value": 0}}}}], "games": null}, {"id": 94145867, "state": 3, "round": -4, "fullRoundText": "Losers Round 2", "completedAt": 1758410505, "winnerId": 21297492, "slots": [{"id": "94145867-0", "entrant": {"id": 21297492, "name": "evosel", "participants": [{"id": 19580199, "gamerTag": "evosel", "prefix": "", "user": {"location": {"city": "Lithonia", "state": "GA", "country": "United States"}}, "player": {"id": 2926943, "gamerTag": "evosel", "prefix": "", "user": {"location": {"city": "Lithonia", "state": "GA", "country": "United States"}}}}]}, "standing": {"placement": 1, "stats": {"score": {"value": 2}}}}, {"id": "94145867-1", "entrant": {"id": 21330257, "name": "HokutoNoCrawfish", "participants": [{"id": 19608954, "gamerTag": "HokutoNoCrawfish", "prefix": "", "user": {"location": {"city": null, "state": "GA", "country": "United States"}}, "player": {"id": 4196044, "gamerTag": "HokutoNoCrawfish", "prefix": "", "user": {"location": {"city": null, "state": "GA", "country": "United States"}}}}]}, "standing": {"placement": 2, "stats": {"score": {"value": 0}}}}], "games": null}, {"id": 94145868, "state": 3, "round": -4, "fullRoundText": "Losers Round 2", "completedAt": 1758410222, "winnerId": 21332376, "slots": [{"id": "94145868-0", "entrant": {"id": 21332376, "name": "HEAVENER", "participants": [{"id": 19610737, "gamerTag": "HEAVENER", "prefix": "", "user": {"location": {"city": "Marietta", "state": "GA", "country": "United States"}}, "player": {"id": 1829744, "gamerTag": "HEAVENER", "prefix": "", "user": {"location": {"city": "Marietta", "state": "GA", "country": "United States"}}}}]}, "standing": {"placement": 1, "stats": {"score": {"value": 2}}}}, {"id": "94145868-1", "entrant": {"id": 21329065, "name": "88thSpade", "participants": [{"id": 19607687, "gamerTag": "88thSpade", "prefix": "", "user": {"location": {"city": null, "state": null, "country": "United States"}}, "player": {"id": 4985499, "gamerTag": "88thSpade", "prefix": "", "user": {"location": {"city": null, "state": null, "country": "United States"}}}}]}, "standing": {"placement": 2, "stats": {"score": {"value": 0}}}}], "games": null}, {"id": 94145869, "state": 3, "round": -4, "fullRoundText": "Losers Round 2", "completedAt": 1758410750, "winnerId": 21328256, "slots": [{"id": "94145869-0", "entrant": {"id": 21328256, "name": "SomeLikeItRedHot", "participants": [{"id": 19606983, "gamerTag": "SomeLikeItRedHot", "prefix": "", "user": {"location": {"city": "Atlanta", "state": "GA", "country": "United States"}}, "player": {"id": 223776, "gamerTag": "REMY", "prefix": "", "user": {"location": {"city": "Atlanta", "state": "GA", "country": "United States"}}}}]}, "standing": {"placement": 1, "stats": {"score": {"value": 2}}}}, {"id": "94145869-1", "entrant": {"id": 21332222, "name": "KSU | Teahhasi", "participants": [{"id": 19610621, "gamerTag": "Teahhasi", "prefix": "KSU", "user": {"location": {"city": null, "state": "GA", "country": "United States"}}, "player": {"id": 1241955, "gamerTag": "Teahhasi", "prefix": "KSU", "user": {"location": {"city": null, "state": "GA", "country": "United States"}}}}]}, "standing": {"placement": 2, "stats": {"score": {"value": 0}}}}], "games": null}, {"id": 94145855, "state": 3, "round": -3, "fullRoundText": "Losers Round 1", "completedAt": 1758409389, "winnerId": 21331612, "slots": [{"id": "94145855-0", "entrant": {"id": 21331612, "name": "Pazure", "participants": [{"id": 19608578, "gamerTag": "Pazure", "prefix": null, "user": {"location": {"city": null, "state": null, "country": "United States"}}, "player": {"id": 72218, "gamerTag": "Pazure", "prefix": null, "user": {"location": {"city": null, "state": null, "country": "United States"}}}}]}, "standing": {"placement": 1, "stats": {"score": {"value": 2}}}}, {"id": "94145855-1", "entrant": {"id": 21330702, "name": "YoungUko", "participants": [{"id": 19609418, "gamerTag": "YoungUko", "prefix": "", "user": {"location": {"city": null, "state": null, "country": "United States"}}, "player": {"id": 4986079, "gamerTag": "YoungUko", "prefix": "", "user": {"location": {"city": null, "state": null, "country": "United States"}}}}]}, "standing": {"placement": 2, "stats": {"score": {"value": 0}}}}], "games": null}, {"id": 94145856, "state": 3, "round": -3, "fullRoundText": "Losers Round 1", "completedAt": 1758408765, "winnerId": 21333033, "slots": [{"id": "94145856-0", "entrant": {"id": 21333033, "name": "4o4 | Yugo", "participants": [{"id": 19609057, "gamerTag": "Yugo", "prefix": "4o4", "user": {"location": {"city": "Sandy springs", "state": "GA", "country": "United States"}}, "player": {"id": 338020, "gamerTag": "Yugo", "prefix": "4o4", "user": {"location": {"city": "Sandy springs", "state": "GA", "country": "United States"}}}}]}, "standing": {"placement": 1, "stats": {"score": {"value": null}}}}, {"id": "94145856-1", "entrant": {"id": 21200319, "name": "OgMadara92", "participants": [{"id": 19497254, "gamerTag": "OgMadara92", "prefix": "", "user": {"location": {"city": null, "state": null, "country": "United States"}}, "player": {"id": 4463741, "gamerTag": "OgMadara92", "prefix": "", "user": {"location": {"city": null, "state": null, "country": "United States"}}}}]}, "standing": {"placement": 2, "stats": {"score": {"value": -1}}}}], "games": null}, {"id": 94145857, "state": 3, "round": -3, "fullRoundText": "Losers Round 1", "completedAt": 1758409544, "winnerId": 21330482, "slots": [{"id": "94145857-0", "entrant": {"id": 21332787, "name": "TTMG | IlloriVice", "participants": [{"id": 19611033, "gamerTag": "IlloriVice", "prefix": "TTMG", "user": {"location": {"city": "Atlanta", "state": "GA", "country": "United States"}}, "player": {"id": 4981273, "gamerTag": "IlloriVice", "prefix": "TTMG", "user": {"location": {"city": "Atlanta", "state": "GA", "country": "United States"}}}}]}, "standing": {"placement": 2, "stats": {"score": {"value": 0}}}}, {"id": "94145857-1", "entrant": {"id": 21330482, "name": "ToBeFrank | FF | SLAYlor Moon", "participants": [{"id": 19609169, "gamerTag": "SLAYlor Moon", "prefix": "ToBeFrank | FF", "user": {"location": {"city": "Atlanta", "state": "GA", "country": "United States"}}, "player": {"id": 267007, "gamerTag": "SLAYlor Moon", "prefix": "ToBeFrank | FF", "user": {"location": {"city": "Atlanta", "state": "GA", "country": "United States"}}}}]}, "standing": {"placement": 1, "stats": {"score": {"value": 2}}}}], "games": null}, {"id": 94145859, "state": 3, "round": -3, "fullRoundText": "Losers Round 1", "completedAt": 1758410057, "winnerId": 21330257, "slots": [{"id": "94145859-0", "entrant": {"id": 21332231, "name": "Amareonthebeat", "participants": [{"id": 19610628, "gamerTag": "Amareonthebeat", "prefix": "", "user": {"location": {"city": null, "state": null, "country": "United States"}}, "player": {"id": 4981446, "gamerTag": "Amareonthebeat", "prefix": "", "user": {"location": {"city": null, "state": null, "country": "United States"}}}}]}, "standing": {"placement": 2, "stats": {"score": {"value": 1}}}}, {"id": "94145859-1", "entrant": {"id": 21330257, "name": "HokutoNoCrawfish", "participants": [{"id": 19608954, "gamerTag": "HokutoNoCrawfish", "prefix": "", "user": {"location": {"city": null, "state": "GA", "country": "United States"}}, "player": {"id": 4196044, "gamerTag": "HokutoNoCrawfish", "prefix": "", "user": {"location": {"city": null, "state": "GA", "country": "United States"}}}}]}, "standing": {"placement": 1, "stats": {"score": {"value": 2}}}}], "games": null}, {"id": 94145861, "state": 3, "round": -3, "fullRoundText": "Losers Round 1", "completedAt": 1758409989, "winnerId": 21332222, "slots": [{"id": "94145861-0", "entrant": {"id": 21332222, "name": "KSU | Teahhasi", "participants": [{"id": 19610621, "gamerTag": "Teahhasi", "prefix": "KSU", "user": {"location": {"city": null, "state": "GA", "country": "United States"}}, "player": {"id": 1241955, "gamerTag": "Teahhasi", "prefix": "KSU", "user": {"location": {"city": null, "state": "GA", "country": "United States"}}}}]}, "standing": {"placement": 1, "stats": {"score": {"value": 2}}}}, {"id": "94145861-1", "entrant": {"id": 21329480, "name": "PrimeStone", "participants": [{"id": 19608158, "gamerTag": "PrimeStone", "prefix": null, "user": {"location": {"city": "Loganville", "state": "GA", "country": "United States"}}, "player": {"id": 1130909, "gamerTag": "PrimeStone", "prefix": null, "user": {"location": {"city": "Loganville", "state": "GA", "country": "United States"}}}}]}, "standing": {"placement": 2, "stats": {"score": {"value": 1}}}}], "games": null}, {"id": 94145790, "state": 3, "round": 1, "fullRoundText": "Winners Round 1", "completedAt": 1758408707, "winnerId": 21328256, "slots": [{"id": "94145790-0", "entrant": {"id": 21328256, "name": "SomeLikeItRedHot", "participants": [{"id": 19606983, "gamerTag": "SomeLikeItRedHot", "prefix": "", "user": {"location": {"city": "Atlanta", "state": "GA", "country": "United States"}}, "player": {"id": 223776, "gamerTag": "REMY", "prefix": "", "user": {"location": {"city": "Atlanta", "state": "GA", "country": "United States"}}}}]}, "standing": {"placement": 1, "stats": {"score": {"value": 2}}}}, {"id": "94145790-1", "entrant": {"id": 21329414, "name": "C-2", "participants": [{"id": 19607987, "gamerTag": "C-2", "prefix": "", "user": {"location": {"city": "Atlanta", "state": "GA", "country": "United States"}}, "player": {"id": 1228856, "gamerTag": "C-2", "prefix": "", "user": {"location": {"city": "Atlanta", "state": "GA", "country": "United States"}}}}]}, "standing": {"placement": 2, "stats": {"score": {"value": 0}}}}], "games": null}]}}}