{"phase": {"seeds": {"pageInfo": {"totalPages": 1, "total": 6}, "nodes": [{"id": 35839652, "seedNum": 2, "entrant": {"id": 20769191, "name": "N/a | C$", "participants": [{"id": 19114280, "gamerTag": "C$", "prefix": "N/a", "user": {"location": null}, "player": {"id": 228175, "gamerTag": "C$", "prefix": "N/a", "user": {"location": null}}}]}}, {"id": 35933321, "seedNum": 1, "entrant": {"id": 20826746, "name": "knight", "participants": [{"id": 19165486, "gamerTag": "knight", "prefix": "", "user": {"location": {"city": "Greer", "state": "SC", "country": "United States"}}, "player": {"id": 717797, "gamerTag": "knight", "prefix": "", "user": {"location": {"city": "Greer", "state": "SC", "country": "United States"}}}}]}}, {"id": 35839649, "seedNum": 3, "entrant": {"id": 20769187, "name": "NMBS | Phteven", "participants": [{"id": 19114278, "gamerTag": "Phteven", "prefix": "NMBS", "user": {"location": {"city": "Mableton", "state": "GA", "country": "United States"}}, "player": {"id": 209952, "gamerTag": "Phteven", "prefix": "NMBS", "user": {"location": {"city": "Mableton", "state": "GA", "country": "United States"}}}}]}}, {"id": 35934111, "seedNum": 4, "entrant": {"id": 20827390, "name": "Hello | wizard!!", "participants": [{"id": 19166093, "gamerTag": "wizard!!", "prefix": "Hello", "user": {"location": {"city": null, "state": null, "country": null}}, "player": {"id": 232585, "gamerTag": "wizard!!", "prefix": "Hello", "user": {"location": {"city": null, "state": null, "country": null}}}}]}}, {"id": 35932244, "seedNum": 5, "entrant": {"id": 20825796, "name": "cheeks", "participants": [{"id": 19164601, "gamerTag": "cheeks", "prefix": "", "user": {"location": {"city": "Greenville", "state": "SC", "country": "United States"}}, "player": {"id": 2168044, "gamerTag": "cheeks", "prefix": "", "user": {"location": {"city": "Greenville", "state": "SC", "country": "United States"}}}}]}}, {"id": 35932583, "seedNum": 6, "entrant": {"id": 20826125, "name": "KHW | Frumps", "participants": [{"id": 19164919, "gamerTag": "Frumps", "prefix": "KHW", "user": {"location": {"city": "Greenville", "state": "SC", "country": "United States"}}, "player": {"id": 2844590, "gamerTag": "Frumps", "prefix": "KHW", "user": {"location": {"city": "Greenville", "state": "SC", "country": "United States"}}}}]}}]}}}