{"phase": {"seeds": {"pageInfo": {"totalPages": 1, "total": 5}, "nodes": [{"id": 36383830, "seedNum": 1, "entrant": {"id": 21108786, "name": "Domronrd", "participants": [{"id": 19416465, "gamerTag": "Domronrd", "prefix": "", "user": {"location": {"city": "Chattanooga", "state": null, "country": "United States"}}, "player": {"id": 3088595, "gamerTag": "Domronrd", "prefix": "", "user": {"location": {"city": "Chattanooga", "state": null, "country": "United States"}}}}]}}, {"id": 36371814, "seedNum": 3, "entrant": {"id": 21100257, "name": "Twuths", "participants": [{"id": 19408707, "gamerTag": "Twuths", "prefix": "", "user": {"location": {"city": "Ooltewah", "state": "TN", "country": "United States"}}, "player": {"id": 1899368, "gamerTag": "Twuths", "prefix": "", "user": {"location": {"city": "Ooltewah", "state": "TN", "country": "United States"}}}}]}}, {"id": 36373878, "seedNum": 2, "entrant": {"id": 21101718, "name": "goop", "participants": [{"id": 19410073, "gamerTag": "goop", "prefix": "", "user": {"location": {"city": "Chattanooga", "state": "TN", "country": "United States"}}, "player": {"id": 3136059, "gamerTag": "goop", "prefix": "", "user": {"location": {"city": "Chattanooga", "state": "TN", "country": "United States"}}}}]}}, {"id": 36397893, "seedNum": 4, "entrant": {"id": 21119036, "name": "Ler", "participants": [{"id": 19425619, "gamerTag": "Ler", "prefix": "", "user": {"location": {"city": "Ooltewah", "state": "TN", "country": "United States"}}, "player": {"id": 2421857, "gamerTag": "Ler", "prefix": "", "user": {"location": {"city": "Ooltewah", "state": "TN", "country": "United States"}}}}]}}, {"id": 36384072, "seedNum": 5, "entrant": {"id": 21108886, "name": "Althalos", "participants": [{"id": 19416547, "gamerTag": "Althalos", "prefix": null, "user": {"location": {"city": "Chattanooga", "state": "TN", "country": "United States"}}, "player": {"id": 4496902, "gamerTag": "Althalos", "prefix": null, "user": {"location": {"city": "Chattanooga", "state": "TN", "country": "United States"}}}}]}}]}}}