{"phase": {"seeds": {"pageInfo": {"totalPages": 1, "total": 16}, "nodes": [{"id": 36170175, "seedNum": 3, "entrant": {"id": 20974571, "name": "Jel-Sensei", "participants": [{"id": 19295829, "gamerTag": "Jel-Sensei", "prefix": "", "user": {"location": {"city": "birmingham", "state": "AL", "country": "United States"}}, "player": {"id": 1966345, "gamerTag": "Jel-Sensei", "prefix": "", "user": {"location": {"city": "birmingham", "state": "AL", "country": "United States"}}}}]}}, {"id": 36367235, "seedNum": 13, "entrant": {"id": 21097931, "name": "Darth_Prysm-1", "participants": [{"id": 19406411, "gamerTag": "Darth_Prysm-1", "prefix": null, "user": {"location": {"city": "Woodstock", "state": "GA", "country": "United States"}}, "player": {"id": 4269051, "gamerTag": "Darth_Prysm-1", "prefix": null, "user": {"location": {"city": "Woodstock", "state": "GA", "country": "United States"}}}}]}}, {"id": 36378468, "seedNum": 14, "entrant": {"id": 21105190, "name": "ZeAxell", "participants": [{"id": 19413164, "gamerTag": "ZeAxell", "prefix": "", "user": {"location": {"city": "Loganville", "state": "GA", "country": "United States"}}, "player": {"id": 3771808, "gamerTag": "ZeAxell", "prefix": "", "user": {"location": {"city": "Loganville", "state": "GA", "country": "United States"}}}}]}}, {"id": 36329586, "seedNum": 8, "entrant": {"id": 21075143, "name": "The World Warrior", "participants": [{"id": 19386015, "gamerTag": "The World Warrior", "prefix": null, "user": {"location": {"city": "Atlanta", "state": "GA", "country": "United States"}}, "player": {"id": 1369004, "gamerTag": "The World Warrior", "prefix": null, "user": {"location": {"city": "Atlanta", "state": "GA", "country": "United States"}}}}]}}, {"id": 36353888, "seedNum": 10, "entrant": {"id": 21088984, "name": "Hambone", "participants": [{"id": 19398486, "gamerTag": "Hambone", "prefix": "", "user": {"location": {"city": "Atlanta", "state": "GA", "country": "United States"}}, "player": {"id": 4943239, "gamerTag": "Hambone", "prefix": "", "user": {"location": {"city": "Atlanta", "state": "GA", "country": "United States"}}}}]}}, {"id": 36398295, "seedNum": 16, "entrant": {"id": 21119381, "name": "Jemi Keiyns", "participants": [{"id": 19425900, "gamerTag": "Jemi Keiyns", "prefix": "", "user": {"location": {"city": null, "state": null, "country": null}}, "player": {"id": 3640628, "gamerTag": "Jemi Keiyns", "prefix": "", "user": {"location": {"city": null, "state": null, "country": null}}}}]}}, {"id": 36316222, "seedNum": 5, "entrant": {"id": 21065599, "name": "ActiveFrameOne", "participants": [{"id": 19377228, "gamerTag": "ActiveFrameOne", "prefix": "", "user": {"location": {"city": "Atlanta", "state": "GA", "country": "United States"}}, "player": {"id": 4939270, "gamerTag": "ActiveFrameOne", "prefix": "", "user": {"location": {"city": "Atlanta", "state": "GA", "country": "United States"}}}}]}}, {"id": 36361109, "seedNum": 12, "entrant": {"id": 21094646, "name": "Shadow Crescent", "participants": [{"id": 19403709, "gamerTag": "Shadow Crescent", "prefix": "", "user": {"location": {"city": "Dallas", "state": null, "country": "United States"}}, "player": {"id": 3587396, "gamerTag": "Shadow Crescent", "prefix": "", "user": {"location": {"city": "Dallas", "state": null, "country": "United States"}}}}]}}, {"id": 36116934, "seedNum": 2, "entrant": {"id": 20940688, "name": "InariF", "participants": [{"id": 19266364, "gamerTag": "InariF", "prefix": "", "user": {"location": {"city": "Crawfordville", "state": "FL", "country": "United States"}}, "player": {"id": 3603515, "gamerTag": "InariF", "prefix": "", "user": {"location": {"city": "Crawfordville", "state": "FL", "country": "United States"}}}}]}}, {"id": 36327182, "seedNum": 7, "entrant": {"id": 21073256, "name": "KFF", "participants": [{"id": 19384406, "gamerTag": "KFF", "prefix": null, "user": {"location": {"city": "Peachtree Corners", "state": "GA", "country": "United States"}}, "player": {"id": 1684133, "gamerTag": "KFF", "prefix": "", "user": {"location": {"city": "Peachtree Corners", "state": "GA", "country": "United States"}}}}]}}, {"id": 36335052, "seedNum": 9, "entrant": {"id": 21079222, "name": "DaFunnyMan", "participants": [{"id": 19389821, "gamerTag": "DaFunnyMan", "prefix": "", "user": {"location": {"city": "Canton", "state": "GA", "country": "United States"}}, "player": {"id": 4278503, "gamerTag": "DaFunnyMan", "prefix": "", "user": {"location": {"city": "Canton", "state": "GA", "country": "United States"}}}}]}}, {"id": 36354297, "seedNum": 11, "entrant": {"id": 21089315, "name": "Archway", "participants": [{"id": 19398797, "gamerTag": "Archway", "prefix": "", "user": {"location": {"city": "Sandy Springs", "state": "GA", "country": "United States"}}, "player": {"id": 1435251, "gamerTag": "Archway", "prefix": "", "user": {"location": {"city": "Sandy Springs", "state": "GA", "country": "United States"}}}}]}}, {"id": 36033868, "seedNum": 1, "entrant": {"id": 20887395, "name": "Avaris", "participants": [{"id": 19219223, "gamerTag": "Avaris", "prefix": null, "user": {"location": {"city": "Atlanta", "state": "GA", "country": "United States"}}, "player": {"id": 938501, "gamerTag": "Avaris", "prefix": null, "user": {"location": {"city": "Atlanta", "state": "GA", "country": "United States"}}}}]}}, {"id": 36243455, "seedNum": 4, "entrant": {"id": 21016904, "name": "TB | Dean0", "participants": [{"id": 19333271, "gamerTag": "Dean0", "prefix": "TB", "user": {"location": {"city": "Woodstock", "state": "GA", "country": "United States"}}, "player": {"id": 4931303, "gamerTag": "Dean0", "prefix": "TB", "user": {"location": {"city": "Woodstock", "state": "GA", "country": "United States"}}}}]}}, {"id": 36317286, "seedNum": 6, "entrant": {"id": 21066383, "name": "NoDraw", "participants": [{"id": 19377956, "gamerTag": "NoDraw", "prefix": "", "user": {"location": {"city": null, "state": null, "country": null}}, "player": {"id": 1840654, "gamerTag": "NoDraw", "prefix": "", "user": {"location": {"city": null, "state": null, "country": null}}}}]}}, {"id": 36396800, "seedNum": 15, "entrant": {"id": 21118196, "name": "VGYT | Ankha5", "participants": [{"id": 19424807, "gamerTag": "Ankha5", "prefix": "VGYT", "user": {"location": {"city": "Marietta", "state": "GA", "country": "United States"}}, "player": {"id": 3578540, "gamerTag": "Ankha5", "prefix": "VGYT", "user": {"location": {"city": "Marietta", "state": "GA", "country": "United States"}}}}]}}]}}}