{"event": {"sets": {"pageInfo": {"totalPages": 3, "total": 36}, "nodes": [{"id": 92432955, "state": 3, "round": -4, "fullRoundText": "Losers Round 1", "completedAt": 1754702259, "winnerId": 20913802, "slots": [{"id": "92432955-0", "entrant": {"id": 20913802, "name": "TFT | ALLEYCAT", "participants": [{"id": 19242538, "gamerTag": "ALLEYCAT", "prefix": "TFT", "user": {"location": {"city": "Atlanta", "state": "GA", "country": "United States"}}, "player": {"id": 1940654, "gamerTag": "ALLEYCAT", "prefix": "TFT", "user": {"location": {"city": "Atlanta", "state": "GA", "country": "United States"}}}}]}, "standing": {"placement": 1, "stats": {"score": {"value": 0}}}}, {"id": "92432955-1", "entrant": {"id": 20917554, "name": "Nintenbro", "participants": [{"id": 19245976, "gamerTag": "Nintenbro", "prefix": "", "user": {"location": {"city": "Decatur", "state": "GA", "country": "United States"}}, "player": {"id": 3887973, "gamerTag": "Nintenbro", "prefix": "", "user": {"location": {"city": "Decatur", "state": "GA", "country": "United States"}}}}]}, "standing": {"placement": 2, "stats": {"score": {"value": -1}}}}], "games": null}, {"id": 92432959, "state": 3, "round": -4, "fullRoundText": "Losers Round 1", "completedAt": 1754698842, "winnerId": 20918022, "slots": [{"id": "92432959-0", "entrant": {"id": 20918022, "name": "MONEY | ImNoPro", "participants": [{"id": 19246417, "gamerTag": "ImNoPro", "prefix": "MONEY", "user": {"location": {"city": "Calhoun", "state": "GA", "country": "United States"}}, "player": {"id": 2149803, "gamerTag": "ImNoPro", "prefix": "MONEY", "user": {"location": {"city": "Calhoun", "state": "GA", "country": "United States"}}}}]}, "standing": {"placement": 1, "stats": {"score": {"value": 2}}}}, {"id": "92432959-1", "entrant": {"id": 20917691, "name": "OWL | G-Zus", "participants": [{"id": 19246090, "gamerTag": "G-Zus", "prefix": "OWL", "user": {"location": {"city": "Atlanta", "state": "GA", "country": "United States"}}, "player": {"id": 4915385, "gamerTag": "G-Zus", "prefix": "OWL", "user": {"location": {"city": "Atlanta", "state": "GA", "country": "United States"}}}}]}, "standing": {"placement": 2, "stats": {"score": {"value": 0}}}}], "games": null}, {"id": 92432961, "state": 3, "round": -4, "fullRoundText": "Losers Round 1", "completedAt": 1754700042, "winnerId": 20918073, "slots": [{"id": "92432961-0", "entrant": {"id": 20918073, "name": "Jdaddy", "participants": [{"id": 19246460, "gamerTag": "Jdaddy", "prefix": null, "user": {"location": {"city": "Atlanta", "state": "GA", "country": "United States"}}, "player": {"id": 4384721, "gamerTag": "Jdaddy", "prefix": null, "user": {"location": {"city": "Atlanta", "state": "GA", "country": "United States"}}}}]}, "standing": {"placement": 1, "stats": {"score": {"value": 2}}}}, {"id": "92432961-1", "entrant": {"id": 20917694, "name": "Owl | riffgriff", "participants": [{"id": 19246093, "gamerTag": "riffgriff", "prefix": "Owl", "user": {"location": {"city": "Atlanta", "state": "GA", "country": "United States"}}, "player": {"id": 4915386, "gamerTag": "riffgriff", "prefix": "Owl", "user": {"location": {"city": "Atlanta", "state": "GA", "country": "United States"}}}}]}, "standing": {"placement": 2, "stats": {"score": {"value": 0}}}}], "games": null}, {"id": 92432883, "state": 3, "round": 1, "fullRoundText": "Winners Round 1", "completedAt": 1754699812, "winnerId": 20905454, "slots": [{"id": "92432883-0", "entrant": {"id": 20905454, "name": "TnT | annamation", "participants": [{"id": 19234882, "gamerTag": "annamation", "prefix": "TnT", "user": {"location": {"city": "Atlanta", "state": "GA", "country": "United States"}}, "player": {"id": 1699369, "gamerTag": "annamation", "prefix": "TnT", "user": {"location": {"city": "Atlanta", "state": "GA", "country": "United States"}}}}]}, "standing": {"placement": 1, "stats": {"score": {"value": 0}}}}, {"id": "92432883-1", "entrant": {"id": 20917554, "name": "Nintenbro", "participants": [{"id": 19245976, "gamerTag": "Nintenbro", "prefix": "", "user": {"location": {"city": "Decatur", "state": "GA", "country": "United States"}}, "player": {"id": 3887973, "gamerTag": "Nintenbro", "prefix": "", "user": {"location": {"city": "Decatur", "state": "GA", "country": "United States"}}}}]}, "standing": {"placement": 2, "stats": {"score": {"value": -1}}}}], "games": null}, {"id": 92432891, "state": 3, "round": 1, "fullRoundText": "Winners Round 1", "completedAt": 1754697983, "winnerId": 20881527, "slots": [{"id": "92432891-0", "entrant": {"id": 20881527, "name": "Nurikami", "participants": [{"id": 19214215, "gamerTag": "Nurikami", "prefix": null, "user": {"location": {"city": "Sandy Springs", "state": "GA", "country": "United States"}}, "player": {"id": 2894467, "gamerTag": "Nurikami", "prefix": null, "user": {"location": {"city": "Sandy Springs", "state": "GA", "country": "United States"}}}}]}, "standing": {"placement": 1, "stats": {"score": {"value": 2}}}}, {"id": "92432891-1", "entrant": {"id": 20917691, "name": "OWL | G-Zus", "participants": [{"id": 19246090, "gamerTag": "G-Zus", "prefix": "OWL", "user": {"location": {"city": "Atlanta", "state": "GA", "country": "United States"}}, "player": {"id": 4915385, "gamerTag": "G-Zus", "prefix": "OWL", "user": {"location": {"city": "Atlanta", "state": "GA", "country": "United States"}}}}]}, "standing": {"placement": 2, "stats": {"score": {"value": 0}}}}], "games": null}, {"id": 92432895, "state": 3, "round": 1, "fullRoundText": "Winners Round 1", "completedAt": 1754698309, "winnerId": 20917896, "slots": [{"id": "92432895-0", "entrant": {"id": 20917896, "name": "Mickey.Deeez", "participants": [{"id": 19246296, "gamerTag": "Mickey.Deeez", "prefix": null, "user": {"location": {"city": null, "state": null, "country": "Georgia"}}, "player": {"id": 4023323, "gamerTag": "Mickey.Deeez", "prefix": null, "user": {"location": {"city": null, "state": null, "country": "Georgia"}}}}]}, "standing": {"placement": 1, "stats": {"score": {"value": 2}}}}, {"id": "92432895-1", "entrant": {"id": 20917694, "name": "Owl | riffgriff", "participants": [{"id": 19246093, "gamerTag": "riffgriff", "prefix": "Owl", "user": {"location": {"city": "Atlanta", "state": "GA", "country": "United States"}}, "player": {"id": 4915386, "gamerTag": "riffgriff", "prefix": "Owl", "user": {"location": {"city": "Atlanta", "state": "GA", "country": "United States"}}}}]}, "standing": {"placement": 2, "stats": {"score": {"value": 1}}}}], "games": null}]}}}