{"event": {"sets": {"pageInfo": {"totalPages": 7, "total": 101}, "nodes": [{"id": 93351210, "state": 3, "round": 1, "fullRoundText": "Winners Round 1", "completedAt": 1756671019, "winnerId": 21083439, "slots": [{"id": "93351210-0", "entrant": {"id": 21057962, "name": "MAJOR | Goob", "participants": [{"id": 19370452, "gamerTag": "Goob", "prefix": "MAJOR", "user": {"location": {"city": "Redmond", "state": "WA", "country": "United States"}}, "player": {"id": 68099, "gamerTag": "Goob", "prefix": "MAJOR", "user": {"location": {"city": "Redmond", "state": "WA", "country": "United States"}}}}]}, "standing": {"placement": 2, "stats": {"score": {"value": -1}}}}, {"id": "93351210-1", "entrant": {"id": 21083439, "name": "Fe | Atomic", "participants": [{"id": 19393668, "gamerTag": "Atomic", "prefix": "Fe", "user": {"location": {"city": "Atlanta", "state": "GA", "country": "United States"}}, "player": {"id": 1809403, "gamerTag": "Atomic", "prefix": "Fe", "user": {"location": {"city": "Atlanta", "state": "GA", "country": "United States"}}}}]}, "standing": {"placement": 1, "stats": {"score": {"value": null}}}}], "games": null}, {"id": 93357359, "state": 3, "round": 1, "fullRoundText": "Winners Round 1", "completedAt": 1756678288, "winnerId": 20992611, "slots": [{"id": "93357359-0", "entrant": {"id": 20992611, "name": "Par-i-dot Alpha", "participants": [{"id": 19311138, "gamerTag": "Par-i-dot Alpha", "prefix": "", "user": {"location": {"city": "Lithoina", "state": "GA", "country": "United States"}}, "player": {"id": 36418, "gamerTag": "Avalon", "prefix": "", "user": {"location": {"city": "Lithoina", "state": "GA", "country": "United States"}}}}]}, "standing": {"placement": 1, "stats": {"score": {"value": null}}}}, {"id": "93357359-1", "entrant": {"id": 21118207, "name": "6thRaikage", "participants": [{"id": 19424815, "gamerTag": "6thRaikage", "prefix": "", "user": {"location": {"city": "Stone mountain", "state": null, "country": "South Korea"}}, "player": {"id": 1290793, "gamerTag": "6thRaikage", "prefix": "", "user": {"location": {"city": "Stone mountain", "state": null, "country": "South Korea"}}}}]}, "standing": {"placement": 2, "stats": {"score": {"value": -1}}}}], "games": null}, {"id": 93351212, "state": 3, "round": 1, "fullRoundText": "Winners Round 1", "completedAt": 1756671023, "winnerId": 21101150, "slots": [{"id": "93351212-0", "entrant": {"id": 21104272, "name": "SaggyMilkJug", "participants": [{"id": 19412425, "gamerTag": "SaggyMilkJug", "prefix": "", "user": {"location": {"city": "Atlanta", "state": "GA", "country": "United States"}}, "player": {"id": 4651404, "gamerTag": "SaggyMilkJug", "prefix": "", "user": {"location": {"city": "Atlanta", "state": "GA", "country": "United States"}}}}]}, "standing": {"placement": 2, "stats": {"score": {"value": -1}}}}, {"id": "93351212-1", "entrant": {"id": 21101150, "name": "GOONER | VolarIRL", "participants": [{"id": 19409518, "gamerTag": "VolarIRL", "prefix": "GOONER", "user": {"location": {"city": "Atlanta/Marietta", "state": "GA", "country": "United States"}}, "player": {"id": 2998706, "gamerTag": "VolarIRL", "prefix": "GOONER", "user": {"location": {"city": "Atlanta/Marietta", "state": "GA", "country": "United States"}}}}]}, "standing": {"placement": 1, "stats": {"score": {"value": null}}}}], "games": null}, {"id": 93342865, "state": 3, "round": 1, "fullRoundText": "Winners Round 1", "completedAt": 1756664052, "winnerId": 20983084, "slots": [{"id": "93342865-0", "entrant": {"id": 21119103, "name": "SirMelltheGreat", "participants": [{"id": 19425677, "gamerTag": "SirMelltheGreat", "prefix": "", "user": {"location": {"city": "Savannah", "state": "GA", "country": "United States"}}, "player": {"id": 3603872, "gamerTag": "SirMelltheGreat", "prefix": "", "user": {"location": {"city": "Savannah", "state": "GA", "country": "United States"}}}}]}, "standing": {"placement": 2, "stats": {"score": {"value": 0}}}}, {"id": "93342865-1", "entrant": {"id": 20983084, "name": "Swaggin Waggon", "participants": [{"id": 19303225, "gamerTag": "Swaggin Waggon", "prefix": "", "user": {"location": {"city": "Bay City", "state": "TX", "country": "United States"}}, "player": {"id": 833326, "gamerTag": "Swaggin Waggon", "prefix": "", "user": {"location": {"city": "Bay City", "state": "TX", "country": "United States"}}}}]}, "standing": {"placement": 1, "stats": {"score": {"value": 2}}}}], "games": null}, {"id": 93337890, "state": 3, "round": 1, "fullRoundText": "Winners Round 1", "completedAt": 1756657458, "winnerId": 21099538, "slots": [{"id": "93337890-0", "entrant": {"id": 21099538, "name": "JJ Hardy", "participants": [{"id": 19408044, "gamerTag": "JJ Hardy", "prefix": null, "user": {"location": {"city": "Windsor", "state": "CT", "country": "United States"}}, "player": {"id": 1825931, "gamerTag": "JJ Hardy", "prefix": "", "user": {"location": {"city": "Windsor", "state": "CT", "country": "United States"}}}}]}, "standing": {"placement": 1, "stats": {"score": {"value": 2}}}}, {"id": "93337890-1", "entrant": {"id": 21030363, "name": "w3155", "participants": [{"id": 19345540, "gamerTag": "w3155", "prefix": "", "user": {"location": {"city": "Flowery Branch", "state": "GA", "country": "United States"}}, "player": {"id": 3556938, "gamerTag": "w3155", "prefix": "", "user": {"location": {"city": "Flowery Branch", "state": "GA", "country": "United States"}}}}]}, "standing": {"placement": 2, "stats": {"score": {"value": 0}}}}], "games": null}, {"id": 93357361, "state": 3, "round": 1, "fullRoundText": "Winners Round 1", "completedAt": 1756678590, "winnerId": 21068091, "slots": [{"id": "93357361-0", "entrant": {"id": 21068091, "name": "RAMS | Bragmuffin", "participants": [{"id": 19379661, "gamerTag": "Bragmuffin", "prefix": "RAMS", "user": {"location": {"city": "Alpharetta", "state": "GA", "country": "United States"}}, "player": {"id": 2354073, "gamerTag": "Bragmuffin", "prefix": "RAMS", "user": {"location": {"city": "Alpharetta", "state": "GA", "country": "United States"}}}}]}, "standing": {"placement": 1, "stats": {"score": {"value": 2}}}}, {"id": "93357361-1", "entrant": {"id": 21028213, "name": "Greenflaming0", "participants": [{"id": 19343543, "gamerTag": "Greenflaming0", "prefix": null, "user": {"location": {"city": "marietta", "state": "GA", "country": "United States"}}, "player": {"id": 4932878, "gamerTag": "Greenflaming0", "prefix": null, "user": {"location": {"city": "marietta", "state": "GA", "country": "United States"}}}}]}, "standing": {"placement": 2, "stats": {"score": {"value": 0}}}}], "games": null}, {"id": 93362512, "state": 3, "round": 1, "fullRoundText": "Winners Quarter-Final", "completedAt": 1756685229, "winnerId": 20734707, "slots": [{"id": "93362512-0", "entrant": {"id": 20734707, "name": "Ave~", "participants": [{"id": 19081749, "gamerTag": "Ave~", "prefix": null, "user": {"location": {"city": null, "state": null, "country": null}}, "player": {"id": 38830, "gamerTag": "Ave~", "prefix": "", "user": {"location": {"city": null, "state": null, "country": null}}}}]}, "standing": {"placement": 1, "stats": {"score": {"value": 2}}}}, {"id": "93362512-1", "entrant": {"id": 21098320, "name": "KRU | CarbonCopies", "participants": [{"id": 19406775, "gamerTag": "CarbonCopies", "prefix": "KRU", "user": {"location": {"city": "Denver", "state": "CO", "country": "United States"}}, "player": {"id": 521097, "gamerTag": "CarbonCopies", "prefix": "KRU", "user": {"location": {"city": "Denver", "state": "CO", "country": "United States"}}}}]}, "standing": {"placement": 2, "stats": {"score": {"value": 0}}}}], "games": null}, {"id": 93342867, "state": 3, "round": 1, "fullRoundText": "Winners Round 1", "completedAt": 1756663843, "winnerId": 21128641, "slots": [{"id": "93342867-0", "entrant": {"id": 21128641, "name": "TFT | BigCheese", "participants": [{"id": 19434413, "gamerTag": "BigCheese", "prefix": "TFT", "user": {"location": {"city": null, "state": null, "country": null}}, "player": {"id": 3991446, "gamerTag": "BigCheese", "prefix": "TFT", "user": {"location": {"city": null, "state": null, "country": null}}}}]}, "standing": {"placement": 1, "stats": {"score": {"value": 2}}}}, {"id": "93342867-1", "entrant": {"id": 21028219, "name": "The_Editors", "participants": [{"id": 19343550, "gamerTag": "The_Editors", "prefix": null, "user": {"location": {"city": "Albertville", "state": "AL", "country": "United States"}}, "player": {"id": 3796522, "gamerTag": "The_Editors", "prefix": null, "user": {"location": {"city": "Albertville", "state": "AL", "country": "United States"}}}}]}, "standing": {"placement": 2, "stats": {"score": {"value": 0}}}}], "games": null}, {"id": 93337892, "state": 3, "round": 1, "fullRoundText": "Winners Round 1", "completedAt": 1756656901, "winnerId": 21126747, "slots": [{"id": "93337892-0", "entrant": {"id": 21126747, "name": "Aaron", "participants": [{"id": 19432451, "gamerTag": "Aaron", "prefix": null, "user": {"location": {"city": "Lexington", "state": null, "country": null}}, "player": {"id": 448165, "gamerTag": "Aaron", "prefix": null, "user": {"location": {"city": "Lexington", "state": null, "country": null}}}}]}, "standing": {"placement": 1, "stats": {"score": {"value": null}}}}, {"id": "93337892-1", "entrant": {"id": 21050482, "name": "Vincenzo", "participants": [{"id": 19363924, "gamerTag": "Vincenzo", "prefix": "", "user": {"location": {"city": "Raleigh", "state": "NC", "country": "United States"}}, "player": {"id": 4381443, "gamerTag": "SirBacon", "prefix": null, "user": {"location": {"city": "Raleigh", "state": "NC", "country": "United States"}}}}]}, "standing": {"placement": 2, "stats": {"score": {"value": -1}}}}], "games": null}, {"id": 93351214, "state": 3, "round": 1, "fullRoundText": "Winners Round 1", "completedAt": 1756671097, "winnerId": 21122153, "slots": [{"id": "93351214-0", "entrant": {"id": 21122153, "name": "MTM | Bob Weiner", "participants": [{"id": 19428298, "gamerTag": "Bob Weiner", "prefix": "MTM", "user": {"location": {"city": "Kennesaw", "state": "GA", "country": "United States"}}, "player": {"id": 2142601, "gamerTag": "Bob Weiner", "prefix": "MTM", "user": {"location": {"city": "Kennesaw", "state": "GA", "country": "United States"}}}}]}, "standing": {"placement": 1, "stats": {"score": {"value": 2}}}}, {"id": "93351214-1", "entrant": {"id": 21005112, "name": "Reco", "participants": [{"id": 19322769, "gamerTag": "Reco", "prefix": null, "user": {"location": {"city": "Atlanta", "state": "GA", "country": "United States"}}, "player": {"id": 4343297, "gamerTag": "Reco", "prefix": null, "user": {"location": {"city": "Atlanta", "state": "GA", "country": "United States"}}}}]}, "standing": {"placement": 2, "stats": {"score": {"value": 0}}}}], "games": null}, {"id": 93362570, "state": 3, "round": -6, "fullRoundText": "Losers Round 3", "completedAt": 1756689070, "winnerId": 21094406, "slots": [{"id": "93362570-0", "entrant": {"id": 21094406, "name": "pristinetao", "participants": [{"id": 19403485, "gamerTag": "pristinetao", "prefix": "", "user": {"location": {"city": null, "state": null, "country": null}}, "player": {"id": 2721225, "gamerTag": "pristinetao", "prefix": "", "user": {"location": {"city": null, "state": null, "country": null}}}}]}, "standing": {"placement": 1, "stats": {"score": {"value": 2}}}}, {"id": "93362570-1", "entrant": {"id": 21088942, "name": "TFT | RoKu", "participants": [{"id": 19398449, "gamerTag": "RoKu", "prefix": "TFT", "user": {"location": {"city": "Peachtree Corners", "state": "GA", "country": "United States"}}, "player": {"id": 1107285, "gamerTag": "RoKu", "prefix": "TFT", "user": {"location": {"city": "Peachtree Corners", "state": "GA", "country": "United States"}}}}]}, "standing": {"placement": 2, "stats": {"score": {"value": 1}}}}], "games": null}, {"id": 93362571, "state": 3, "round": -6, "fullRoundText": "Losers Round 3", "completedAt": 1756688671, "winnerId": 21062207, "slots": [{"id": "93362571-0", "entrant": {"id": 21100706, "name": "Huggles", "participants": [{"id": 19409098, "gamerTag": "Huggles", "prefix": "", "user": {"location": {"city": "Irmo", "state": "SC", "country": "United States"}}, "player": {"id": 53024, "gamerTag": "Huggles", "prefix": "", "user": {"location": {"city": "Irmo", "state": "SC", "country": "United States"}}}}]}, "standing": {"placement": 2, "stats": {"score": {"value": 1}}}}, {"id": "93362571-1", "entrant": {"id": 21062207, "name": "Frank", "participants": [{"id": 19374337, "gamerTag": "Frank", "prefix": null, "user": {"location": {"city": "Doraville", "state": "GA", "country": "United States"}}, "player": {"id": 1227401, "gamerTag": "Terry Labonte", "prefix": "TFT", "user": {"location": {"city": "Doraville", "state": "GA", "country": "United States"}}}}]}, "standing": {"placement": 1, "stats": {"score": {"value": 2}}}}], "games": null}, {"id": 93362572, "state": 3, "round": -6, "fullRoundText": "Losers Round 3", "completedAt": 1756690210, "winnerId": 21098320, "slots": [{"id": "93362572-0", "entrant": {"id": 21098320, "name": "KRU | CarbonCopies", "participants": [{"id": 19406775, "gamerTag": "CarbonCopies", "prefix": "KRU", "user": {"location": {"city": "Denver", "state": "CO", "country": "United States"}}, "player": {"id": 521097, "gamerTag": "CarbonCopies", "prefix": "KRU", "user": {"location": {"city": "Denver", "state": "CO", "country": "United States"}}}}]}, "standing": {"placement": 1, "stats": {"score": {"value": 2}}}}, {"id": "93362572-1", "entrant": {"id": 21126806, "name": "ToBeFrank | FF | SLAYlor Moon", "participants": [{"id": 19432500, "gamerTag": "SLAYlor Moon", "prefix": "ToBeFrank | FF", "user": {"location": {"city": "Atlanta", "state": "GA", "country": "United States"}}, "player": {"id": 267007, "gamerTag": "SLAYlor Moon", "prefix": "ToBeFrank | FF", "user": {"location": {"city": "Atlanta", "state": "GA", "country": "United States"}}}}]}, "standing": {"placement": 2, "stats": {"score": {"value": 1}}}}], "games": null}, {"id": 93362573, "state": 3, "round": -6, "fullRoundText": "Losers Round 3", "completedAt": 1756688362, "winnerId": 21078191, "slots": [{"id": "93362573-0", "entrant": {"id": 21067634, "name": "Giizus", "participants": [{"id": 19379149, "gamerTag": "Giizus", "prefix": "", "user": {"location": {"city": "Spring City", "state": null, "country": "United States"}}, "player": {"id": 922274, "gamerTag": "Giizus", "prefix": "", "user": {"location": {"city": "Spring City", "state": null, "country": "United States"}}}}]}, "standing": {"placement": 2, "stats": {"score": {"value": 0}}}}, {"id": "93362573-1", "entrant": {"id": 21078191, "name": "Heart", "participants": [{"id": 19388853, "gamerTag": "Heart", "prefix": "", "user": {"location": {"city": "Atlanta", "state": "GA", "country": "United States"}}, "player": {"id": 4287822, "gamerTag": "Heart", "prefix": "", "user": {"location": {"city": "Atlanta", "state": "GA", "country": "United States"}}}}]}, "standing": {"placement": 1, "stats": {"score": {"value": 2}}}}], "games": null}, {"id": 93362566, "state": 3, "round": -5, "fullRoundText": "Losers Round 2", "completedAt": 1756687201, "winnerId": 21088942, "slots": [{"id": "93362566-0", "entrant": {"id": 21088942, "name": "TFT | RoKu", "participants": [{"id": 19398449, "gamerTag": "RoKu", "prefix": "TFT", "user": {"location": {"city": "Peachtree Corners", "state": "GA", "country": "United States"}}, "player": {"id": 1107285, "gamerTag": "RoKu", "prefix": "TFT", "user": {"location": {"city": "Peachtree Corners", "state": "GA", "country": "United States"}}}}]}, "standing": {"placement": 1, "stats": {"score": {"value": 2}}}}, {"id": "93362566-1", "entrant": {"id": 21126747, "name": "Aaron", "participants": [{"id": 19432451, "gamerTag": "Aaron", "prefix": null, "user": {"location": {"city": "Lexington", "state": null, "country": null}}, "player": {"id": 448165, "gamerTag": "Aaron", "prefix": null, "user": {"location": {"city": "Lexington", "state": null, "country": null}}}}]}, "standing": {"placement": 2, "stats": {"score": {"value": 1}}}}], "games": null}]}}}