{"phase": {"seeds": {"pageInfo": {"totalPages": 1, "total": 4}, "nodes": [{"id": 35785997, "seedNum": 4, "entrant": {"id": 20740230, "name": "ZB | Gerard", "participants": [{"id": 19086246, "gamerTag": "Gerard", "prefix": "ZB", "user": {"location": {"city": "Atlanta", "state": "GA", "country": "United States"}}, "player": {"id": 325542, "gamerTag": "Gerard", "prefix": "ZB", "user": {"location": {"city": "Atlanta", "state": "GA", "country": "United States"}}}}]}}, {"id": 35785622, "seedNum": 3, "entrant": {"id": 20739885, "name": "Station", "participants": [{"id": 19085936, "gamerTag": "Station", "prefix": "", "user": {"location": {"city": null, "state": null, "country": "United States"}}, "player": {"id": 3944248, "gamerTag": "Station", "prefix": "", "user": {"location": {"city": null, "state": null, "country": "United States"}}}}]}}, {"id": 35656484, "seedNum": 1, "entrant": {"id": 20647727, "name": "Skate", "participants": [{"id": 19006288, "gamerTag": "Skate", "prefix": null, "user": {"location": {"city": null, "state": null, "country": "United States"}}, "player": {"id": 4045198, "gamerTag": "Skate", "prefix": null, "user": {"location": {"city": null, "state": null, "country": "United States"}}}}]}}, {"id": 35784047, "seedNum": 2, "entrant": {"id": 20738844, "name": "Thoughtzlol", "participants": [{"id": 19084989, "gamerTag": "Thoughtzlol", "prefix": "", "user": {"location": {"city": "Morrow", "state": "GA", "country": "United States"}}, "player": {"id": 2171922, "gamerTag": "Thoughtzlol", "prefix": "", "user": {"location": {"city": "Morrow", "state": "GA", "country": "United States"}}}}]}}]}}}