{"event": {"sets": {"pageInfo": {"totalPages": 4, "total": 60}, "nodes": [{"id": 91667303, "state": 3, "round": 1, "fullRoundText": "Winners Round 1", "completedAt": 1753057877, "winnerId": 20751805, "slots": [{"id": "91667303-0", "entrant": {"id": 20751805, "name": "Jdaddy", "participants": [{"id": 19097263, "gamerTag": "Jdaddy", "prefix": null, "user": {"location": {"city": "Atlanta", "state": "GA", "country": "United States"}}, "player": {"id": 4384721, "gamerTag": "Jdaddy", "prefix": null, "user": {"location": {"city": "Atlanta", "state": "GA", "country": "United States"}}}}]}, "standing": {"placement": 1, "stats": {"score": {"value": 2}}}}, {"id": "91667303-1", "entrant": {"id": 20751531, "name": "assclapFGC", "participants": [{"id": 19096998, "gamerTag": "assclapFGC", "prefix": "", "user": {"location": {"city": "Scottdale", "state": "GA", "country": "United States"}}, "player": {"id": 3481864, "gamerTag": "assclapFGC", "prefix": "", "user": {"location": {"city": "Scottdale", "state": "GA", "country": "United States"}}}}]}, "standing": {"placement": 2, "stats": {"score": {"value": 0}}}}], "games": null}, {"id": 91667419, "state": 3, "round": 1, "fullRoundText": "Winners Round 1", "completedAt": 1753058841, "winnerId": 20749313, "slots": [{"id": "91667419-0", "entrant": {"id": 20749313, "name": "TFT | ALLEYCAT", "participants": [{"id": 19094879, "gamerTag": "ALLEYCAT", "prefix": "TFT", "user": {"location": {"city": "Atlanta", "state": "GA", "country": "United States"}}, "player": {"id": 1940654, "gamerTag": "ALLEYCAT", "prefix": "TFT", "user": {"location": {"city": "Atlanta", "state": "GA", "country": "United States"}}}}]}, "standing": {"placement": 1, "stats": {"score": {"value": 2}}}}, {"id": "91667419-1", "entrant": {"id": 20751486, "name": "Blaine-O", "participants": [{"id": 19096954, "gamerTag": "Blaine-O", "prefix": null, "user": {"location": {"city": "Atlanta", "state": "GA", "country": "United States"}}, "player": {"id": 2235020, "gamerTag": "Blaine-O", "prefix": null, "user": {"location": {"city": "Atlanta", "state": "GA", "country": "United States"}}}}]}, "standing": {"placement": 2, "stats": {"score": {"value": 0}}}}], "games": null}, {"id": 91667420, "state": 3, "round": 1, "fullRoundText": "Winners Round 1", "completedAt": 1753059118, "winnerId": 20750324, "slots": [{"id": "91667420-0", "entrant": {"id": 20750239, "name": "RM | WFF | Sakruoi", "participants": [{"id": 19095762, "gamerTag": "Sakruoi", "prefix": "RM | WFF", "user": {"location": {"city": "atlanta", "state": "GA", "country": "United States"}}, "player": {"id": 1230555, "gamerTag": "Sakruoi", "prefix": "RM | WFF", "user": {"location": {"city": "atlanta", "state": "GA", "country": "United States"}}}}]}, "standing": {"placement": 2, "stats": {"score": {"value": 1}}}}, {"id": "91667420-1", "entrant": {"id": 20750324, "name": "Jahku$ha", "participants": [{"id": 19095838, "gamerTag": "Jahku$ha", "prefix": "", "user": {"location": {"city": "Atlanta", "state": "GA", "country": "United States"}}, "player": {"id": 4559746, "gamerTag": "Jahku$ha", "prefix": "", "user": {"location": {"city": "Atlanta", "state": "GA", "country": "United States"}}}}]}, "standing": {"placement": 1, "stats": {"score": {"value": 2}}}}], "games": null}, {"id": 91667304, "state": 3, "round": 1, "fullRoundText": "Winners Round 1", "completedAt": 1753057938, "winnerId": 20751567, "slots": [{"id": "91667304-0", "entrant": {"id": 20751567, "name": "TnT | Sid", "participants": [{"id": 19097030, "gamerTag": "Sid", "prefix": "TnT", "user": {"location": {"city": "Powder Springs", "state": "GA", "country": "United States"}}, "player": {"id": 1229067, "gamerTag": "Sid", "prefix": "TnT", "user": {"location": {"city": "Powder Springs", "state": "GA", "country": "United States"}}}}]}, "standing": {"placement": 1, "stats": {"score": {"value": 2}}}}, {"id": "91667304-1", "entrant": {"id": 20750860, "name": "Cash", "participants": [{"id": 19096330, "gamerTag": "Cash", "prefix": "", "user": {"location": {"city": "Atlanta", "state": "GA", "country": "United States"}}, "player": {"id": 4879701, "gamerTag": "Cash", "prefix": "", "user": {"location": {"city": "Atlanta", "state": "GA", "country": "United States"}}}}]}, "standing": {"placement": 2, "stats": {"score": {"value": 0}}}}], "games": null}, {"id": 91667421, "state": 3, "round": 1, "fullRoundText": "Winners Round 1", "completedAt": 1753058333, "winnerId": 20750542, "slots": [{"id": "91667421-0", "entrant": {"id": 20750542, "name": "WFF | Happy", "participants": [{"id": 19096033, "gamerTag": "Happy", "prefix": "WFF", "user": {"location": {"city": "Peachtree CIty", "state": "GA", "country": "United States"}}, "player": {"id": 1383907, "gamerTag": "Happy", "prefix": "WFF", "user": {"location": {"city": "Peachtree CIty", "state": "GA", "country": "United States"}}}}]}, "standing": {"placement": 1, "stats": {"score": {"value": 0}}}}, {"id": "91667421-1", "entrant": {"id": 20751907, "name": "buffer1", "participants": [{"id": 19097364, "gamerTag": "buffer1", "prefix": "", "user": null, "player": {"id": 4042082, "gamerTag": "buffer1", "prefix": "", "user": null}}]}, "standing": {"placement": 2, "stats": {"score": {"value": -1}}}}], "games": null}, {"id": 91667305, "state": 3, "round": 1, "fullRoundText": "Winners Round 1", "completedAt": 1753058105, "winnerId": 20751669, "slots": [{"id": "91667305-0", "entrant": {"id": 20751757, "name": "MTM | Bob Weiner", "participants": [{"id": 19097213, "gamerTag": "Bob Weiner", "prefix": "MTM", "user": {"location": {"city": "Kennesaw", "state": "GA", "country": "United States"}}, "player": {"id": 2142601, "gamerTag": "Bob Weiner", "prefix": "MTM", "user": {"location": {"city": "Kennesaw", "state": "GA", "country": "United States"}}}}]}, "standing": {"placement": 2, "stats": {"score": {"value": -1}}}}, {"id": "91667305-1", "entrant": {"id": 20751669, "name": "Fishboi", "participants": [{"id": 19097132, "gamerTag": "Fishboi", "prefix": null, "user": {"location": {"city": "Peachtree Corners", "state": "GA", "country": "United States"}}, "player": {"id": 1540302, "gamerTag": "Fishboi", "prefix": null, "user": {"location": {"city": "Peachtree Corners", "state": "GA", "country": "United States"}}}}]}, "standing": {"placement": 1, "stats": {"score": {"value": 0}}}}], "games": null}, {"id": 91667422, "state": 3, "round": 1, "fullRoundText": "Winners Round 1", "completedAt": 1753058304, "winnerId": 20751909, "slots": [{"id": "91667422-0", "entrant": {"id": 20751909, "name": "Zarek", "participants": [{"id": 19097367, "gamerTag": "Zarek", "prefix": "", "user": {"location": {"city": "Atlanta", "state": "GA", "country": "United States"}}, "player": {"id": 405682, "gamerTag": "Zarek", "prefix": "", "user": {"location": {"city": "Atlanta", "state": "GA", "country": "United States"}}}}]}, "standing": {"placement": 1, "stats": {"score": {"value": 2}}}}, {"id": "91667422-1", "entrant": {"id": 20751870, "name": "mahdi", "participants": [{"id": 19097329, "gamerTag": "mahdi", "prefix": "", "user": {"location": {"city": "Stone Mountain", "state": "GA", "country": "United States"}}, "player": {"id": 1885270, "gamerTag": "mahdi", "prefix": "", "user": {"location": {"city": "Stone Mountain", "state": "GA", "country": "United States"}}}}]}, "standing": {"placement": 2, "stats": {"score": {"value": 1}}}}], "games": [{"id": 31408984, "orderNum": 1, "winnerId": 20751909, "entrant1Score": null, "entrant2Score": 0, "stage": null, "selections": [{"id": 46238672, "selectionType": "CHARACTER", "selectionValue": 1280, "entrant": {"id": 20751870}, "character": {"id": 1280, "name": "Donkey Kong"}}, {"id": 46238673, "selectionType": "CHARACTER", "selectionValue": 1315, "entrant": {"id": 20751909}, "character": {"id": 1315, "name": "Pac-Man"}}]}, {"id": 31408985, "orderNum": 2, "winnerId": 20751870, "entrant1Score": 0, "entrant2Score": null, "stage": null, "selections": [{"id": 46238674, "selectionType": "CHARACTER", "selectionValue": 1280, "entrant": {"id": 20751870}, "character": {"id": 1280, "name": "Donkey Kong"}}, {"id": 46238675, "selectionType": "CHARACTER", "selectionValue": 1338, "entrant": {"id": 20751909}, "character": {"id": 1338, "name": "Yoshi"}}]}, {"id": 31408986, "orderNum": 3, "winnerId": 20751909, "entrant1Score": null, "entrant2Score": 0, "stage": null, "selections": [{"id": 46238676, "selectionType": "CHARACTER", "selectionValue": 1280, "entrant": {"id": 20751870}, "character": {"id": 1280, "name": "Donkey Kong"}}, {"id": 46238677, "selectionType": "CHARACTER", "selectionValue": 1315, "entrant": {"id": 20751909}, "character": {"id": 1315, "name": "Pac-Man"}}]}]}, {"id": 91667306, "state": 3, "round": 1, "fullRoundText": "Winners Round 1", "completedAt": 1753058135, "winnerId": 20751045, "slots": [{"id": "91667306-0", "entrant": {"id": 20751045, "name": "TnT | Damp\u00e9", "participants": [{"id": 19096524, "gamerTag": "Damp\u00e9", "prefix": "TnT", "user": {"location": {"city": "Atlanta", "state": "GA", "country": "United States"}}, "player": {"id": 1170738, "gamerTag": "Damp\u00e9", "prefix": "TnT", "user": {"location": {"city": "Atlanta", "state": "GA", "country": "United States"}}}}]}, "standing": {"placement": 1, "stats": {"score": {"value": 2}}}}, {"id": "91667306-1", "entrant": {"id": 20751751, "name": "Dazey", "participants": [{"id": 19097209, "gamerTag": "Dazey", "prefix": "", "user": {"location": {"city": "Atlanta", "state": "GA", "country": "United States"}}, "player": {"id": 4879983, "gamerTag": "Dazey", "prefix": "", "user": {"location": {"city": "Atlanta", "state": "GA", "country": "United States"}}}}]}, "standing": {"placement": 2, "stats": {"score": {"value": 0}}}}], "games": null}, {"id": 91667307, "state": 3, "round": 1, "fullRoundText": "Winners Round 1", "completedAt": 1753058945, "winnerId": 20751627, "slots": [{"id": "91667307-0", "entrant": {"id": 20750744, "name": "Mickeydeez", "participants": [{"id": 19096230, "gamerTag": "Mickeydeez", "prefix": "", "user": {"location": {"city": "Atlanta", "state": "GA", "country": "United States"}}, "player": {"id": 4825580, "gamerTag": "Mickeydeez", "prefix": "", "user": {"location": {"city": "Atlanta", "state": "GA", "country": "United States"}}}}]}, "standing": {"placement": 2, "stats": {"score": {"value": 1}}}}, {"id": "91667307-1", "entrant": {"id": 20751627, "name": "Mrbray30", "participants": [{"id": 19097091, "gamerTag": "Mrbray30", "prefix": "", "user": {"location": {"city": "Atlanta", "state": "GA", "country": "United States"}}, "player": {"id": 4664413, "gamerTag": "Mrbray30", "prefix": "", "user": {"location": {"city": "Atlanta", "state": "GA", "country": "United States"}}}}]}, "standing": {"placement": 1, "stats": {"score": {"value": 2}}}}], "games": null}, {"id": 91667423, "state": 3, "round": 1, "fullRoundText": "Winners Round 1", "completedAt": 1753058180, "winnerId": 20751875, "slots": [{"id": "91667423-0", "entrant": {"id": 20751875, "name": "PhaZe", "participants": [{"id": 19097333, "gamerTag": "PhaZe", "prefix": "", "user": {"location": {"city": "Gainesville", "state": "GA", "country": "United States"}}, "player": {"id": 36212, "gamerTag": "PhaZe", "prefix": "", "user": {"location": {"city": "Gainesville", "state": "GA", "country": "United States"}}}}]}, "standing": {"placement": 1, "stats": {"score": {"value": 0}}}}, {"id": "91667423-1", "entrant": {"id": 20751759, "name": "Hollybot", "participants": [{"id": 19097214, "gamerTag": "Hollybot", "prefix": null, "user": {"location": {"city": "Atlanta", "state": "GA", "country": "United States"}}, "player": {"id": 4431125, "gamerTag": "Hollybot", "prefix": null, "user": {"location": {"city": "Atlanta", "state": "GA", "country": "United States"}}}}]}, "standing": {"placement": 2, "stats": {"score": {"value": -1}}}}], "games": null}, {"id": 91667424, "state": 3, "round": 1, "fullRoundText": "Winners Round 1", "completedAt": 1753058177, "winnerId": 20751713, "slots": [{"id": "91667424-0", "entrant": {"id": 20751713, "name": "TFT | Juug$tarr", "participants": [{"id": 19097176, "gamerTag": "Juug$tarr", "prefix": "TFT", "user": {"location": {"city": "Atlanta", "state": "GA", "country": "United States"}}, "player": {"id": 3621035, "gamerTag": "Juug$tarr", "prefix": "TFT", "user": {"location": {"city": "Atlanta", "state": "GA", "country": "United States"}}}}]}, "standing": {"placement": 1, "stats": {"score": {"value": 2}}}}, {"id": "91667424-1", "entrant": {"id": 20751799, "name": "Toasty", "participants": [{"id": 19097256, "gamerTag": "Toasty", "prefix": "", "user": {"location": {"city": "Atlanta", "state": "GA", "country": "United States"}}, "player": {"id": 1632443, "gamerTag": "Toasty", "prefix": "", "user": {"location": {"city": "Atlanta", "state": "GA", "country": "United States"}}}}]}, "standing": {"placement": 2, "stats": {"score": {"value": 0}}}}], "games": null}, {"id": 91667676, "state": 3, "round": -4, "fullRoundText": "Losers Quarter-Final", "completedAt": 1753066405, "winnerId": 20751713, "slots": [{"id": "91667676-0", "entrant": {"id": 20751713, "name": "TFT | Juug$tarr", "participants": [{"id": 19097176, "gamerTag": "Juug$tarr", "prefix": "TFT", "user": {"location": {"city": "Atlanta", "state": "GA", "country": "United States"}}, "player": {"id": 3621035, "gamerTag": "Juug$tarr", "prefix": "TFT", "user": {"location": {"city": "Atlanta", "state": "GA", "country": "United States"}}}}]}, "standing": {"placement": 1, "stats": {"score": {"value": 2}}}}, {"id": "91667676-1", "entrant": {"id": 20751045, "name": "TnT | Damp\u00e9", "participants": [{"id": 19096524, "gamerTag": "Damp\u00e9", "prefix": "TnT", "user": {"location": {"city": "Atlanta", "state": "GA", "country": "United States"}}, "player": {"id": 1170738, "gamerTag": "Damp\u00e9", "prefix": "TnT", "user": {"location": {"city": "Atlanta", "state": "GA", "country": "United States"}}}}]}, "standing": {"placement": 2, "stats": {"score": {"value": 1}}}}], "games": [{"id": 31411361, "orderNum": 1, "winnerId": 20751045, "entrant1Score": 0, "entrant2Score": null, "stage": null, "selections": [{"id": 46243147, "selectionType": "CHARACTER", "selectionValue": 1286, "entrant": {"id": 20751045}, "character": {"id": 1286, "name": "Fox"}}, {"id": 46243148, "selectionType": "CHARACTER", "selectionValue": 1406, "entrant": {"id": 20751713}, "character": {"id": 1406, "name": "Incineroar"}}]}, {"id": 31411362, "orderNum": 2, "winnerId": 20751713, "entrant1Score": null, "entrant2Score": 0, "stage": null, "selections": [{"id": 46243149, "selectionType": "CHARACTER", "selectionValue": 1286, "entrant": {"id": 20751045}, "character": {"id": 1286, "name": "Fox"}}, {"id": 46243150, "selectionType": "CHARACTER", "selectionValue": 1406, "entrant": {"id": 20751713}, "character": {"id": 1406, "name": "Incineroar"}}]}, {"id": 31411363, "orderNum": 3, "winnerId": 20751713, "entrant1Score": null, "entrant2Score": 0, "stage": null, "selections": [{"id": 46243151, "selectionType": "CHARACTER", "selectionValue": 1286, "entrant": {"id": 20751045}, "character": {"id": 1286, "name": "Fox"}}, {"id": 46243152, "selectionType": "CHARACTER", "selectionValue": 1406, "entrant": {"id": 20751713}, "character": {"id": 1406, "name": "Incineroar"}}]}]}, {"id": 91667677, "state": 3, "round": -4, "fullRoundText": "Losers Quarter-Final", "completedAt": 1753066870, "winnerId": 20750542, "slots": [{"id": "91667677-0", "entrant": {"id": 20751567, "name": "TnT | Sid", "participants": [{"id": 19097030, "gamerTag": "Sid", "prefix": "TnT", "user": {"location": {"city": "Powder Springs", "state": "GA", "country": "United States"}}, "player": {"id": 1229067, "gamerTag": "Sid", "prefix": "TnT", "user": {"location": {"city": "Powder Springs", "state": "GA", "country": "United States"}}}}]}, "standing": {"placement": 2, "stats": {"score": {"value": 0}}}}, {"id": "91667677-1", "entrant": {"id": 20750542, "name": "WFF | Happy", "participants": [{"id": 19096033, "gamerTag": "Happy", "prefix": "WFF", "user": {"location": {"city": "Peachtree CIty", "state": "GA", "country": "United States"}}, "player": {"id": 1383907, "gamerTag": "Happy", "prefix": "WFF", "user": {"location": {"city": "Peachtree CIty", "state": "GA", "country": "United States"}}}}]}, "standing": {"placement": 1, "stats": {"score": {"value": 2}}}}], "games": null}, {"id": 91667674, "state": 3, "round": -3, "fullRoundText": "Losers Round 1", "completedAt": 1753064808, "winnerId": 20751045, "slots": [{"id": "91667674-0", "entrant": {"id": 20687231, "name": "TFT | Frank", "participants": [{"id": 19040321, "gamerTag": "Frank", "prefix": "TFT", "user": {"location": {"city": "Doraville", "state": "GA", "country": "United States"}}, "player": {"id": 1227401, "gamerTag": "Terry Labonte", "prefix": "TFT", "user": {"location": {"city": "Doraville", "state": "GA", "country": "United States"}}}}]}, "standing": {"placement": 2, "stats": {"score": {"value": 1}}}}, {"id": "91667674-1", "entrant": {"id": 20751045, "name": "TnT | Damp\u00e9", "participants": [{"id": 19096524, "gamerTag": "Damp\u00e9", "prefix": "TnT", "user": {"location": {"city": "Atlanta", "state": "GA", "country": "United States"}}, "player": {"id": 1170738, "gamerTag": "Damp\u00e9", "prefix": "TnT", "user": {"location": {"city": "Atlanta", "state": "GA", "country": "United States"}}}}]}, "standing": {"placement": 1, "stats": {"score": {"value": 2}}}}], "games": [{"id": 31411087, "orderNum": 1, "winnerId": 20751045, "entrant1Score": 0, "entrant2Score": null, "stage": null, "selections": [{"id": 46242693, "selectionType": "CHARACTER", "selectionValue": 1274, "entrant": {"id": 20687231}, "character": {"id": 1274, "name": "Captain Falcon"}}, {"id": 46242694, "selectionType": "CHARACTER", "selectionValue": 1286, "entrant": {"id": 20751045}, "character": {"id": 1286, "name": "Fox"}}]}, {"id": 31411088, "orderNum": 2, "winnerId": 20687231, "entrant1Score": null, "entrant2Score": 0, "stage": null, "selections": [{"id": 46242695, "selectionType": "CHARACTER", "selectionValue": 1280, "entrant": {"id": 20687231}, "character": {"id": 1280, "name": "Donkey Kong"}}, {"id": 46242696, "selectionType": "CHARACTER", "selectionValue": 1286, "entrant": {"id": 20751045}, "character": {"id": 1286, "name": "Fox"}}]}, {"id": 31411089, "orderNum": 3, "winnerId": 20751045, "entrant1Score": 0, "entrant2Score": 0, "stage": null, "selections": [{"id": 46242697, "selectionType": "CHARACTER", "selectionValue": 1280, "entrant": {"id": 20687231}, "character": {"id": 1280, "name": "Donkey Kong"}}, {"id": 46242698, "selectionType": "CHARACTER", "selectionValue": 1286, "entrant": {"id": 20751045}, "character": {"id": 1286, "name": "Fox"}}]}]}, {"id": 91667675, "state": 3, "round": -3, "fullRoundText": "Losers Round 1", "completedAt": 1753064832, "winnerId": 20750542, "slots": [{"id": "91667675-0", "entrant": {"id": 20751841, "name": "GUMP2 | RoKu", "participants": [{"id": 19097300, "gamerTag": "RoKu", "prefix": "GUMP2", "user": {"location": {"city": "Peachtree Corners", "state": "GA", "country": "United States"}}, "player": {"id": 1107285, "gamerTag": "RoKu", "prefix": "TFT", "user": {"location": {"city": "Peachtree Corners", "state": "GA", "country": "United States"}}}}]}, "standing": {"placement": 2, "stats": {"score": {"value": 1}}}}, {"id": "91667675-1", "entrant": {"id": 20750542, "name": "WFF | Happy", "participants": [{"id": 19096033, "gamerTag": "Happy", "prefix": "WFF", "user": {"location": {"city": "Peachtree CIty", "state": "GA", "country": "United States"}}, "player": {"id": 1383907, "gamerTag": "Happy", "prefix": "WFF", "user": {"location": {"city": "Peachtree CIty", "state": "GA", "country": "United States"}}}}]}, "standing": {"placement": 1, "stats": {"score": {"value": 2}}}}], "games": null}]}}}