{"event": {"sets": {"pageInfo": {"totalPages": 3, "total": 36}, "nodes": [{"id": 95041951, "state": 3, "round": -4, "fullRoundText": "Losers Round 1", "completedAt": 1760488534, "winnerId": 21555604, "slots": [{"id": "95041951-0", "entrant": {"id": 21555604, "name": "Jabberwock", "participants": [{"id": 19807716, "gamerTag": "Jabberwock", "prefix": null, "user": {"location": {"city": "Jasper", "state": "GA", "country": "United States"}}, "player": {"id": 4954334, "gamerTag": "Jabberwock", "prefix": null, "user": {"location": {"city": "Jasper", "state": "GA", "country": "United States"}}}}]}, "standing": {"placement": 1, "stats": {"score": {"value": 3}}}}, {"id": "95041951-1", "entrant": {"id": 21551915, "name": "Cupp!", "participants": [{"id": 19804295, "gamerTag": "Cupp!", "prefix": "", "user": {"location": {"city": "Atlanta", "state": "GA", "country": "United States"}}, "player": {"id": 3779462, "gamerTag": "Cupp!", "prefix": "", "user": {"location": {"city": "Atlanta", "state": "GA", "country": "United States"}}}}]}, "standing": {"placement": 2, "stats": {"score": {"value": 2}}}}], "games": null}, {"id": 95041955, "state": 3, "round": -4, "fullRoundText": "Losers Round 1", "completedAt": 1760488217, "winnerId": 21556747, "slots": [{"id": "95041955-0", "entrant": {"id": 21555818, "name": "bsharkz", "participants": [{"id": 19807912, "gamerTag": "bsharkz", "prefix": "", "user": {"location": {"city": "Atlanta", "state": "FL", "country": "United States"}}, "player": {"id": 4297884, "gamerTag": "bsharkz", "prefix": "", "user": {"location": {"city": "Atlanta", "state": "FL", "country": "United States"}}}}]}, "standing": {"placement": 2, "stats": {"score": {"value": 0}}}}, {"id": "95041955-1", "entrant": {"id": 21556747, "name": "BLEST", "participants": [{"id": 19808817, "gamerTag": "BLEST", "prefix": null, "user": {"location": {"city": "Lilburn", "state": "GA", "country": "United States"}}, "player": {"id": 3440897, "gamerTag": "BLEST", "prefix": null, "user": {"location": {"city": "Lilburn", "state": "GA", "country": "United States"}}}}]}, "standing": {"placement": 1, "stats": {"score": {"value": 3}}}}], "games": null}, {"id": 95041957, "state": 3, "round": -4, "fullRoundText": "Losers Round 1", "completedAt": 1760488611, "winnerId": 21556722, "slots": [{"id": "95041957-0", "entrant": {"id": 21556722, "name": "EEK!", "participants": [{"id": 19808799, "gamerTag": "EEK!", "prefix": null, "user": {"location": {"city": "Atlanta", "state": "GA", "country": "United States"}}, "player": {"id": 148794, "gamerTag": "EEK!", "prefix": null, "user": {"location": {"city": "Atlanta", "state": "GA", "country": "United States"}}}}]}, "standing": {"placement": 1, "stats": {"score": {"value": 3}}}}, {"id": "95041957-1", "entrant": {"id": 21553210, "name": "Pazure", "participants": [{"id": 19805437, "gamerTag": "Pazure", "prefix": null, "user": {"location": {"city": null, "state": null, "country": "United States"}}, "player": {"id": 72218, "gamerTag": "Pazure", "prefix": null, "user": {"location": {"city": null, "state": null, "country": "United States"}}}}]}, "standing": {"placement": 2, "stats": {"score": {"value": 0}}}}], "games": null}, {"id": 95041879, "state": 3, "round": 1, "fullRoundText": "Winners Round 1", "completedAt": 1760487451, "winnerId": 21542582, "slots": [{"id": "95041879-0", "entrant": {"id": 21551915, "name": "Cupp!", "participants": [{"id": 19804295, "gamerTag": "Cupp!", "prefix": "", "user": {"location": {"city": "Atlanta", "state": "GA", "country": "United States"}}, "player": {"id": 3779462, "gamerTag": "Cupp!", "prefix": "", "user": {"location": {"city": "Atlanta", "state": "GA", "country": "United States"}}}}]}, "standing": {"placement": 2, "stats": {"score": {"value": 0}}}}, {"id": "95041879-1", "entrant": {"id": 21542582, "name": "Necro17", "participants": [{"id": 19795460, "gamerTag": "Necro17", "prefix": null, "user": {"location": {"city": "Alpharetta", "state": "GA", "country": "United States"}}, "player": {"id": 4983658, "gamerTag": "Necro17", "prefix": null, "user": {"location": {"city": "Alpharetta", "state": "GA", "country": "United States"}}}}]}, "standing": {"placement": 1, "stats": {"score": {"value": 3}}}}], "games": null}, {"id": 95041887, "state": 3, "round": 1, "fullRoundText": "Winners Round 1", "completedAt": 1760487546, "winnerId": 21556667, "slots": [{"id": "95041887-0", "entrant": {"id": 21556747, "name": "BLEST", "participants": [{"id": 19808817, "gamerTag": "BLEST", "prefix": null, "user": {"location": {"city": "Lilburn", "state": "GA", "country": "United States"}}, "player": {"id": 3440897, "gamerTag": "BLEST", "prefix": null, "user": {"location": {"city": "Lilburn", "state": "GA", "country": "United States"}}}}]}, "standing": {"placement": 2, "stats": {"score": {"value": 1}}}}, {"id": "95041887-1", "entrant": {"id": 21556667, "name": "Xangief", "participants": [{"id": 19808743, "gamerTag": "Xangief", "prefix": null, "user": {"location": {"city": "Atlanta", "state": "GA", "country": "United States"}}, "player": {"id": 135082, "gamerTag": "Xangief", "prefix": null, "user": {"location": {"city": "Atlanta", "state": "GA", "country": "United States"}}}}]}, "standing": {"placement": 1, "stats": {"score": {"value": 3}}}}], "games": null}, {"id": 95041891, "state": 3, "round": 1, "fullRoundText": "Winners Round 1", "completedAt": 1760487632, "winnerId": 21556292, "slots": [{"id": "95041891-0", "entrant": {"id": 21553210, "name": "Pazure", "participants": [{"id": 19805437, "gamerTag": "Pazure", "prefix": null, "user": {"location": {"city": null, "state": null, "country": "United States"}}, "player": {"id": 72218, "gamerTag": "Pazure", "prefix": null, "user": {"location": {"city": null, "state": null, "country": "United States"}}}}]}, "standing": {"placement": 2, "stats": {"score": {"value": 2}}}}, {"id": "95041891-1", "entrant": {"id": 21556292, "name": "Gelsk", "participants": [{"id": 19808363, "gamerTag": "Gelsk", "prefix": null, "user": {"location": {"city": "Alameda", "state": "CA", "country": "United States"}}, "player": {"id": 1853371, "gamerTag": "Gelsk", "prefix": null, "user": {"location": {"city": "Alameda", "state": "CA", "country": "United States"}}}}]}, "standing": {"placement": 1, "stats": {"score": {"value": 3}}}}], "games": null}]}}}