{"event": {"sets": {"pageInfo": {"totalPages": 4, "total": 59}, "nodes": [{"id": 92211906, "state": 3, "round": 2, "fullRoundText": "Winners Quarter-Final", "completedAt": 1754157150, "winnerId": 20500171, "slots": [{"id": "92211906-0", "entrant": {"id": 20500171, "name": "Teri", "participants": [{"id": 18877766, "gamerTag": "Teri", "prefix": "", "user": {"location": {"city": "Spartanburg", "state": "SC", "country": "United States"}}, "player": {"id": 63209, "gamerTag": "Teri", "prefix": "", "user": {"location": {"city": "Spartanburg", "state": "SC", "country": "United States"}}}}]}, "standing": {"placement": 1, "stats": {"score": {"value": 2}}}}, {"id": "92211906-1", "entrant": {"id": 20618956, "name": "P2W | bacon", "participants": [{"id": 18981400, "gamerTag": "bacon", "prefix": "P2W", "user": {"location": {"city": "Atlanta", "state": "GA", "country": "United States"}}, "player": {"id": 1686096, "gamerTag": "bacon", "prefix": "P2W", "user": {"location": {"city": "Atlanta", "state": "GA", "country": "United States"}}}}]}, "standing": {"placement": 2, "stats": {"score": {"value": 0}}}}], "games": [{"id": 31674853, "orderNum": 1, "winnerId": 20500171, "entrant1Score": null, "entrant2Score": 0, "stage": null, "selections": [{"id": 46637924, "selectionType": "CHARACTER", "selectionValue": 2619, "entrant": {"id": 20500171}, "character": {"id": 2619, "name": "Olympia"}}, {"id": 46637925, "selectionType": "CHARACTER", "selectionValue": 2597, "entrant": {"id": 20618956}, "character": {"id": 2597, "name": "Orcane"}}]}, {"id": 31674854, "orderNum": 2, "winnerId": 20500171, "entrant1Score": null, "entrant2Score": null, "stage": null, "selections": [{"id": 46637926, "selectionType": "CHARACTER", "selectionValue": 2619, "entrant": {"id": 20500171}, "character": {"id": 2619, "name": "Olympia"}}, {"id": 46637927, "selectionType": "CHARACTER", "selectionValue": 2597, "entrant": {"id": 20618956}, "character": {"id": 2597, "name": "Orcane"}}]}]}, {"id": 92216699, "state": 3, "round": 2, "fullRoundText": "Winners Quarter-Final", "completedAt": 1754160414, "winnerId": 20604545, "slots": [{"id": "92216699-0", "entrant": {"id": 20604545, "name": "PiggyG", "participants": [{"id": 18968673, "gamerTag": "PiggyG", "prefix": "", "user": {"location": {"city": null, "state": null, "country": null}}, "player": {"id": 1453564, "gamerTag": "PiggyG", "prefix": "", "user": {"location": {"city": null, "state": null, "country": null}}}}]}, "standing": {"placement": 1, "stats": {"score": {"value": 2}}}}, {"id": "92216699-1", "entrant": {"id": 20495010, "name": "Alex828", "participants": [{"id": 18873284, "gamerTag": "Alex828", "prefix": "", "user": {"location": {"city": "Valdosta", "state": "GA", "country": "United States"}}, "player": {"id": 1630146, "gamerTag": "Alex828", "prefix": "", "user": {"location": {"city": "Valdosta", "state": "GA", "country": "United States"}}}}]}, "standing": {"placement": 2, "stats": {"score": {"value": 0}}}}], "games": [{"id": 31675809, "orderNum": 1, "winnerId": 20604545, "entrant1Score": null, "entrant2Score": null, "stage": null, "selections": [{"id": 46639267, "selectionType": "CHARACTER", "selectionValue": 2504, "entrant": {"id": 20495010}, "character": {"id": 2504, "name": "Kragg"}}, {"id": 46639268, "selectionType": "CHARACTER", "selectionValue": 2503, "entrant": {"id": 20604545}, "character": {"id": 2503, "name": "Clairen"}}]}, {"id": 31675810, "orderNum": 2, "winnerId": 20604545, "entrant1Score": null, "entrant2Score": null, "stage": null, "selections": [{"id": 46639269, "selectionType": "CHARACTER", "selectionValue": 2504, "entrant": {"id": 20495010}, "character": {"id": 2504, "name": "Kragg"}}, {"id": 46639270, "selectionType": "CHARACTER", "selectionValue": 2503, "entrant": {"id": 20604545}, "character": {"id": 2503, "name": "Clairen"}}]}]}, {"id": 92211907, "state": 3, "round": 2, "fullRoundText": "Winners Quarter-Final", "completedAt": 1754157223, "winnerId": 20604194, "slots": [{"id": "92211907-0", "entrant": {"id": 20493557, "name": "TEASER FANCLUB | #1 TEASER FAN FOR LIFE", "participants": [{"id": 18871944, "gamerTag": "#1 TEASER FAN FOR LIFE", "prefix": "TEASER FANCLUB", "user": {"location": {"city": "Johns Creek", "state": "GA", "country": "United States"}}, "player": {"id": 181040, "gamerTag": "#1 TEASER FAN FOR LIFE", "prefix": "TEASER FANCLUB", "user": {"location": {"city": "Johns Creek", "state": "GA", "country": "United States"}}}}]}, "standing": {"placement": 2, "stats": {"score": {"value": 1}}}}, {"id": "92211907-1", "entrant": {"id": 20604194, "name": "LITE | Sylver", "participants": [{"id": 18968365, "gamerTag": "Sylver", "prefix": "LITE", "user": {"location": {"city": null, "state": "GA", "country": "United States"}}, "player": {"id": 1410499, "gamerTag": "Sylver", "prefix": "LITE", "user": {"location": {"city": null, "state": "GA", "country": "United States"}}}}]}, "standing": {"placement": 1, "stats": {"score": {"value": 2}}}}], "games": null}, {"id": 92216700, "state": 3, "round": 2, "fullRoundText": "Winners Quarter-Final", "completedAt": 1754160551, "winnerId": 20490280, "slots": [{"id": "92216700-0", "entrant": {"id": 20490280, "name": "Taylor", "participants": [{"id": 18869026, "gamerTag": "Taylor", "prefix": null, "user": {"location": {"city": "", "state": "GA", "country": "United States"}}, "player": {"id": 926445, "gamerTag": "Taylor", "prefix": null, "user": {"location": {"city": "", "state": "GA", "country": "United States"}}}}]}, "standing": {"placement": 1, "stats": {"score": {"value": 2}}}}, {"id": "92216700-1", "entrant": {"id": 20490277, "name": "SNRS | SmokePudding", "participants": [{"id": 18869015, "gamerTag": "SmokePudding", "prefix": "SNRS", "user": {"location": {"city": "Riverdale", "state": "GA", "country": "United States"}}, "player": {"id": 281776, "gamerTag": "SmokePudding", "prefix": "", "user": {"location": {"city": "Riverdale", "state": "GA", "country": "United States"}}}}]}, "standing": {"placement": 2, "stats": {"score": {"value": 0}}}}], "games": null}, {"id": 92211908, "state": 3, "round": 2, "fullRoundText": "Winners Quarter-Final", "completedAt": 1754157337, "winnerId": 20501478, "slots": [{"id": "92211908-0", "entrant": {"id": 20501478, "name": "Adam", "participants": [{"id": 18878962, "gamerTag": "Adam", "prefix": "", "user": {"location": {"city": "Decatur", "state": "GA", "country": "United States"}}, "player": {"id": 1521410, "gamerTag": "Adam", "prefix": "", "user": {"location": {"city": "Decatur", "state": "GA", "country": "United States"}}}}]}, "standing": {"placement": 1, "stats": {"score": {"value": 2}}}}, {"id": "92211908-1", "entrant": {"id": 20530446, "name": "CR2 | baronkorvo", "participants": [{"id": 18904700, "gamerTag": "baronkorvo", "prefix": "CR2", "user": {"location": {"city": "Bethlehem", "state": "GA", "country": "United States"}}, "player": {"id": 1186009, "gamerTag": "baronkorvo", "prefix": "CR2", "user": {"location": {"city": "Bethlehem", "state": "GA", "country": "United States"}}}}]}, "standing": {"placement": 2, "stats": {"score": {"value": 0}}}}], "games": null}, {"id": 92216701, "state": 3, "round": 2, "fullRoundText": "Winners Quarter-Final", "completedAt": 1754161275, "winnerId": 20492325, "slots": [{"id": "92216701-0", "entrant": {"id": 20492325, "name": "Jmac", "participants": [{"id": 18870846, "gamerTag": "Jmac", "prefix": "", "user": {"location": {"city": null, "state": null, "country": "United States"}}, "player": {"id": 947560, "gamerTag": "Jmac", "prefix": "", "user": {"location": {"city": null, "state": null, "country": "United States"}}}}]}, "standing": {"placement": 1, "stats": {"score": {"value": 2}}}}, {"id": "92216701-1", "entrant": {"id": 20490143, "name": "TRANS RIGHTS | TRANS RIGHTS", "participants": [{"id": 18868920, "gamerTag": "TRANS RIGHTS", "prefix": "TRANS RIGHTS", "user": {"location": {"city": null, "state": null, "country": "United States"}}, "player": {"id": 1407945, "gamerTag": "Whistle", "prefix": "TRANS RIGHTS", "user": {"location": {"city": null, "state": null, "country": "United States"}}}}]}, "standing": {"placement": 2, "stats": {"score": {"value": 0}}}}], "games": null}, {"id": 92211909, "state": 3, "round": 2, "fullRoundText": "Winners Quarter-Final", "completedAt": 1754157279, "winnerId": 20602511, "slots": [{"id": "92211909-0", "entrant": {"id": 20602511, "name": "Dingo", "participants": [{"id": 18967220, "gamerTag": "Dingo", "prefix": null, "user": {"location": {"city": "Augusta", "state": "GA", "country": "United States"}}, "player": {"id": 35890, "gamerTag": "Dingo", "prefix": null, "user": {"location": {"city": "Augusta", "state": "GA", "country": "United States"}}}}]}, "standing": {"placement": 1, "stats": {"score": {"value": 2}}}}, {"id": "92211909-1", "entrant": {"id": 20564784, "name": "Flux", "participants": [{"id": 18934092, "gamerTag": "Flux", "prefix": "", "user": {"location": {"city": "Atlanta", "state": "GA", "country": "United States"}}, "player": {"id": 4392219, "gamerTag": "Flux", "prefix": "", "user": {"location": {"city": "Atlanta", "state": "GA", "country": "United States"}}}}]}, "standing": {"placement": 2, "stats": {"score": {"value": 0}}}}], "games": null}, {"id": 92216702, "state": 3, "round": 2, "fullRoundText": "Winners Quarter-Final", "completedAt": 1754161141, "winnerId": 20603930, "slots": [{"id": "92216702-0", "entrant": {"id": 20603930, "name": "SRN | Games & Flames", "participants": [{"id": 18968147, "gamerTag": "Games & Flames", "prefix": "SRN", "user": {"location": {"city": "Jonesboro", "state": null, "country": "United States"}}, "player": {"id": 1768109, "gamerTag": "Games & Flames", "prefix": "SRN", "user": {"location": {"city": "Jonesboro", "state": null, "country": "United States"}}}}]}, "standing": {"placement": 1, "stats": {"score": {"value": 2}}}}, {"id": "92216702-1", "entrant": {"id": 20602640, "name": "Shenron", "participants": [{"id": 18967340, "gamerTag": "Shenron", "prefix": null, "user": {"location": {"city": "roswell", "state": "GA", "country": "United States"}}, "player": {"id": 36501, "gamerTag": "Shenron", "prefix": "PH", "user": {"location": {"city": "roswell", "state": "GA", "country": "United States"}}}}]}, "standing": {"placement": 2, "stats": {"score": {"value": 0}}}}], "games": null}, {"id": 92219783, "state": 3, "round": -6, "fullRoundText": "Losers Final", "completedAt": 1754168068, "winnerId": 20500171, "slots": [{"id": "92219783-0", "entrant": {"id": 20501478, "name": "Adam", "participants": [{"id": 18878962, "gamerTag": "Adam", "prefix": "", "user": {"location": {"city": "Decatur", "state": "GA", "country": "United States"}}, "player": {"id": 1521410, "gamerTag": "Adam", "prefix": "", "user": {"location": {"city": "Decatur", "state": "GA", "country": "United States"}}}}]}, "standing": {"placement": 2, "stats": {"score": {"value": 2}}}}, {"id": "92219783-1", "entrant": {"id": 20500171, "name": "Teri", "participants": [{"id": 18877766, "gamerTag": "Teri", "prefix": "", "user": {"location": {"city": "Spartanburg", "state": "SC", "country": "United States"}}, "player": {"id": 63209, "gamerTag": "Teri", "prefix": "", "user": {"location": {"city": "Spartanburg", "state": "SC", "country": "United States"}}}}]}, "standing": {"placement": 1, "stats": {"score": {"value": 3}}}}], "games": [{"id": 31679169, "orderNum": 1, "winnerId": 20501478, "entrant1Score": null, "entrant2Score": 0, "stage": null, "selections": null}, {"id": 31679170, "orderNum": 2, "winnerId": 20501478, "entrant1Score": null, "entrant2Score": 0, "stage": null, "selections": null}, {"id": 31679329, "orderNum": 3, "winnerId": 20500171, "entrant1Score": 0, "entrant2Score": null, "stage": null, "selections": null}, {"id": 31679432, "orderNum": 4, "winnerId": 20500171, "entrant1Score": 0, "entrant2Score": null, "stage": null, "selections": null}, {"id": 31679601, "orderNum": 5, "winnerId": 20500171, "entrant1Score": null, "entrant2Score": null, "stage": null, "selections": null}]}, {"id": 92211935, "state": 3, "round": -4, "fullRoundText": "Losers Round 2", "completedAt": 1754157982, "winnerId": 20564784, "slots": [{"id": "92211935-0", "entrant": {"id": 20564784, "name": "Flux", "participants": [{"id": 18934092, "gamerTag": "Flux", "prefix": "", "user": {"location": {"city": "Atlanta", "state": "GA", "country": "United States"}}, "player": {"id": 4392219, "gamerTag": "Flux", "prefix": "", "user": {"location": {"city": "Atlanta", "state": "GA", "country": "United States"}}}}]}, "standing": {"placement": 1, "stats": {"score": {"value": 2}}}}, {"id": "92211935-1", "entrant": {"id": 20516681, "name": "ZB | wolfy", "participants": [{"id": 18892395, "gamerTag": "wolfy", "prefix": "ZB", "user": {"location": {"city": "Tyrone", "state": "GA", "country": "United States"}}, "player": {"id": 295981, "gamerTag": "wolfy", "prefix": "ZB", "user": {"location": {"city": "Tyrone", "state": "GA", "country": "United States"}}}}]}, "standing": {"placement": 2, "stats": {"score": {"value": 0}}}}], "games": null}, {"id": 92216728, "state": 3, "round": -4, "fullRoundText": "Losers Round 2", "completedAt": 1754161758, "winnerId": 20602640, "slots": [{"id": "92216728-0", "entrant": {"id": 20602640, "name": "Shenron", "participants": [{"id": 18967340, "gamerTag": "Shenron", "prefix": null, "user": {"location": {"city": "roswell", "state": "GA", "country": "United States"}}, "player": {"id": 36501, "gamerTag": "Shenron", "prefix": "PH", "user": {"location": {"city": "roswell", "state": "GA", "country": "United States"}}}}]}, "standing": {"placement": 1, "stats": {"score": {"value": 2}}}}, {"id": "92216728-1", "entrant": {"id": 20490014, "name": "ZB | Sanaito", "participants": [{"id": 18868823, "gamerTag": "Sanaito", "prefix": "ZB", "user": {"location": {"city": "Fayetteville", "state": "GA", "country": "United States"}}, "player": {"id": 12761, "gamerTag": "Sanaito", "prefix": "ZB", "user": {"location": {"city": "Fayetteville", "state": "GA", "country": "United States"}}}}]}, "standing": {"placement": 2, "stats": {"score": {"value": 0}}}}], "games": null}, {"id": 92216729, "state": 3, "round": -4, "fullRoundText": "Losers Round 2", "completedAt": 1754162002, "winnerId": 20803404, "slots": [{"id": "92216729-0", "entrant": {"id": 20490143, "name": "TRANS RIGHTS | TRANS RIGHTS", "participants": [{"id": 18868920, "gamerTag": "TRANS RIGHTS", "prefix": "TRANS RIGHTS", "user": {"location": {"city": null, "state": null, "country": "United States"}}, "player": {"id": 1407945, "gamerTag": "Whistle", "prefix": "TRANS RIGHTS", "user": {"location": {"city": null, "state": null, "country": "United States"}}}}]}, "standing": {"placement": 2, "stats": {"score": {"value": 1}}}}, {"id": "92216729-1", "entrant": {"id": 20803404, "name": "nokotanfan23", "participants": [{"id": 19145513, "gamerTag": "nokotanfan23", "prefix": "", "user": {"location": {"city": "Loganville", "state": "GA", "country": "United States"}}, "player": {"id": 1039731, "gamerTag": "nokotanfan23", "prefix": "", "user": {"location": {"city": "Loganville", "state": "GA", "country": "United States"}}}}]}, "standing": {"placement": 1, "stats": {"score": {"value": 2}}}}], "games": [{"id": 31676417, "orderNum": 1, "winnerId": 20490143, "entrant1Score": null, "entrant2Score": null, "stage": null, "selections": [{"id": 46640290, "selectionType": "CHARACTER", "selectionValue": 2619, "entrant": {"id": 20490143}, "character": {"id": 2619, "name": "Olympia"}}, {"id": 46640291, "selectionType": "CHARACTER", "selectionValue": 2709, "entrant": {"id": 20803404}, "character": {"id": 2709, "name": "Absa"}}]}, {"id": 31676418, "orderNum": 2, "winnerId": 20803404, "entrant1Score": null, "entrant2Score": null, "stage": null, "selections": [{"id": 46640292, "selectionType": "CHARACTER", "selectionValue": 2619, "entrant": {"id": 20490143}, "character": {"id": 2619, "name": "Olympia"}}, {"id": 46640293, "selectionType": "CHARACTER", "selectionValue": 2709, "entrant": {"id": 20803404}, "character": {"id": 2709, "name": "Absa"}}]}, {"id": 31676419, "orderNum": 3, "winnerId": 20803404, "entrant1Score": null, "entrant2Score": null, "stage": null, "selections": [{"id": 46640294, "selectionType": "CHARACTER", "selectionValue": 2619, "entrant": {"id": 20490143}, "character": {"id": 2619, "name": "Olympia"}}, {"id": 46640295, "selectionType": "CHARACTER", "selectionValue": 2709, "entrant": {"id": 20803404}, "character": {"id": 2709, "name": "Absa"}}]}]}, {"id": 92211936, "state": 3, "round": -4, "fullRoundText": "Losers Round 2", "completedAt": 1754157970, "winnerId": 20530446, "slots": [{"id": "92211936-0", "entrant": {"id": 20530446, "name": "CR2 | baronkorvo", "participants": [{"id": 18904700, "gamerTag": "baronkorvo", "prefix": "CR2", "user": {"location": {"city": "Bethlehem", "state": "GA", "country": "United States"}}, "player": {"id": 1186009, "gamerTag": "baronkorvo", "prefix": "CR2", "user": {"location": {"city": "Bethlehem", "state": "GA", "country": "United States"}}}}]}, "standing": {"placement": 1, "stats": {"score": {"value": 2}}}}, {"id": "92211936-1", "entrant": {"id": 20490250, "name": "DEMIURGE", "participants": [{"id": 18869005, "gamerTag": "DEMIURGE", "prefix": "", "user": {"location": {"city": "Rome", "state": null, "country": null}}, "player": {"id": 1227450, "gamerTag": "DEMIURGE", "prefix": "", "user": {"location": {"city": "Rome", "state": null, "country": null}}}}]}, "standing": {"placement": 2, "stats": {"score": {"value": 0}}}}], "games": null}, {"id": 92211937, "state": 3, "round": -4, "fullRoundText": "Losers Round 2", "completedAt": 1754158152, "winnerId": 20493557, "slots": [{"id": "92211937-0", "entrant": {"id": 20493557, "name": "TEASER FANCLUB | #1 TEASER FAN FOR LIFE", "participants": [{"id": 18871944, "gamerTag": "#1 TEASER FAN FOR LIFE", "prefix": "TEASER FANCLUB", "user": {"location": {"city": "Johns Creek", "state": "GA", "country": "United States"}}, "player": {"id": 181040, "gamerTag": "#1 TEASER FAN FOR LIFE", "prefix": "TEASER FANCLUB", "user": {"location": {"city": "Johns Creek", "state": "GA", "country": "United States"}}}}]}, "standing": {"placement": 1, "stats": {"score": {"value": 2}}}}, {"id": "92211937-1", "entrant": {"id": 20828542, "name": "KageGato", "participants": [{"id": 19167093, "gamerTag": "KageGato", "prefix": "", "user": {"location": {"city": "Valdosta", "state": "GA", "country": "United States"}}, "player": {"id": 1392649, "gamerTag": "KageGato", "prefix": "", "user": {"location": {"city": "Valdosta", "state": "GA", "country": "United States"}}}}]}, "standing": {"placement": 2, "stats": {"score": {"value": 0}}}}], "games": null}, {"id": 92216730, "state": 3, "round": -4, "fullRoundText": "Losers Round 2", "completedAt": 1754161635, "winnerId": 20490277, "slots": [{"id": "92216730-0", "entrant": {"id": 20490277, "name": "SNRS | SmokePudding", "participants": [{"id": 18869015, "gamerTag": "SmokePudding", "prefix": "SNRS", "user": {"location": {"city": "Riverdale", "state": "GA", "country": "United States"}}, "player": {"id": 281776, "gamerTag": "SmokePudding", "prefix": "", "user": {"location": {"city": "Riverdale", "state": "GA", "country": "United States"}}}}]}, "standing": {"placement": 1, "stats": {"score": {"value": 2}}}}, {"id": "92216730-1", "entrant": {"id": 20488514, "name": "BE | Bumble", "participants": [{"id": 18867472, "gamerTag": "Bumble", "prefix": "BE", "user": {"location": {"city": "Savannah", "state": "GA", "country": "United States"}}, "player": {"id": 1169889, "gamerTag": "Bumble", "prefix": "", "user": {"location": {"city": "Savannah", "state": "GA", "country": "United States"}}}}]}, "standing": {"placement": 2, "stats": {"score": {"value": 0}}}}], "games": null}]}}}