{"phase": {"seeds": {"pageInfo": {"totalPages": 2, "total": 57}, "nodes": [{"id": 36143039, "seedNum": 1, "entrant": {"id": 20958939, "name": "DDee", "participants": [{"id": 19282097, "gamerTag": "DDee", "prefix": null, "user": {"location": {"city": "Dacula", "state": "GA", "country": "United States"}}, "player": {"id": 1480393, "gamerTag": "DDee", "prefix": "SS", "user": {"location": {"city": "Dacula", "state": "GA", "country": "United States"}}}}]}}, {"id": 36194901, "seedNum": 2, "entrant": {"id": 20984944, "name": "DGS | spickles", "participants": [{"id": 19304561, "gamerTag": "spickles", "prefix": "DGS", "user": {"location": {"city": null, "state": null, "country": "United States"}}, "player": {"id": 1154793, "gamerTag": "spickles", "prefix": "DGS", "user": {"location": {"city": null, "state": null, "country": "United States"}}}}]}}, {"id": 36104792, "seedNum": 5, "entrant": {"id": 20932480, "name": "Ave~", "participants": [{"id": 19258789, "gamerTag": "Ave~", "prefix": "", "user": {"location": {"city": null, "state": null, "country": null}}, "player": {"id": 38830, "gamerTag": "Ave~", "prefix": "", "user": {"location": {"city": null, "state": null, "country": null}}}}]}}, {"id": 36117040, "seedNum": 8, "entrant": {"id": 20940758, "name": "RM | GUMP2 | Kr!stal:0", "participants": [{"id": 19266430, "gamerTag": "Kr!stal:0", "prefix": "RM | GUMP2", "user": {"location": {"city": "Lawrenceville", "state": "GA", "country": "United States"}}, "player": {"id": 2409815, "gamerTag": "AO ASHI SEASON 2 2026", "prefix": "RM | GUMP2", "user": {"location": {"city": "Lawrenceville", "state": "GA", "country": "United States"}}}}]}}, {"id": 36208780, "seedNum": 3, "entrant": {"id": 20994119, "name": "MinMorty | makiGOAT", "participants": [{"id": 19312445, "gamerTag": "makiGOAT", "prefix": "MinMorty", "user": {"location": {"city": "Dahlonega", "state": "GA", "country": "United States"}}, "player": {"id": 2462362, "gamerTag": "makiGOAT", "prefix": "MinMorty", "user": {"location": {"city": "Dahlonega", "state": "GA", "country": "United States"}}}}]}}, {"id": 36141769, "seedNum": 4, "entrant": {"id": 20957802, "name": "Tobe", "participants": [{"id": 19281068, "gamerTag": "Tobe", "prefix": "", "user": {"location": {"city": "Buford", "state": "GA", "country": "United States"}}, "player": {"id": 1646132, "gamerTag": "Tobe", "prefix": "", "user": {"location": {"city": "Buford", "state": "GA", "country": "United States"}}}}]}}, {"id": 36095190, "seedNum": 9, "entrant": {"id": 20926530, "name": "Nia", "participants": [{"id": 19253635, "gamerTag": "Nia", "prefix": null, "user": {"location": {"city": "Buford", "state": "GA", "country": "United States"}}, "player": {"id": 428070, "gamerTag": "Nia", "prefix": null, "user": {"location": {"city": "Buford", "state": "GA", "country": "United States"}}}}]}}, {"id": 36156178, "seedNum": 13, "entrant": {"id": 20967634, "name": "CFL | Benji", "participants": [{"id": 19289534, "gamerTag": "Benji", "prefix": "CFL", "user": {"location": {"city": "Orlando", "state": "FL", "country": "United States"}}, "player": {"id": 2990255, "gamerTag": "Benji", "prefix": "CFL", "user": {"location": {"city": "Orlando", "state": "FL", "country": "United States"}}}}]}}, {"id": 36097102, "seedNum": 6, "entrant": {"id": 20928038, "name": "Cobalt", "participants": [{"id": 19254907, "gamerTag": "Cobalt", "prefix": null, "user": {"location": {"city": "Gainesville", "state": "GA", "country": "United States"}}, "player": {"id": 181792, "gamerTag": "Cobalt", "prefix": null, "user": {"location": {"city": "Gainesville", "state": "GA", "country": "United States"}}}}]}}, {"id": 36101130, "seedNum": 7, "entrant": {"id": 20930485, "name": "GUMP2 | ToxiC", "participants": [{"id": 19256967, "gamerTag": "ToxiC", "prefix": "GUMP2", "user": {"location": {"city": "Marietta", "state": "GA", "country": "United States"}}, "player": {"id": 2585804, "gamerTag": "ToxiC", "prefix": "GUMP2", "user": {"location": {"city": "Marietta", "state": "GA", "country": "United States"}}}}]}}, {"id": 36135129, "seedNum": 11, "entrant": {"id": 20952855, "name": "GUMP2 | JankTrees!", "participants": [{"id": 19276993, "gamerTag": "JankTrees!", "prefix": "GUMP2", "user": {"location": {"city": "Cartersville", "state": "GA", "country": "United States"}}, "player": {"id": 35695, "gamerTag": "JankTrees!", "prefix": "GUMP2", "user": {"location": {"city": "Cartersville", "state": "GA", "country": "United States"}}}}]}}, {"id": 36095120, "seedNum": 23, "entrant": {"id": 20926506, "name": "Spruce", "participants": [{"id": 19253610, "gamerTag": "Spruce", "prefix": null, "user": {"location": {"city": null, "state": null, "country": "United States"}}, "player": {"id": 1100077, "gamerTag": "Spruce", "prefix": "Sol", "user": {"location": {"city": null, "state": null, "country": "United States"}}}}]}}, {"id": 36137959, "seedNum": 12, "entrant": {"id": 20955158, "name": "OneHundred", "participants": [{"id": 19278870, "gamerTag": "OneHundred", "prefix": null, "user": {"location": {"city": null, "state": null, "country": "United States"}}, "player": {"id": 2266676, "gamerTag": "OneHundred", "prefix": "417", "user": {"location": {"city": null, "state": null, "country": "United States"}}}}]}}, {"id": 36095534, "seedNum": 15, "entrant": {"id": 20926814, "name": "Impluvio", "participants": [{"id": 19253875, "gamerTag": "Impluvio", "prefix": null, "user": {"location": {"city": null, "state": null, "country": null}}, "player": {"id": 2175953, "gamerTag": "Impluvio", "prefix": "417", "user": {"location": {"city": null, "state": null, "country": null}}}}]}}, {"id": 36099408, "seedNum": 17, "entrant": {"id": 20929255, "name": "LBE | Savant", "participants": [{"id": 19255881, "gamerTag": "Savant", "prefix": "LBE", "user": {"location": {"city": "Athens", "state": "GA", "country": "United States"}}, "player": {"id": 1944044, "gamerTag": "Savant", "prefix": "LBE | CC", "user": {"location": {"city": "Athens", "state": "GA", "country": "United States"}}}}]}}, {"id": 36101114, "seedNum": 19, "entrant": {"id": 20930469, "name": "GRW | Loid", "participants": [{"id": 19256952, "gamerTag": "Loid", "prefix": "GRW", "user": {"location": {"city": null, "state": "GA", "country": "United States"}}, "player": {"id": 2981786, "gamerTag": "Loid", "prefix": "GRW", "user": {"location": {"city": null, "state": "GA", "country": "United States"}}}}]}}, {"id": 36197474, "seedNum": 10, "entrant": {"id": 20986702, "name": "CV | CoolCactuS", "participants": [{"id": 19306057, "gamerTag": "CoolCactuS", "prefix": "CV", "user": {"location": {"city": null, "state": null, "country": "United States"}}, "player": {"id": 1885346, "gamerTag": "CoolCactuS", "prefix": "CV", "user": {"location": {"city": null, "state": null, "country": "United States"}}}}]}}, {"id": 36095457, "seedNum": 14, "entrant": {"id": 20926756, "name": "Copper", "participants": [{"id": 19253829, "gamerTag": "Copper", "prefix": "", "user": {"location": {"city": "Athens", "state": "GA", "country": "United States"}}, "player": {"id": 1288306, "gamerTag": "Copper", "prefix": "417", "user": {"location": {"city": "Athens", "state": "GA", "country": "United States"}}}}]}}, {"id": 36095059, "seedNum": 16, "entrant": {"id": 20926471, "name": "417 | Krishna", "participants": [{"id": 19253575, "gamerTag": "Krishna", "prefix": "417", "user": {"location": {"city": null, "state": null, "country": "United States"}}, "player": {"id": 2282949, "gamerTag": "Krishna", "prefix": "417", "user": {"location": {"city": null, "state": null, "country": "United States"}}}}]}}, {"id": 36095119, "seedNum": 18, "entrant": {"id": 20926476, "name": "UGA | Akamos", "participants": [{"id": 19253581, "gamerTag": "Akamos", "prefix": "UGA", "user": {"location": {"city": "Kennesaw", "state": "GA", "country": "United States"}}, "player": {"id": 2233683, "gamerTag": "Akamos", "prefix": "UGA", "user": {"location": {"city": "Kennesaw", "state": "GA", "country": "United States"}}}}]}}, {"id": 36209609, "seedNum": 20, "entrant": {"id": 20994874, "name": "Trout~", "participants": [{"id": 19313051, "gamerTag": "Trout~", "prefix": "", "user": {"location": {"city": "Lawrenceville", "state": "GA", "country": "United States"}}, "player": {"id": 905410, "gamerTag": "Primary Trout~", "prefix": "", "user": {"location": {"city": "Lawrenceville", "state": "GA", "country": "United States"}}}}]}}, {"id": 36201008, "seedNum": 21, "entrant": {"id": 20989139, "name": "FreeDubs", "participants": [{"id": 19308119, "gamerTag": "FreeDubs", "prefix": null, "user": {"location": {"city": "Atlanta", "state": "GA", "country": "United States"}}, "player": {"id": 2366887, "gamerTag": "FreeDubs", "prefix": null, "user": {"location": {"city": "Atlanta", "state": "GA", "country": "United States"}}}}]}}, {"id": 36101492, "seedNum": 22, "entrant": {"id": 20930749, "name": "UGA | JD-DK", "participants": [{"id": 19257219, "gamerTag": "JD-DK", "prefix": "UGA", "user": {"location": {"city": null, "state": null, "country": null}}, "player": {"id": 1319951, "gamerTag": "JD-DK", "prefix": "UGA", "user": {"location": {"city": null, "state": null, "country": null}}}}]}}, {"id": 36184205, "seedNum": 24, "entrant": {"id": 20978568, "name": "Rain~", "participants": [{"id": 19299448, "gamerTag": "Rain~", "prefix": null, "user": {"location": {"city": "Atlanta", "state": "GA", "country": "United States"}}, "player": {"id": 4240164, "gamerTag": "Rain~", "prefix": null, "user": {"location": {"city": "Atlanta", "state": "GA", "country": "United States"}}}}]}}, {"id": 36095532, "seedNum": 25, "entrant": {"id": 20926808, "name": "The | Restof87", "participants": [{"id": 19253870, "gamerTag": "Restof87", "prefix": "The", "user": {"location": {"city": "Athens", "state": "GA", "country": "United States"}}, "player": {"id": 4301990, "gamerTag": "Restof87", "prefix": "The", "user": {"location": {"city": "Athens", "state": "GA", "country": "United States"}}}}]}}, {"id": 36209289, "seedNum": 26, "entrant": {"id": 20994568, "name": "ThatSoopGuy", "participants": [{"id": 19312777, "gamerTag": "ThatSoopGuy", "prefix": null, "user": {"location": {"city": "Lawrenceville", "state": "GA", "country": "United States"}}, "player": {"id": 2253726, "gamerTag": "ThatSoopGuy", "prefix": null, "user": {"location": {"city": "Lawrenceville", "state": "GA", "country": "United States"}}}}]}}, {"id": 36208281, "seedNum": 27, "entrant": {"id": 20993883, "name": "UTO | Whaley", "participants": [{"id": 19312260, "gamerTag": "Whaley", "prefix": "UTO", "user": {"location": {"city": "Stone Mountain", "state": "GA", "country": "United States"}}, "player": {"id": 2016149, "gamerTag": "Whaley", "prefix": "KSU|UTO|BLZE", "user": {"location": {"city": "Stone Mountain", "state": "GA", "country": "United States"}}}}]}}, {"id": 36201033, "seedNum": 28, "entrant": {"id": 20989155, "name": "GRW | Kazvto", "participants": [{"id": 19308134, "gamerTag": "Kazvto", "prefix": "GRW", "user": {"location": {"city": null, "state": "GA", "country": "United States"}}, "player": {"id": 2057044, "gamerTag": "Kazvto", "prefix": "GRW", "user": {"location": {"city": null, "state": "GA", "country": "United States"}}}}]}}, {"id": 36198603, "seedNum": 33, "entrant": {"id": 20987341, "name": "Bany05", "participants": [{"id": 19306614, "gamerTag": "Bany05", "prefix": null, "user": {"location": {"city": null, "state": null, "country": null}}, "player": {"id": 2637493, "gamerTag": "Bany05", "prefix": null, "user": {"location": {"city": null, "state": null, "country": null}}}}]}}, {"id": 36100413, "seedNum": 41, "entrant": {"id": 20929918, "name": "UGA | | samtwo", "participants": [{"id": 19256398, "gamerTag": "samtwo", "prefix": "UGA |", "user": {"location": {"city": "Athens", "state": "GA", "country": "United States"}}, "player": {"id": 1246662, "gamerTag": "samtwo", "prefix": "UGA |", "user": {"location": {"city": "Athens", "state": "GA", "country": "United States"}}}}]}}, {"id": 36182023, "seedNum": 42, "entrant": {"id": 20977176, "name": "GOOMBA!", "participants": [{"id": 19298186, "gamerTag": "GOOMBA!", "prefix": null, "user": {"location": {"city": "Johns Creek", "state": "GA", "country": "United States"}}, "player": {"id": 1052642, "gamerTag": "GOOMBA!", "prefix": "EDLN | BWU", "user": {"location": {"city": "Johns Creek", "state": "GA", "country": "United States"}}}}]}}, {"id": 36095702, "seedNum": 44, "entrant": {"id": 20926954, "name": "jack | jazzman", "participants": [{"id": 19253990, "gamerTag": "jazzman", "prefix": "jack", "user": {"location": {"city": "Athens", "state": "GA", "country": "United States"}}, "player": {"id": 3883272, "gamerTag": "jazzman", "prefix": "jack", "user": {"location": {"city": "Athens", "state": "GA", "country": "United States"}}}}]}}, {"id": 36119331, "seedNum": 29, "entrant": {"id": 20942741, "name": "SweatOnly", "participants": [{"id": 19268202, "gamerTag": "SweatOnly", "prefix": "", "user": {"location": {"city": "Lilburn", "state": "GA", "country": "United States"}}, "player": {"id": 1406711, "gamerTag": "SweatOnly", "prefix": "", "user": {"location": {"city": "Lilburn", "state": "GA", "country": "United States"}}}}]}}, {"id": 36181175, "seedNum": 30, "entrant": {"id": 20976553, "name": "carlop", "participants": [{"id": 19297592, "gamerTag": "carlop", "prefix": null, "user": {"location": {"city": "Johns Creek", "state": "GA", "country": "United States"}}, "player": {"id": 3431919, "gamerTag": "carlop", "prefix": null, "user": {"location": {"city": "Johns Creek", "state": "GA", "country": "United States"}}}}]}}, {"id": 36207875, "seedNum": 31, "entrant": {"id": 20993566, "name": "RM | Scuffed", "participants": [{"id": 19311955, "gamerTag": "Scuffed", "prefix": "RM", "user": {"location": {"city": "kennesaw", "state": "GA", "country": "United States"}}, "player": {"id": 2405108, "gamerTag": "Scuffed", "prefix": "RM", "user": {"location": {"city": "kennesaw", "state": "GA", "country": "United States"}}}}]}}, {"id": 36166814, "seedNum": 32, "entrant": {"id": 20973128, "name": "417 | zors3y", "participants": [{"id": 19294428, "gamerTag": "zors3y", "prefix": "417", "user": {"location": {"city": "Eatonton", "state": "GA", "country": "United States"}}, "player": {"id": 994539, "gamerTag": "zors3y", "prefix": "417", "user": {"location": {"city": "Eatonton", "state": "GA", "country": "United States"}}}}]}}, {"id": 36095335, "seedNum": 34, "entrant": {"id": 20926638, "name": "LaJohn", "participants": [{"id": 19253727, "gamerTag": "LaJohn", "prefix": null, "user": {"location": {"city": "Suwanee", "state": "GA", "country": "United States"}}, "player": {"id": 1742867, "gamerTag": "LaJohn", "prefix": "UGA", "user": {"location": {"city": "Suwanee", "state": "GA", "country": "United States"}}}}]}}, {"id": 36095251, "seedNum": 35, "entrant": {"id": 20926579, "name": "417 | Luke Dryewalker", "participants": [{"id": 19253677, "gamerTag": "Luke Dryewalker", "prefix": "417", "user": {"location": {"city": "Athens", "state": "GA", "country": "United States"}}, "player": {"id": 3630114, "gamerTag": "Yharon", "prefix": "417", "user": {"location": {"city": "Athens", "state": "GA", "country": "United States"}}}}]}}, {"id": 36209283, "seedNum": 36, "entrant": {"id": 20994562, "name": "UGA | Gene", "participants": [{"id": 19312771, "gamerTag": "Gene", "prefix": "UGA", "user": {"location": {"city": "Athens", "state": null, "country": "United States"}}, "player": {"id": 2440362, "gamerTag": "Gene", "prefix": "UGA", "user": {"location": {"city": "Athens", "state": null, "country": "United States"}}}}]}}, {"id": 36207055, "seedNum": 37, "entrant": {"id": 20992956, "name": "GRW | Shad", "participants": [{"id": 19311437, "gamerTag": "Shad", "prefix": "GRW", "user": {"location": {"city": null, "state": null, "country": "United States"}}, "player": {"id": 4332389, "gamerTag": "Shad", "prefix": "GRW", "user": {"location": {"city": null, "state": null, "country": "United States"}}}}]}}, {"id": 36181124, "seedNum": 38, "entrant": {"id": 20976521, "name": "GRW | Gooey", "participants": [{"id": 19297565, "gamerTag": "Gooey", "prefix": "GRW", "user": {"location": {"city": "Athens", "state": "GA", "country": "United States"}}, "player": {"id": 1071181, "gamerTag": "Gooey", "prefix": "GRW", "user": {"location": {"city": "Athens", "state": "GA", "country": "United States"}}}}]}}, {"id": 36099269, "seedNum": 39, "entrant": {"id": 20929159, "name": "Vertebrae", "participants": [{"id": 19255797, "gamerTag": "Vertebrae", "prefix": "", "user": {"location": {"city": "Athens", "state": "GA", "country": "United States"}}, "player": {"id": 1583946, "gamerTag": "Vertebrae", "prefix": "CC", "user": {"location": {"city": "Athens", "state": "GA", "country": "United States"}}}}]}}, {"id": 36104699, "seedNum": 40, "entrant": {"id": 20932387, "name": "Omar", "participants": [{"id": 19258700, "gamerTag": "Omar", "prefix": "", "user": {"location": {"city": null, "state": "GA", "country": "United States"}}, "player": {"id": 4300029, "gamerTag": "Omar", "prefix": "", "user": {"location": {"city": null, "state": "GA", "country": "United States"}}}}]}}, {"id": 36204856, "seedNum": 43, "entrant": {"id": 20991869, "name": "MTM | Mishmash", "participants": [{"id": 19310464, "gamerTag": "Mishmash", "prefix": "MTM", "user": {"location": {"city": "Cartersville", "state": "GA", "country": "United States"}}, "player": {"id": 4104907, "gamerTag": "Mishmash", "prefix": "MTM", "user": {"location": {"city": "Cartersville", "state": "GA", "country": "United States"}}}}]}}, {"id": 36201066, "seedNum": 45, "entrant": {"id": 20989188, "name": "mike | mike", "participants": [{"id": 19308161, "gamerTag": "mike", "prefix": "mike", "user": {"location": {"city": "Athens", "state": "GA", "country": "United States"}}, "player": {"id": 1821403, "gamerTag": "mike", "prefix": "mike", "user": {"location": {"city": "Athens", "state": "GA", "country": "United States"}}}}]}}, {"id": 36095117, "seedNum": 48, "entrant": {"id": 20926474, "name": "ThePromisedHat", "participants": [{"id": 19253578, "gamerTag": "ThePromisedHat", "prefix": null, "user": {"location": {"city": "Bishop", "state": "GA", "country": "United States"}}, "player": {"id": 4261821, "gamerTag": "ThePromisedHat", "prefix": null, "user": {"location": {"city": "Bishop", "state": "GA", "country": "United States"}}}}]}}, {"id": 36210044, "seedNum": 50, "entrant": {"id": 20995207, "name": "WDKL | BrAndO", "participants": [{"id": 19313359, "gamerTag": "BrAndO", "prefix": "WDKL", "user": {"location": {"city": "Acworth", "state": "GA", "country": "United States"}}, "player": {"id": 1319950, "gamerTag": "BrAndO", "prefix": "WDKL", "user": {"location": {"city": "Acworth", "state": "GA", "country": "United States"}}}}]}}, {"id": 36111457, "seedNum": 51, "entrant": {"id": 20937103, "name": "Edwin", "participants": [{"id": 19262996, "gamerTag": "Edwin", "prefix": "", "user": {"location": {"city": "Alpharetta", "state": "GA", "country": "United States"}}, "player": {"id": 3443791, "gamerTag": "hotdiggitydog", "prefix": null, "user": {"location": {"city": "Alpharetta", "state": "GA", "country": "United States"}}}}]}}, {"id": 36207741, "seedNum": 46, "entrant": {"id": 20993505, "name": "MikePTM", "participants": [{"id": 19311900, "gamerTag": "MikePTM", "prefix": "", "user": {"location": {"city": null, "state": null, "country": "United States"}}, "player": {"id": 3586658, "gamerTag": "MikePTM", "prefix": "KSU", "user": {"location": {"city": null, "state": null, "country": "United States"}}}}]}}, {"id": 36148207, "seedNum": 47, "entrant": {"id": 20962694, "name": "Genaric_Human", "participants": [{"id": 19285313, "gamerTag": "Genaric_Human", "prefix": "", "user": {"location": {"city": null, "state": null, "country": "United States"}}, "player": {"id": 4427222, "gamerTag": "Genaric_Human", "prefix": "", "user": {"location": {"city": null, "state": null, "country": "United States"}}}}]}}]}}}