{"phase": {"seeds": {"pageInfo": {"totalPages": 1, "total": 18}, "nodes": [{"id": 36037127, "seedNum": 1, "entrant": {"id": 20843759, "name": "iNGenius", "participants": [{"id": 19180517, "gamerTag": "iNGenius", "prefix": "", "user": {"location": {"city": null, "state": null, "country": null}}, "player": {"id": 3194293, "gamerTag": "iNGenius", "prefix": "", "user": {"location": {"city": null, "state": null, "country": null}}}}]}}, {"id": 36037129, "seedNum": 2, "entrant": {"id": 20846801, "name": "FAT | Phantomtheif", "participants": [{"id": 19183315, "gamerTag": "Phantomtheif", "prefix": "FAT", "user": {"location": {"city": "Columbus", "state": "AL", "country": "United States"}}, "player": {"id": 469237, "gamerTag": "Phantomtheif", "prefix": "FAT", "user": {"location": {"city": "Columbus", "state": "AL", "country": "United States"}}}}]}}, {"id": 36037122, "seedNum": 3, "entrant": {"id": 20890083, "name": "Bethanol", "participants": [{"id": 19221496, "gamerTag": "Bethanol", "prefix": "", "user": {"location": {"city": "Fortson", "state": "GA", "country": "United States"}}, "player": {"id": 523480, "gamerTag": "Bethanol", "prefix": "", "user": {"location": {"city": "Fortson", "state": "GA", "country": "United States"}}}}]}}, {"id": 36037135, "seedNum": 4, "entrant": {"id": 20890006, "name": "VES | OGS Dog", "participants": [{"id": 19221427, "gamerTag": "OGS Dog", "prefix": "VES", "user": {"location": {"city": "Columbus", "state": "GA", "country": "United States"}}, "player": {"id": 2152632, "gamerTag": "OGS Dog", "prefix": "VES", "user": {"location": {"city": "Columbus", "state": "GA", "country": "United States"}}}}]}}, {"id": 36037121, "seedNum": 5, "entrant": {"id": 20888450, "name": "SPLY-350 | Yeezus", "participants": [{"id": 19220128, "gamerTag": "Yeezus", "prefix": "SPLY-350", "user": {"location": {"city": "Fort Moore", "state": "GA", "country": "United States"}}, "player": {"id": 3988141, "gamerTag": "Yeezus", "prefix": "SPLY-350", "user": {"location": {"city": "Fort Moore", "state": "GA", "country": "United States"}}}}]}}, {"id": 36037120, "seedNum": 6, "entrant": {"id": 20889922, "name": "Andromeda", "participants": [{"id": 19221349, "gamerTag": "Andromeda", "prefix": "", "user": {"location": {"city": "Columbus", "state": "GA", "country": "United States"}}, "player": {"id": 1458791, "gamerTag": "Andromeda", "prefix": "", "user": {"location": {"city": "Columbus", "state": "GA", "country": "United States"}}}}]}}, {"id": 36037130, "seedNum": 8, "entrant": {"id": 20878769, "name": "Free Puli | jigglypuff", "participants": [{"id": 19211521, "gamerTag": "jigglypuff", "prefix": "Free Puli", "user": {"location": {"city": "Columbus", "state": "GA", "country": "United States"}}, "player": {"id": 2592456, "gamerTag": "jigglypuff", "prefix": null, "user": {"location": {"city": "Columbus", "state": "GA", "country": "United States"}}}}]}}, {"id": 36037126, "seedNum": 16, "entrant": {"id": 20889838, "name": "$MOKE", "participants": [{"id": 19221278, "gamerTag": "$MOKE", "prefix": null, "user": {"location": {"city": null, "state": "GA", "country": "United States"}}, "player": {"id": 4740521, "gamerTag": "$MOKE", "prefix": null, "user": {"location": {"city": null, "state": "GA", "country": "United States"}}}}]}}, {"id": 36037123, "seedNum": 7, "entrant": {"id": 20888198, "name": "Ashm | Cryptonite", "participants": [{"id": 19219924, "gamerTag": "Cryptonite", "prefix": "Ashm", "user": {"location": {"city": "Hamilton", "state": "GA", "country": "United States"}}, "player": {"id": 2300323, "gamerTag": "Cryptonite", "prefix": "Ashm", "user": {"location": {"city": "Hamilton", "state": "GA", "country": "United States"}}}}]}}, {"id": 36037125, "seedNum": 10, "entrant": {"id": 20852653, "name": "INHALE | Hurzt", "participants": [{"id": 19188751, "gamerTag": "Hurzt", "prefix": "INHALE", "user": {"location": {"city": null, "state": "GA", "country": "United States"}}, "player": {"id": 2717522, "gamerTag": "Hurzt", "prefix": "INHALE", "user": {"location": {"city": null, "state": "GA", "country": "United States"}}}}]}}, {"id": 36037124, "seedNum": 11, "entrant": {"id": 20846983, "name": "PICKLE | StuffinCrust", "participants": [{"id": 19183455, "gamerTag": "StuffinCrust", "prefix": "PICKLE", "user": {"location": {"city": "Columbus", "state": "GA", "country": "United States"}}, "player": {"id": 1648414, "gamerTag": "StuffinCrust", "prefix": "PICKLE", "user": {"location": {"city": "Columbus", "state": "GA", "country": "United States"}}}}]}}, {"id": 36037132, "seedNum": 12, "entrant": {"id": 20888276, "name": "KING | BlazeAlbino06", "participants": [{"id": 19219997, "gamerTag": "BlazeAlbino06", "prefix": "KING", "user": {"location": {"city": "Columbus", "state": "GA", "country": "United States"}}, "player": {"id": 2615711, "gamerTag": "BlazeAlbino06", "prefix": "KING", "user": {"location": {"city": "Columbus", "state": "GA", "country": "United States"}}}}]}}, {"id": 36037133, "seedNum": 9, "entrant": {"id": 20890069, "name": "LevL", "participants": [{"id": 19221483, "gamerTag": "LevL", "prefix": "", "user": {"location": {"city": "Columbus", "state": "GA", "country": "United States"}}, "player": {"id": 36461, "gamerTag": "LevL", "prefix": "", "user": {"location": {"city": "Columbus", "state": "GA", "country": "United States"}}}}]}}, {"id": 36037134, "seedNum": 13, "entrant": {"id": 20888181, "name": "Fat", "participants": [{"id": 19219908, "gamerTag": "Fat", "prefix": "", "user": {"location": {"city": null, "state": null, "country": "United States"}}, "player": {"id": 2985597, "gamerTag": "Fat", "prefix": "", "user": {"location": {"city": null, "state": null, "country": "United States"}}}}]}}, {"id": 36037136, "seedNum": 14, "entrant": {"id": 20889590, "name": "NotYourWallet", "participants": [{"id": 19221057, "gamerTag": "NotYourWallet", "prefix": null, "user": {"location": {"city": null, "state": null, "country": "United States"}}, "player": {"id": 3773674, "gamerTag": "NotYourWallet", "prefix": null, "user": {"location": {"city": null, "state": null, "country": "United States"}}}}]}}, {"id": 36037137, "seedNum": 15, "entrant": {"id": 20879006, "name": "CSU | OfficeWalrus", "participants": [{"id": 19211853, "gamerTag": "OfficeWalrus", "prefix": "CSU", "user": {"location": {"city": "Columbus", "state": "GA", "country": "United States"}}, "player": {"id": 3860050, "gamerTag": "OfficeWalrus", "prefix": "CSU", "user": {"location": {"city": "Columbus", "state": "GA", "country": "United States"}}}}]}}, {"id": 36037128, "seedNum": 17, "entrant": {"id": 20848112, "name": "Nai", "participants": [{"id": 19184328, "gamerTag": "Nai", "prefix": "", "user": {"location": {"city": "Columbus", "state": "GA", "country": "United States"}}, "player": {"id": 876854, "gamerTag": "Robi", "prefix": "", "user": {"location": {"city": "Columbus", "state": "GA", "country": "United States"}}}}]}}, {"id": 36037131, "seedNum": 18, "entrant": {"id": 20889939, "name": "ddogg26", "participants": [{"id": 19221366, "gamerTag": "ddogg26", "prefix": "", "user": {"location": {"city": null, "state": null, "country": "United States"}}, "player": {"id": 3859990, "gamerTag": "ddogg26", "prefix": "", "user": {"location": {"city": null, "state": null, "country": "United States"}}}}]}}]}}}