{"phase": {"seeds": {"pageInfo": {"totalPages": 1, "total": 37}, "nodes": [{"id": 35631502, "seedNum": 1, "entrant": {"id": 20630720, "name": "Ave~", "participants": [{"id": 18991803, "gamerTag": "Ave~", "prefix": "", "user": {"location": {"city": null, "state": null, "country": null}}, "player": {"id": 38830, "gamerTag": "Ave~", "prefix": "", "user": {"location": {"city": null, "state": null, "country": null}}}}]}}, {"id": 35897820, "seedNum": 2, "entrant": {"id": 20803933, "name": "VA | StreetDzine", "participants": [{"id": 19145964, "gamerTag": "StreetDzine", "prefix": "VA", "user": {"location": {"city": null, "state": null, "country": "United States"}}, "player": {"id": 989587, "gamerTag": "StreetDzine", "prefix": "VA", "user": {"location": {"city": null, "state": null, "country": "United States"}}}}]}}, {"id": 35880985, "seedNum": 3, "entrant": {"id": 20793972, "name": "Deanosaurus Rex", "participants": [{"id": 19136979, "gamerTag": "Deanosaurus Rex", "prefix": "", "user": {"location": {"city": "Calhoun", "state": "GA", "country": "United States"}}, "player": {"id": 19555, "gamerTag": "Deanosaurus Rex", "prefix": "", "user": {"location": {"city": "Calhoun", "state": "GA", "country": "United States"}}}}]}}, {"id": 35895410, "seedNum": 11, "entrant": {"id": 20802141, "name": "punk2 | tape", "participants": [{"id": 19144586, "gamerTag": "tape", "prefix": "punk2", "user": {"location": {"city": "Douglasville", "state": "GA", "country": "United States"}}, "player": {"id": 2493488, "gamerTag": "tape", "prefix": "punk2", "user": {"location": {"city": "Douglasville", "state": "GA", "country": "United States"}}}}]}}, {"id": 35868256, "seedNum": 5, "entrant": {"id": 20785123, "name": "no", "participants": [{"id": 19128676, "gamerTag": "no", "prefix": "", "user": {"location": {"city": "Silver Creek", "state": null, "country": "Georgia"}}, "player": {"id": 135724, "gamerTag": "no", "prefix": "", "user": {"location": {"city": "Silver Creek", "state": null, "country": "Georgia"}}}}]}}, {"id": 35631300, "seedNum": 6, "entrant": {"id": 20630513, "name": "El Capo", "participants": [{"id": 18991631, "gamerTag": "El Capo", "prefix": null, "user": {"location": {"city": "Dalton", "state": "GA", "country": "United States"}}, "player": {"id": 159265, "gamerTag": "El Capo", "prefix": "", "user": {"location": {"city": "Dalton", "state": "GA", "country": "United States"}}}}]}}, {"id": 35806188, "seedNum": 7, "entrant": {"id": 20752816, "name": "FearMNdash", "participants": [{"id": 19098320, "gamerTag": "FearMNdash", "prefix": "", "user": {"location": {"city": null, "state": null, "country": "United States"}}, "player": {"id": 2117137, "gamerTag": "FearMNdash", "prefix": "", "user": {"location": {"city": null, "state": null, "country": "United States"}}}}]}}, {"id": 35802793, "seedNum": 13, "entrant": {"id": 20750166, "name": "LARK | Nintendom7", "participants": [{"id": 19095701, "gamerTag": "Nintendom7", "prefix": "LARK", "user": {"location": {"city": "Adairsville", "state": "GA", "country": "United States"}}, "player": {"id": 3623160, "gamerTag": "Nintendom7", "prefix": "LARK", "user": {"location": {"city": "Adairsville", "state": "GA", "country": "United States"}}}}]}}, {"id": 35887594, "seedNum": 8, "entrant": {"id": 20798193, "name": "Jebus", "participants": [{"id": 19141065, "gamerTag": "Jebus", "prefix": null, "user": {"location": {"city": "Chattanooga", "state": "TN", "country": "United States"}}, "player": {"id": 127867, "gamerTag": "Jebus", "prefix": null, "user": {"location": {"city": "Chattanooga", "state": "TN", "country": "United States"}}}}]}}, {"id": 35894206, "seedNum": 9, "entrant": {"id": 20801107, "name": "Kaizo", "participants": [{"id": 19143795, "gamerTag": "Kaizo", "prefix": null, "user": {"location": {"city": "Cartersville", "state": "GA", "country": "United States"}}, "player": {"id": 3446529, "gamerTag": "Kaizo", "prefix": null, "user": {"location": {"city": "Cartersville", "state": "GA", "country": "United States"}}}}]}}, {"id": 35806156, "seedNum": 15, "entrant": {"id": 20752790, "name": "KingKirb", "participants": [{"id": 19098292, "gamerTag": "KingKirb", "prefix": "", "user": {"location": {"city": "Adairsville", "state": "GA", "country": "United States"}}, "player": {"id": 4038816, "gamerTag": "KingKirb", "prefix": "", "user": {"location": {"city": "Adairsville", "state": "GA", "country": "United States"}}}}]}}, {"id": 35901390, "seedNum": 22, "entrant": {"id": 20806559, "name": "Memes", "participants": [{"id": 19147965, "gamerTag": "Memes", "prefix": null, "user": null, "player": {"id": 4893973, "gamerTag": "Memes", "prefix": null, "user": null}}]}}, {"id": 35841774, "seedNum": 19, "entrant": {"id": 20769965, "name": "bittersweettrip", "participants": [{"id": 19114867, "gamerTag": "bittersweettrip", "prefix": null, "user": {"location": {"city": "", "state": "GA", "country": "United States"}}, "player": {"id": 3952364, "gamerTag": "bittersweettrip", "prefix": null, "user": {"location": {"city": "", "state": "GA", "country": "United States"}}}}]}}, {"id": 35901400, "seedNum": 20, "entrant": {"id": 20806568, "name": "HSG Shiro", "participants": [{"id": 19147964, "gamerTag": "HSG Shiro", "prefix": null, "user": null, "player": {"id": 4893972, "gamerTag": "HSG Shiro", "prefix": null, "user": null}}]}}, {"id": 35848495, "seedNum": 30, "entrant": {"id": 20774835, "name": "TnHO | YPM", "participants": [{"id": 19119065, "gamerTag": "YPM", "prefix": "TnHO", "user": {"location": {"city": null, "state": null, "country": "United States"}}, "player": {"id": 4886596, "gamerTag": "YPM", "prefix": "TnHO", "user": {"location": {"city": null, "state": null, "country": "United States"}}}}]}}, {"id": 35888823, "seedNum": 34, "entrant": {"id": 20799095, "name": "jimbus", "participants": [{"id": 19141930, "gamerTag": "jimbus", "prefix": "", "user": {"location": {"city": null, "state": null, "country": "United States"}}, "player": {"id": 4892602, "gamerTag": "jimbus", "prefix": "", "user": {"location": {"city": null, "state": null, "country": "United States"}}}}]}}, {"id": 35897839, "seedNum": 10, "entrant": {"id": 20803949, "name": "FoxyGrandpa", "participants": [{"id": 19145977, "gamerTag": "FoxyGrandpa", "prefix": "", "user": {"location": {"city": null, "state": null, "country": "United States"}}, "player": {"id": 4893425, "gamerTag": "FoxyGrandpa", "prefix": "", "user": {"location": {"city": null, "state": null, "country": "United States"}}}}]}}, {"id": 35841714, "seedNum": 12, "entrant": {"id": 20769911, "name": "meen", "participants": [{"id": 19114815, "gamerTag": "meen", "prefix": null, "user": {"location": {"city": null, "state": "GA", "country": "United States"}}, "player": {"id": 3023788, "gamerTag": "meen", "prefix": null, "user": {"location": {"city": null, "state": "GA", "country": "United States"}}}}]}}, {"id": 35901182, "seedNum": 14, "entrant": {"id": 20806377, "name": "RR | GingerSNAP", "participants": [{"id": 19147824, "gamerTag": "GingerSNAP", "prefix": "RR", "user": {"location": {"city": "Calhoun", "state": "GA", "country": "United States"}}, "player": {"id": 1875386, "gamerTag": "GingerSNAP", "prefix": "RR", "user": {"location": {"city": "Calhoun", "state": "GA", "country": "United States"}}}}]}}, {"id": 35668620, "seedNum": 17, "entrant": {"id": 20656095, "name": "Crusher", "participants": [{"id": 19013681, "gamerTag": "Crusher", "prefix": "", "user": {"location": {"city": "Rome", "state": "GA", "country": "United States"}}, "player": {"id": 34737, "gamerTag": "Crusher", "prefix": "", "user": {"location": {"city": "Rome", "state": "GA", "country": "United States"}}}}]}}, {"id": 35787953, "seedNum": 23, "entrant": {"id": 20741991, "name": "Mr. Chez", "participants": [{"id": 19087980, "gamerTag": "Mr. Chez", "prefix": null, "user": {"location": {"city": "Calhoun", "state": "GA", "country": "United States"}}, "player": {"id": 4875879, "gamerTag": "Mr. Chez", "prefix": null, "user": {"location": {"city": "Calhoun", "state": "GA", "country": "United States"}}}}]}}, {"id": 35866351, "seedNum": 31, "entrant": {"id": 20783502, "name": "AllStar Issy", "participants": [{"id": 19127149, "gamerTag": "AllStar Issy", "prefix": "", "user": {"location": {"city": null, "state": null, "country": "United States"}}, "player": {"id": 4888427, "gamerTag": "AllStar Issy", "prefix": "", "user": {"location": {"city": null, "state": null, "country": "United States"}}}}]}}, {"id": 35887765, "seedNum": 33, "entrant": {"id": 20798323, "name": "BOB", "participants": [{"id": 19141183, "gamerTag": "BOB", "prefix": null, "user": {"location": {"city": "Rome", "state": "GA", "country": "United States"}}, "player": {"id": 4892409, "gamerTag": "BOB", "prefix": null, "user": {"location": {"city": "Rome", "state": "GA", "country": "United States"}}}}]}}, {"id": 35899933, "seedNum": 36, "entrant": {"id": 20805549, "name": "U Mad?", "participants": [{"id": 19147137, "gamerTag": "U Mad?", "prefix": "", "user": {"location": {"city": null, "state": null, "country": "United States"}}, "player": {"id": 4893714, "gamerTag": "U Mad?", "prefix": "", "user": {"location": {"city": null, "state": null, "country": "United States"}}}}]}}, {"id": 35691487, "seedNum": 4, "entrant": {"id": 20672487, "name": "Tadeo", "participants": [{"id": 19027745, "gamerTag": "Tadeo", "prefix": "", "user": {"location": {"city": "Chattanooga", "state": "TN", "country": "United States"}}, "player": {"id": 36745, "gamerTag": "Tadeo", "prefix": "", "user": {"location": {"city": "Chattanooga", "state": "TN", "country": "United States"}}}}]}}, {"id": 35901327, "seedNum": 16, "entrant": {"id": 20806496, "name": "Rem", "participants": [{"id": 19147934, "gamerTag": "Rem", "prefix": "", "user": {"location": {"city": "Rome", "state": "GA", "country": "United States"}}, "player": {"id": 3634027, "gamerTag": "Rem", "prefix": "", "user": {"location": {"city": "Rome", "state": "GA", "country": "United States"}}}}]}}, {"id": 35893902, "seedNum": 25, "entrant": {"id": 20800903, "name": "Luke", "participants": [{"id": 19143615, "gamerTag": "Luke", "prefix": "", "user": {"location": {"city": null, "state": null, "country": "United States"}}, "player": {"id": 4892970, "gamerTag": "Luke", "prefix": "", "user": {"location": {"city": null, "state": null, "country": "United States"}}}}]}}, {"id": 35786528, "seedNum": 26, "entrant": {"id": 20740709, "name": "Noah", "participants": [{"id": 19086702, "gamerTag": "Noah", "prefix": "", "user": {"location": {"city": null, "state": null, "country": "United States"}}, "player": {"id": 4875372, "gamerTag": "Noah", "prefix": "", "user": {"location": {"city": null, "state": null, "country": "United States"}}}}]}}, {"id": 35838153, "seedNum": 27, "entrant": {"id": 20768258, "name": "Jane", "participants": [{"id": 19113447, "gamerTag": "Jane", "prefix": "", "user": {"location": {"city": "Durango", "state": null, "country": "Mexico"}}, "player": {"id": 4885476, "gamerTag": "Jane", "prefix": "", "user": {"location": {"city": "Durango", "state": null, "country": "Mexico"}}}}]}}, {"id": 35842879, "seedNum": 28, "entrant": {"id": 20770942, "name": "Maxim1r", "participants": [{"id": 19115746, "gamerTag": "Maxim1r", "prefix": "", "user": {"location": {"city": null, "state": null, "country": "United States"}}, "player": {"id": 4885854, "gamerTag": "Maxim1r", "prefix": "", "user": {"location": {"city": null, "state": null, "country": "United States"}}}}]}}, {"id": 35899902, "seedNum": 35, "entrant": {"id": 20805519, "name": "Mr Wibbles", "participants": [{"id": 19147113, "gamerTag": "Mr Wibbles", "prefix": "", "user": {"location": {"city": null, "state": null, "country": "United States"}}, "player": {"id": 4893706, "gamerTag": "Mr Wibbles", "prefix": "", "user": {"location": {"city": null, "state": null, "country": "United States"}}}}]}}, {"id": 35900234, "seedNum": 37, "entrant": {"id": 20805697, "name": "Littleblindgirl", "participants": [{"id": 19147251, "gamerTag": "Littleblindgirl", "prefix": "", "user": {"location": {"city": null, "state": null, "country": "United States"}}, "player": {"id": 4893738, "gamerTag": "Littleblindgirl", "prefix": "", "user": {"location": {"city": null, "state": null, "country": "United States"}}}}]}}, {"id": 35824667, "seedNum": 18, "entrant": {"id": 20764639, "name": "Y0ungApprentice", "participants": [{"id": 19109819, "gamerTag": "Y0ungApprentice", "prefix": null, "user": {"location": {"city": "Rome", "state": "GA", "country": "United States"}}, "player": {"id": 2729718, "gamerTag": "Y0ungApprentice", "prefix": null, "user": {"location": {"city": "Rome", "state": "GA", "country": "United States"}}}}]}}, {"id": 35901278, "seedNum": 21, "entrant": {"id": 20806448, "name": "Legacy", "participants": [{"id": 19147891, "gamerTag": "Legacy", "prefix": null, "user": {"location": {"city": null, "state": null, "country": null}}, "player": {"id": 3631793, "gamerTag": "Legacy", "prefix": null, "user": {"location": {"city": null, "state": null, "country": null}}}}]}}, {"id": 35886158, "seedNum": 24, "entrant": {"id": 20797564, "name": "Skepio", "participants": [{"id": 19140494, "gamerTag": "Skepio", "prefix": "", "user": {"location": {"city": null, "state": null, "country": "United States"}}, "player": {"id": 4892141, "gamerTag": "Skepio", "prefix": "", "user": {"location": {"city": null, "state": null, "country": "United States"}}}}]}}, {"id": 35847016, "seedNum": 29, "entrant": {"id": 20773960, "name": "GanonDORK", "participants": [{"id": 19118319, "gamerTag": "GanonDORK", "prefix": "", "user": {"location": {"city": null, "state": null, "country": "United States"}}, "player": {"id": 4886437, "gamerTag": "GanonDORK", "prefix": "", "user": {"location": {"city": null, "state": null, "country": "United States"}}}}]}}, {"id": 35875697, "seedNum": 32, "entrant": {"id": 20790348, "name": "Buddabounce", "participants": [{"id": 19133760, "gamerTag": "Buddabounce", "prefix": "", "user": {"location": {"city": null, "state": null, "country": "United States"}}, "player": {"id": 4890768, "gamerTag": "Buddabounce", "prefix": "", "user": {"location": {"city": null, "state": null, "country": "United States"}}}}]}}]}}}