{"event": {"sets": {"pageInfo": {"totalPages": 2, "total": 29}, "nodes": [{"id": 93053712, "state": 3, "round": 4, "fullRoundText": "Winners Final", "completedAt": 1756068259, "winnerId": 21055752, "slots": [{"id": "93053712-0", "entrant": {"id": 20997364, "name": "HAND$OME", "participants": [{"id": 19315244, "gamerTag": "HAND$OME", "prefix": null, "user": {"location": {"city": null, "state": "GA", "country": "United States"}}, "player": {"id": 813037, "gamerTag": "HAND$OME", "prefix": null, "user": {"location": {"city": null, "state": "GA", "country": "United States"}}}}]}, "standing": {"placement": 2, "stats": {"score": {"value": 0}}}}, {"id": "93053712-1", "entrant": {"id": 21055752, "name": "cheddarcola", "participants": [{"id": 19368588, "gamerTag": "cheddarcola", "prefix": null, "user": {"location": {"city": null, "state": null, "country": "United States"}}, "player": {"id": 4724537, "gamerTag": "cheddarcola", "prefix": null, "user": {"location": {"city": null, "state": null, "country": "United States"}}}}]}, "standing": {"placement": 1, "stats": {"score": {"value": 2}}}}], "games": null}, {"id": 93053710, "state": 3, "round": 3, "fullRoundText": "Winners Semi-Final", "completedAt": 1756068069, "winnerId": 20997364, "slots": [{"id": "93053710-0", "entrant": {"id": 20940672, "name": "PCV305", "participants": [{"id": 19266349, "gamerTag": "PCV305", "prefix": null, "user": {"location": {"city": "Augusta", "state": "GA", "country": "United States"}}, "player": {"id": 4327979, "gamerTag": "PCV305", "prefix": null, "user": {"location": {"city": "Augusta", "state": "GA", "country": "United States"}}}}]}, "standing": {"placement": 2, "stats": {"score": {"value": 0}}}}, {"id": "93053710-1", "entrant": {"id": 20997364, "name": "HAND$OME", "participants": [{"id": 19315244, "gamerTag": "HAND$OME", "prefix": null, "user": {"location": {"city": null, "state": "GA", "country": "United States"}}, "player": {"id": 813037, "gamerTag": "HAND$OME", "prefix": null, "user": {"location": {"city": null, "state": "GA", "country": "United States"}}}}]}, "standing": {"placement": 1, "stats": {"score": {"value": 2}}}}], "games": null}, {"id": 93053711, "state": 3, "round": 3, "fullRoundText": "Winners Semi-Final", "completedAt": 1756066063, "winnerId": 21055752, "slots": [{"id": "93053711-0", "entrant": {"id": 21055752, "name": "cheddarcola", "participants": [{"id": 19368588, "gamerTag": "cheddarcola", "prefix": null, "user": {"location": {"city": null, "state": null, "country": "United States"}}, "player": {"id": 4724537, "gamerTag": "cheddarcola", "prefix": null, "user": {"location": {"city": null, "state": null, "country": "United States"}}}}]}, "standing": {"placement": 1, "stats": {"score": {"value": 2}}}}, {"id": "93053711-1", "entrant": {"id": 21062485, "name": "LTS | Akane", "participants": [{"id": 19374579, "gamerTag": "Akane", "prefix": "LTS", "user": {"location": {"city": "Martinez", "state": "GA", "country": "United States"}}, "player": {"id": 1082873, "gamerTag": "Akane", "prefix": "LTS", "user": {"location": {"city": "Martinez", "state": "GA", "country": "United States"}}}}]}, "standing": {"placement": 2, "stats": {"score": {"value": 1}}}}], "games": null}, {"id": 93053706, "state": 3, "round": 2, "fullRoundText": "Winners Quarter-Final", "completedAt": 1756064509, "winnerId": 20940672, "slots": [{"id": "93053706-0", "entrant": {"id": 20940672, "name": "PCV305", "participants": [{"id": 19266349, "gamerTag": "PCV305", "prefix": null, "user": {"location": {"city": "Augusta", "state": "GA", "country": "United States"}}, "player": {"id": 4327979, "gamerTag": "PCV305", "prefix": null, "user": {"location": {"city": "Augusta", "state": "GA", "country": "United States"}}}}]}, "standing": {"placement": 1, "stats": {"score": {"value": 2}}}}, {"id": "93053706-1", "entrant": {"id": 21014017, "name": "Shifty", "participants": [{"id": 19330844, "gamerTag": "Shifty", "prefix": "", "user": {"location": {"city": "Evans", "state": "GA", "country": "United States"}}, "player": {"id": 4387897, "gamerTag": "Shifty", "prefix": "", "user": {"location": {"city": "Evans", "state": "GA", "country": "United States"}}}}]}, "standing": {"placement": 2, "stats": {"score": {"value": 0}}}}], "games": null}, {"id": 93053707, "state": 3, "round": 2, "fullRoundText": "Winners Quarter-Final", "completedAt": 1756067861, "winnerId": 20997364, "slots": [{"id": "93053707-0", "entrant": {"id": 20997364, "name": "HAND$OME", "participants": [{"id": 19315244, "gamerTag": "HAND$OME", "prefix": null, "user": {"location": {"city": null, "state": "GA", "country": "United States"}}, "player": {"id": 813037, "gamerTag": "HAND$OME", "prefix": null, "user": {"location": {"city": null, "state": "GA", "country": "United States"}}}}]}, "standing": {"placement": 1, "stats": {"score": {"value": 2}}}}, {"id": "93053707-1", "entrant": {"id": 20998869, "name": "CV | NiNE", "participants": [{"id": 19316676, "gamerTag": "NiNE", "prefix": "CV", "user": {"location": {"city": "Augusta", "state": "GA", "country": "United States"}}, "player": {"id": 25337, "gamerTag": "NiNE", "prefix": "CV", "user": {"location": {"city": "Augusta", "state": "GA", "country": "United States"}}}}]}, "standing": {"placement": 2, "stats": {"score": {"value": 0}}}}], "games": null}, {"id": 93053708, "state": 3, "round": 2, "fullRoundText": "Winners Quarter-Final", "completedAt": 1756063759, "winnerId": 21055752, "slots": [{"id": "93053708-0", "entrant": {"id": 21062510, "name": "Snail", "participants": [{"id": 19369211, "gamerTag": "Snail", "prefix": null, "user": {"location": {"city": "Augusta", "state": "GA", "country": "United States"}}, "player": {"id": 1659733, "gamerTag": "Snail", "prefix": null, "user": {"location": {"city": "Augusta", "state": "GA", "country": "United States"}}}}]}, "standing": {"placement": 2, "stats": {"score": {"value": 0}}}}, {"id": "93053708-1", "entrant": {"id": 21055752, "name": "cheddarcola", "participants": [{"id": 19368588, "gamerTag": "cheddarcola", "prefix": null, "user": {"location": {"city": null, "state": null, "country": "United States"}}, "player": {"id": 4724537, "gamerTag": "cheddarcola", "prefix": null, "user": {"location": {"city": null, "state": null, "country": "United States"}}}}]}, "standing": {"placement": 1, "stats": {"score": {"value": 2}}}}], "games": null}, {"id": 93053709, "state": 3, "round": 2, "fullRoundText": "Winners Quarter-Final", "completedAt": 1756065578, "winnerId": 21062485, "slots": [{"id": "93053709-0", "entrant": {"id": 21062485, "name": "LTS | Akane", "participants": [{"id": 19374579, "gamerTag": "Akane", "prefix": "LTS", "user": {"location": {"city": "Martinez", "state": "GA", "country": "United States"}}, "player": {"id": 1082873, "gamerTag": "Akane", "prefix": "LTS", "user": {"location": {"city": "Martinez", "state": "GA", "country": "United States"}}}}]}, "standing": {"placement": 1, "stats": {"score": {"value": 2}}}}, {"id": "93053709-1", "entrant": {"id": 21060006, "name": "Se.T! | GioGiost", "participants": [{"id": 19372185, "gamerTag": "GioGiost", "prefix": "Se.T!", "user": {"location": {"city": null, "state": null, "country": null}}, "player": {"id": 2221369, "gamerTag": "GioGiost", "prefix": "Se.T!", "user": {"location": {"city": null, "state": null, "country": null}}}}]}, "standing": {"placement": 2, "stats": {"score": {"value": 0}}}}], "games": null}, {"id": 93053699, "state": 3, "round": 1, "fullRoundText": "Winners Round 1", "completedAt": 1756063065, "winnerId": 21014017, "slots": [{"id": "93053699-0", "entrant": {"id": 21014017, "name": "Shifty", "participants": [{"id": 19330844, "gamerTag": "Shifty", "prefix": "", "user": {"location": {"city": "Evans", "state": "GA", "country": "United States"}}, "player": {"id": 4387897, "gamerTag": "Shifty", "prefix": "", "user": {"location": {"city": "Evans", "state": "GA", "country": "United States"}}}}]}, "standing": {"placement": 1, "stats": {"score": {"value": 2}}}}, {"id": "93053699-1", "entrant": {"id": 21050082, "name": "Greenbean", "participants": [{"id": 19363503, "gamerTag": "Greenbean", "prefix": null, "user": {"location": {"city": "Augusta", "state": "GA", "country": "United States"}}, "player": {"id": 2249747, "gamerTag": "Greenbean", "prefix": null, "user": {"location": {"city": "Augusta", "state": "GA", "country": "United States"}}}}]}, "standing": {"placement": 2, "stats": {"score": {"value": 1}}}}], "games": null}, {"id": 93053700, "state": 3, "round": 1, "fullRoundText": "Winners Round 1", "completedAt": 1756067274, "winnerId": 20997364, "slots": [{"id": "93053700-0", "entrant": {"id": 20997364, "name": "HAND$OME", "participants": [{"id": 19315244, "gamerTag": "HAND$OME", "prefix": null, "user": {"location": {"city": null, "state": "GA", "country": "United States"}}, "player": {"id": 813037, "gamerTag": "HAND$OME", "prefix": null, "user": {"location": {"city": null, "state": "GA", "country": "United States"}}}}]}, "standing": {"placement": 1, "stats": {"score": {"value": 2}}}}, {"id": "93053700-1", "entrant": {"id": 21062483, "name": "ATLRiot", "participants": [{"id": 19266092, "gamerTag": "ATLRiot", "prefix": null, "user": {"location": {"city": "Augusta", "state": "GA", "country": "United States"}}, "player": {"id": 2057913, "gamerTag": "ATLRiot", "prefix": "", "user": {"location": {"city": "Augusta", "state": "GA", "country": "United States"}}}}]}, "standing": {"placement": 2, "stats": {"score": {"value": 1}}}}], "games": null}, {"id": 93053701, "state": 3, "round": 1, "fullRoundText": "Winners Round 1", "completedAt": 1756067617, "winnerId": 20998869, "slots": [{"id": "93053701-0", "entrant": {"id": 20998869, "name": "CV | NiNE", "participants": [{"id": 19316676, "gamerTag": "NiNE", "prefix": "CV", "user": {"location": {"city": "Augusta", "state": "GA", "country": "United States"}}, "player": {"id": 25337, "gamerTag": "NiNE", "prefix": "CV", "user": {"location": {"city": "Augusta", "state": "GA", "country": "United States"}}}}]}, "standing": {"placement": 1, "stats": {"score": {"value": 2}}}}, {"id": "93053701-1", "entrant": {"id": 21060132, "name": "Licorice", "participants": [{"id": 19372323, "gamerTag": "Licorice", "prefix": "", "user": {"location": {"city": null, "state": "GA", "country": "United States"}}, "player": {"id": 3559388, "gamerTag": "Licorice", "prefix": "", "user": {"location": {"city": null, "state": "GA", "country": "United States"}}}}]}, "standing": {"placement": 2, "stats": {"score": {"value": 0}}}}], "games": null}, {"id": 93053702, "state": 3, "round": 1, "fullRoundText": "Winners Round 1", "completedAt": 1756063073, "winnerId": 21062510, "slots": [{"id": "93053702-0", "entrant": {"id": 20949372, "name": "JollyPie", "participants": [{"id": 19274084, "gamerTag": "JollyPie", "prefix": "", "user": {"location": {"city": "Oakton", "state": "VA", "country": "United States"}}, "player": {"id": 434421, "gamerTag": "JollyPie", "prefix": "", "user": {"location": {"city": "Oakton", "state": "VA", "country": "United States"}}}}]}, "standing": {"placement": 2, "stats": {"score": {"value": 0}}}}, {"id": "93053702-1", "entrant": {"id": 21062510, "name": "Snail", "participants": [{"id": 19369211, "gamerTag": "Snail", "prefix": null, "user": {"location": {"city": "Augusta", "state": "GA", "country": "United States"}}, "player": {"id": 1659733, "gamerTag": "Snail", "prefix": null, "user": {"location": {"city": "Augusta", "state": "GA", "country": "United States"}}}}]}, "standing": {"placement": 1, "stats": {"score": {"value": 2}}}}], "games": null}, {"id": 93053703, "state": 3, "round": 1, "fullRoundText": "Winners Round 1", "completedAt": 1756063439, "winnerId": 21055752, "slots": [{"id": "93053703-0", "entrant": {"id": 21007649, "name": "Amatsumara", "participants": [{"id": 19325063, "gamerTag": "Amatsumara", "prefix": "", "user": {"location": {"city": null, "state": null, "country": "United States"}}, "player": {"id": 3592419, "gamerTag": "Amatsumara", "prefix": "", "user": {"location": {"city": null, "state": null, "country": "United States"}}}}]}, "standing": {"placement": 2, "stats": {"score": {"value": 0}}}}, {"id": "93053703-1", "entrant": {"id": 21055752, "name": "cheddarcola", "participants": [{"id": 19368588, "gamerTag": "cheddarcola", "prefix": null, "user": {"location": {"city": null, "state": null, "country": "United States"}}, "player": {"id": 4724537, "gamerTag": "cheddarcola", "prefix": null, "user": {"location": {"city": null, "state": null, "country": "United States"}}}}]}, "standing": {"placement": 1, "stats": {"score": {"value": 2}}}}], "games": null}, {"id": 93053704, "state": 3, "round": 1, "fullRoundText": "Winners Round 1", "completedAt": 1756062524, "winnerId": 21062485, "slots": [{"id": "93053704-0", "entrant": {"id": 20964090, "name": "SBG | pick", "participants": [{"id": 19286380, "gamerTag": "pick", "prefix": "SBG", "user": {"location": {"city": null, "state": null, "country": null}}, "player": {"id": 4151589, "gamerTag": "pick", "prefix": "SBG", "user": {"location": {"city": null, "state": null, "country": null}}}}]}, "standing": {"placement": 2, "stats": {"score": {"value": 0}}}}, {"id": "93053704-1", "entrant": {"id": 21062485, "name": "LTS | Akane", "participants": [{"id": 19374579, "gamerTag": "Akane", "prefix": "LTS", "user": {"location": {"city": "Martinez", "state": "GA", "country": "United States"}}, "player": {"id": 1082873, "gamerTag": "Akane", "prefix": "LTS", "user": {"location": {"city": "Martinez", "state": "GA", "country": "United States"}}}}]}, "standing": {"placement": 1, "stats": {"score": {"value": 2}}}}], "games": null}, {"id": 93053705, "state": 3, "round": 1, "fullRoundText": "Winners Round 1", "completedAt": 1756065033, "winnerId": 21060006, "slots": [{"id": "93053705-0", "entrant": {"id": 21005670, "name": "Shiki Senpai", "participants": [{"id": 19323302, "gamerTag": "Shiki Senpai", "prefix": null, "user": {"location": {"city": null, "state": "GA", "country": "United States"}}, "player": {"id": 2254075, "gamerTag": "Shiki Senpai", "prefix": "TMNS", "user": {"location": {"city": null, "state": "GA", "country": "United States"}}}}]}, "standing": {"placement": 2, "stats": {"score": {"value": 0}}}}, {"id": "93053705-1", "entrant": {"id": 21060006, "name": "Se.T! | GioGiost", "participants": [{"id": 19372185, "gamerTag": "GioGiost", "prefix": "Se.T!", "user": {"location": {"city": null, "state": null, "country": null}}, "player": {"id": 2221369, "gamerTag": "GioGiost", "prefix": "Se.T!", "user": {"location": {"city": null, "state": null, "country": null}}}}]}, "standing": {"placement": 1, "stats": {"score": {"value": 2}}}}], "games": null}, {"id": 93053732, "state": 1, "round": -3, "fullRoundText": "Losers Round 1", "completedAt": null, "winnerId": null, "slots": [{"id": "93053732-0", "entrant": {"id": 21062483, "name": "ATLRiot", "participants": [{"id": 19266092, "gamerTag": "ATLRiot", "prefix": null, "user": {"location": {"city": "Augusta", "state": "GA", "country": "United States"}}, "player": {"id": 2057913, "gamerTag": "ATLRiot", "prefix": "", "user": {"location": {"city": "Augusta", "state": "GA", "country": "United States"}}}}]}, "standing": {"placement": 2, "stats": {"score": {"value": null}}}}, {"id": "93053732-1", "entrant": {"id": 21060132, "name": "Licorice", "participants": [{"id": 19372323, "gamerTag": "Licorice", "prefix": "", "user": {"location": {"city": null, "state": "GA", "country": "United States"}}, "player": {"id": 3559388, "gamerTag": "Licorice", "prefix": "", "user": {"location": {"city": null, "state": "GA", "country": "United States"}}}}]}, "standing": {"placement": 2, "stats": {"score": {"value": null}}}}], "games": null}]}}}