{"phase": {"seeds": {"pageInfo": {"totalPages": 1, "total": 12}, "nodes": [{"id": 36121193, "seedNum": 1, "entrant": {"id": 20944181, "name": "Gorduri Cap", "participants": [{"id": 19269483, "gamerTag": "Gorduri Cap", "prefix": "", "user": {"location": {"city": "", "state": "AK", "country": "United States"}}, "player": {"id": 2068683, "gamerTag": "Spauldo", "prefix": "", "user": {"location": {"city": "", "state": "AK", "country": "United States"}}}}]}}, {"id": 36119426, "seedNum": 2, "entrant": {"id": 20942795, "name": "SE UNI | Shuri", "participants": [{"id": 19268251, "gamerTag": "Shuri", "prefix": "SE UNI", "user": {"location": {"city": "Bonaire", "state": "GA", "country": "United States"}}, "player": {"id": 183894, "gamerTag": "Shuri", "prefix": "SE UNI", "user": {"location": {"city": "Bonaire", "state": "GA", "country": "United States"}}}}]}}, {"id": 36120931, "seedNum": 3, "entrant": {"id": 20943954, "name": "ATLRiot", "participants": [{"id": 19269312, "gamerTag": "ATLRiot", "prefix": "", "user": {"location": {"city": "Augusta", "state": "GA", "country": "United States"}}, "player": {"id": 2057913, "gamerTag": "ATLRiot", "prefix": "", "user": {"location": {"city": "Augusta", "state": "GA", "country": "United States"}}}}]}}, {"id": 36198631, "seedNum": 10, "entrant": {"id": 20987360, "name": "Chato", "participants": [{"id": 19306623, "gamerTag": "Chato", "prefix": null, "user": {"location": {"city": null, "state": null, "country": null}}, "player": {"id": 657291, "gamerTag": "Chato", "prefix": null, "user": {"location": {"city": null, "state": null, "country": null}}}}]}}, {"id": 36189704, "seedNum": 4, "entrant": {"id": 20982016, "name": "MrMixtape", "participants": [{"id": 19302404, "gamerTag": "MrMixtape", "prefix": null, "user": {"location": {"city": null, "state": null, "country": null}}, "player": {"id": 3930310, "gamerTag": "MrMixtape", "prefix": null, "user": {"location": {"city": null, "state": null, "country": null}}}}]}}, {"id": 36127380, "seedNum": 12, "entrant": {"id": 20947551, "name": "Foam Root", "participants": [{"id": 19272375, "gamerTag": "Foam Root", "prefix": "", "user": {"location": {"city": "Covington", "state": "GA", "country": "United States"}}, "player": {"id": 541222, "gamerTag": "Foam Root", "prefix": "", "user": {"location": {"city": "Covington", "state": "GA", "country": "United States"}}}}]}}, {"id": 36200264, "seedNum": 6, "entrant": {"id": 20988633, "name": "Luff", "participants": [{"id": 19288626, "gamerTag": "Luff", "prefix": null, "user": {"location": {"city": "Savannah", "state": "GA", "country": "United States"}}, "player": {"id": 4102348, "gamerTag": "Luff", "prefix": "SQ1", "user": {"location": {"city": "Savannah", "state": "GA", "country": "United States"}}}}]}}, {"id": 36142543, "seedNum": 8, "entrant": {"id": 20958471, "name": "DuckiePlz", "participants": [{"id": 19281681, "gamerTag": "DuckiePlz", "prefix": null, "user": {"location": {"city": "Macon", "state": "GA", "country": "United States"}}, "player": {"id": 1236717, "gamerTag": "DuckiePlz", "prefix": null, "user": {"location": {"city": "Macon", "state": "GA", "country": "United States"}}}}]}}, {"id": 36076168, "seedNum": 5, "entrant": {"id": 20913585, "name": "TAC | ChovySalts", "participants": [{"id": 19242338, "gamerTag": "ChovySalts", "prefix": "TAC", "user": {"location": {"city": "Atlanta", "state": "GA", "country": "United States"}}, "player": {"id": 2693940, "gamerTag": "ChovySalts", "prefix": "TAC", "user": {"location": {"city": "Atlanta", "state": "GA", "country": "United States"}}}}]}}, {"id": 36195813, "seedNum": 7, "entrant": {"id": 20985538, "name": "visc", "participants": [{"id": 19305078, "gamerTag": "visc", "prefix": null, "user": {"location": {"city": "Macon", "state": "GA", "country": "United States"}}, "player": {"id": 3662491, "gamerTag": "visc", "prefix": null, "user": {"location": {"city": "Macon", "state": "GA", "country": "United States"}}}}]}}, {"id": 36184534, "seedNum": 9, "entrant": {"id": 20978859, "name": "LOL!", "participants": [{"id": 19281775, "gamerTag": "LOL!", "prefix": null, "user": {"location": {"city": "Byron", "state": "GA", "country": "United States"}}, "player": {"id": 730420, "gamerTag": "LOL!", "prefix": "HJE", "user": {"location": {"city": "Byron", "state": "GA", "country": "United States"}}}}]}}, {"id": 36147145, "seedNum": 11, "entrant": {"id": 20961735, "name": "MGA | Hoodlum1012", "participants": [{"id": 19284478, "gamerTag": "Hoodlum1012", "prefix": "MGA", "user": {"location": {"city": "Macon", "state": "GA", "country": "United States"}}, "player": {"id": 855502, "gamerTag": "Hoodlum1012", "prefix": "MGA", "user": {"location": {"city": "Macon", "state": "GA", "country": "United States"}}}}]}}]}}}