{"phase": {"seeds": {"pageInfo": {"totalPages": 1, "total": 31}, "nodes": [{"id": 35804607, "seedNum": 4, "entrant": {"id": 20751567, "name": "TnT | Sid", "participants": [{"id": 19097030, "gamerTag": "Sid", "prefix": "TnT", "user": {"location": {"city": "Powder Springs", "state": "GA", "country": "United States"}}, "player": {"id": 1229067, "gamerTag": "Sid", "prefix": "TnT", "user": {"location": {"city": "Powder Springs", "state": "GA", "country": "United States"}}}}]}}, {"id": 35801659, "seedNum": 7, "entrant": {"id": 20749313, "name": "TFT | ALLEYCAT", "participants": [{"id": 19094879, "gamerTag": "ALLEYCAT", "prefix": "TFT", "user": {"location": {"city": "Atlanta", "state": "GA", "country": "United States"}}, "player": {"id": 1940654, "gamerTag": "ALLEYCAT", "prefix": "TFT", "user": {"location": {"city": "Atlanta", "state": "GA", "country": "United States"}}}}]}}, {"id": 35802384, "seedNum": 8, "entrant": {"id": 20749834, "name": "Penguin", "participants": [{"id": 19095390, "gamerTag": "Penguin", "prefix": "", "user": {"location": {"city": "Atlanta", "state": "GA", "country": "United States"}}, "player": {"id": 4287822, "gamerTag": "Heart", "prefix": "", "user": {"location": {"city": "Atlanta", "state": "GA", "country": "United States"}}}}]}}, {"id": 35804771, "seedNum": 11, "entrant": {"id": 20751713, "name": "TFT | Juug$tarr", "participants": [{"id": 19097176, "gamerTag": "Juug$tarr", "prefix": "TFT", "user": {"location": {"city": "Atlanta", "state": "GA", "country": "United States"}}, "player": {"id": 3621035, "gamerTag": "Juug$tarr", "prefix": "TFT", "user": {"location": {"city": "Atlanta", "state": "GA", "country": "United States"}}}}]}}, {"id": 35711464, "seedNum": 1, "entrant": {"id": 20687231, "name": "TFT | Frank", "participants": [{"id": 19040321, "gamerTag": "Frank", "prefix": "TFT", "user": {"location": {"city": "Doraville", "state": "GA", "country": "United States"}}, "player": {"id": 1227401, "gamerTag": "Terry Labonte", "prefix": "TFT", "user": {"location": {"city": "Doraville", "state": "GA", "country": "United States"}}}}]}}, {"id": 35804937, "seedNum": 2, "entrant": {"id": 20751841, "name": "GUMP2 | RoKu", "participants": [{"id": 19097300, "gamerTag": "RoKu", "prefix": "GUMP2", "user": {"location": {"city": "Peachtree Corners", "state": "GA", "country": "United States"}}, "player": {"id": 1107285, "gamerTag": "RoKu", "prefix": "TFT", "user": {"location": {"city": "Peachtree Corners", "state": "GA", "country": "United States"}}}}]}}, {"id": 35803378, "seedNum": 3, "entrant": {"id": 20750542, "name": "WFF | Happy", "participants": [{"id": 19096033, "gamerTag": "Happy", "prefix": "WFF", "user": {"location": {"city": "Peachtree CIty", "state": "GA", "country": "United States"}}, "player": {"id": 1383907, "gamerTag": "Happy", "prefix": "WFF", "user": {"location": {"city": "Peachtree CIty", "state": "GA", "country": "United States"}}}}]}}, {"id": 35803999, "seedNum": 5, "entrant": {"id": 20751045, "name": "TnT | Damp\u00e9", "participants": [{"id": 19096524, "gamerTag": "Damp\u00e9", "prefix": "TnT", "user": {"location": {"city": "Atlanta", "state": "GA", "country": "United States"}}, "player": {"id": 1170738, "gamerTag": "Damp\u00e9", "prefix": "TnT", "user": {"location": {"city": "Atlanta", "state": "GA", "country": "United States"}}}}]}}, {"id": 35804871, "seedNum": 9, "entrant": {"id": 20751805, "name": "Jdaddy", "participants": [{"id": 19097263, "gamerTag": "Jdaddy", "prefix": null, "user": {"location": {"city": "Atlanta", "state": "GA", "country": "United States"}}, "player": {"id": 4384721, "gamerTag": "Jdaddy", "prefix": null, "user": {"location": {"city": "Atlanta", "state": "GA", "country": "United States"}}}}]}}, {"id": 35802943, "seedNum": 10, "entrant": {"id": 20750239, "name": "RM | WFF | Sakruoi", "participants": [{"id": 19095762, "gamerTag": "Sakruoi", "prefix": "RM | WFF", "user": {"location": {"city": "atlanta", "state": "GA", "country": "United States"}}, "player": {"id": 1230555, "gamerTag": "Sakruoi", "prefix": "RM | WFF", "user": {"location": {"city": "atlanta", "state": "GA", "country": "United States"}}}}]}}, {"id": 35804964, "seedNum": 15, "entrant": {"id": 20751869, "name": "RM | lawl", "participants": [{"id": 19097328, "gamerTag": "lawl", "prefix": "RM", "user": {"location": {"city": "Dacula", "state": "GA", "country": "United States"}}, "player": {"id": 2116990, "gamerTag": "lawl", "prefix": "RM", "user": {"location": {"city": "Dacula", "state": "GA", "country": "United States"}}}}]}}, {"id": 35804711, "seedNum": 20, "entrant": {"id": 20751669, "name": "Fishboi", "participants": [{"id": 19097132, "gamerTag": "Fishboi", "prefix": null, "user": {"location": {"city": "Peachtree Corners", "state": "GA", "country": "United States"}}, "player": {"id": 1540302, "gamerTag": "Fishboi", "prefix": null, "user": {"location": {"city": "Peachtree Corners", "state": "GA", "country": "United States"}}}}]}}, {"id": 35803660, "seedNum": 12, "entrant": {"id": 20750744, "name": "Mickeydeez", "participants": [{"id": 19096230, "gamerTag": "Mickeydeez", "prefix": "", "user": {"location": {"city": "Atlanta", "state": "GA", "country": "United States"}}, "player": {"id": 4825580, "gamerTag": "Mickeydeez", "prefix": "", "user": {"location": {"city": "Atlanta", "state": "GA", "country": "United States"}}}}]}}, {"id": 35758525, "seedNum": 17, "entrant": {"id": 20721072, "name": "WHOLE MILK", "participants": [{"id": 19070125, "gamerTag": "WHOLE MILK", "prefix": "", "user": {"location": {"city": "New York", "state": null, "country": "United States"}}, "player": {"id": 2981252, "gamerTag": "WHOLE MILK", "prefix": "", "user": {"location": {"city": "New York", "state": null, "country": "United States"}}}}]}}, {"id": 35802449, "seedNum": 18, "entrant": {"id": 20749897, "name": "TFT | yxngcyborg", "participants": [{"id": 19095457, "gamerTag": "yxngcyborg", "prefix": "TFT", "user": {"location": {"city": "Atlanta", "state": "GA", "country": "United States"}}, "player": {"id": 1751817, "gamerTag": "Ricky Rudd", "prefix": "TFT", "user": {"location": {"city": "Atlanta", "state": "GA", "country": "United States"}}}}]}}, {"id": 35804965, "seedNum": 19, "entrant": {"id": 20751870, "name": "mahdi", "participants": [{"id": 19097329, "gamerTag": "mahdi", "prefix": "", "user": {"location": {"city": "Stone Mountain", "state": "GA", "country": "United States"}}, "player": {"id": 1885270, "gamerTag": "mahdi", "prefix": "", "user": {"location": {"city": "Stone Mountain", "state": "GA", "country": "United States"}}}}]}}, {"id": 35804970, "seedNum": 6, "entrant": {"id": 20751875, "name": "PhaZe", "participants": [{"id": 19097333, "gamerTag": "PhaZe", "prefix": "", "user": {"location": {"city": "Gainesville", "state": "GA", "country": "United States"}}, "player": {"id": 36212, "gamerTag": "PhaZe", "prefix": "", "user": {"location": {"city": "Gainesville", "state": "GA", "country": "United States"}}}}]}}, {"id": 35805003, "seedNum": 14, "entrant": {"id": 20751909, "name": "Zarek", "participants": [{"id": 19097367, "gamerTag": "Zarek", "prefix": "", "user": {"location": {"city": "Atlanta", "state": "GA", "country": "United States"}}, "player": {"id": 405682, "gamerTag": "Zarek", "prefix": "", "user": {"location": {"city": "Atlanta", "state": "GA", "country": "United States"}}}}]}}, {"id": 35804685, "seedNum": 16, "entrant": {"id": 20751644, "name": "Nurikami", "participants": [{"id": 19097110, "gamerTag": "Nurikami", "prefix": null, "user": {"location": {"city": "Sandy Springs", "state": "GA", "country": "United States"}}, "player": {"id": 2894467, "gamerTag": "Nurikami", "prefix": null, "user": {"location": {"city": "Sandy Springs", "state": "GA", "country": "United States"}}}}]}}, {"id": 35804667, "seedNum": 21, "entrant": {"id": 20751627, "name": "Mrbray30", "participants": [{"id": 19097091, "gamerTag": "Mrbray30", "prefix": "", "user": {"location": {"city": "Atlanta", "state": "GA", "country": "United States"}}, "player": {"id": 4664413, "gamerTag": "Mrbray30", "prefix": "", "user": {"location": {"city": "Atlanta", "state": "GA", "country": "United States"}}}}]}}, {"id": 35804864, "seedNum": 22, "entrant": {"id": 20751799, "name": "Toasty", "participants": [{"id": 19097256, "gamerTag": "Toasty", "prefix": "", "user": {"location": {"city": "Atlanta", "state": "GA", "country": "United States"}}, "player": {"id": 1632443, "gamerTag": "Toasty", "prefix": "", "user": {"location": {"city": "Atlanta", "state": "GA", "country": "United States"}}}}]}}, {"id": 35803136, "seedNum": 23, "entrant": {"id": 20750324, "name": "Jahku$ha", "participants": [{"id": 19095838, "gamerTag": "Jahku$ha", "prefix": "", "user": {"location": {"city": "Atlanta", "state": "GA", "country": "United States"}}, "player": {"id": 4559746, "gamerTag": "Jahku$ha", "prefix": "", "user": {"location": {"city": "Atlanta", "state": "GA", "country": "United States"}}}}]}}, {"id": 35804574, "seedNum": 24, "entrant": {"id": 20751531, "name": "assclapFGC", "participants": [{"id": 19096998, "gamerTag": "assclapFGC", "prefix": "", "user": {"location": {"city": "Scottdale", "state": "GA", "country": "United States"}}, "player": {"id": 3481864, "gamerTag": "assclapFGC", "prefix": "", "user": {"location": {"city": "Scottdale", "state": "GA", "country": "United States"}}}}]}}, {"id": 35803796, "seedNum": 29, "entrant": {"id": 20750860, "name": "Cash", "participants": [{"id": 19096330, "gamerTag": "Cash", "prefix": "", "user": {"location": {"city": "Atlanta", "state": "GA", "country": "United States"}}, "player": {"id": 4879701, "gamerTag": "Cash", "prefix": "", "user": {"location": {"city": "Atlanta", "state": "GA", "country": "United States"}}}}]}}, {"id": 35804824, "seedNum": 13, "entrant": {"id": 20751757, "name": "MTM | Bob Weiner", "participants": [{"id": 19097213, "gamerTag": "Bob Weiner", "prefix": "MTM", "user": {"location": {"city": "Kennesaw", "state": "GA", "country": "United States"}}, "player": {"id": 2142601, "gamerTag": "Bob Weiner", "prefix": "MTM", "user": {"location": {"city": "Kennesaw", "state": "GA", "country": "United States"}}}}]}}, {"id": 35804775, "seedNum": 25, "entrant": {"id": 20751717, "name": "Kev", "participants": [{"id": 19097180, "gamerTag": "Kev", "prefix": "", "user": {"location": {"city": "Manhattan", "state": null, "country": "United States"}}, "player": {"id": 3824468, "gamerTag": "Kev", "prefix": "", "user": {"location": {"city": "Manhattan", "state": null, "country": "United States"}}}}]}}, {"id": 35804506, "seedNum": 26, "entrant": {"id": 20751486, "name": "Blaine-O", "participants": [{"id": 19096954, "gamerTag": "Blaine-O", "prefix": null, "user": {"location": {"city": "Atlanta", "state": "GA", "country": "United States"}}, "player": {"id": 2235020, "gamerTag": "Blaine-O", "prefix": null, "user": {"location": {"city": "Atlanta", "state": "GA", "country": "United States"}}}}]}}, {"id": 35804825, "seedNum": 27, "entrant": {"id": 20751759, "name": "Hollybot", "participants": [{"id": 19097214, "gamerTag": "Hollybot", "prefix": null, "user": {"location": {"city": "Atlanta", "state": "GA", "country": "United States"}}, "player": {"id": 4431125, "gamerTag": "Hollybot", "prefix": null, "user": {"location": {"city": "Atlanta", "state": "GA", "country": "United States"}}}}]}}, {"id": 35804817, "seedNum": 28, "entrant": {"id": 20751751, "name": "Dazey", "participants": [{"id": 19097209, "gamerTag": "Dazey", "prefix": "", "user": {"location": {"city": "Atlanta", "state": "GA", "country": "United States"}}, "player": {"id": 4879983, "gamerTag": "Dazey", "prefix": "", "user": {"location": {"city": "Atlanta", "state": "GA", "country": "United States"}}}}]}}, {"id": 35805001, "seedNum": 30, "entrant": {"id": 20751907, "name": "buffer1", "participants": [{"id": 19097364, "gamerTag": "buffer1", "prefix": "", "user": null, "player": {"id": 4042082, "gamerTag": "buffer1", "prefix": "", "user": null}}]}}, {"id": 35805002, "seedNum": 31, "entrant": {"id": 20751908, "name": "buffer2", "participants": [{"id": 19097366, "gamerTag": "buffer2", "prefix": "", "user": null, "player": {"id": 4042083, "gamerTag": "buffer2", "prefix": "", "user": null}}]}}]}}}