{"event": {"sets": {"pageInfo": {"totalPages": 2, "total": 26}, "nodes": [{"id": 93147950, "state": 3, "round": -4, "fullRoundText": "Losers Round 2", "completedAt": 1756340789, "winnerId": 21089009, "slots": [{"id": "93147950-0", "entrant": {"id": 21089009, "name": "red dot", "participants": [{"id": 19398512, "gamerTag": "red dot", "prefix": "", "user": {"location": {"city": "Milton", "state": "GA", "country": "United States"}}, "player": {"id": 1812177, "gamerTag": "red dot", "prefix": "", "user": {"location": {"city": "Milton", "state": "GA", "country": "United States"}}}}]}, "standing": {"placement": 1, "stats": {"score": {"value": 2}}}}, {"id": "93147950-1", "entrant": {"id": 21093528, "name": "WDKL MTM | D*ron", "participants": [{"id": 19402669, "gamerTag": "D*ron", "prefix": "WDKL MTM", "user": {"location": {"city": "Smyrna", "state": "GA", "country": "United States"}}, "player": {"id": 516047, "gamerTag": "D*ron", "prefix": "WDKL MTM", "user": {"location": {"city": "Smyrna", "state": "GA", "country": "United States"}}}}]}, "standing": {"placement": 2, "stats": {"score": {"value": 0}}}}], "games": [{"id": 32185299, "orderNum": 1, "winnerId": 21089009, "entrant1Score": null, "entrant2Score": 0, "stage": null, "selections": [{"id": 47433200, "selectionType": "CHARACTER", "selectionValue": 1410, "entrant": {"id": 21089009}, "character": {"id": 1410, "name": "Ken"}}, {"id": 47433201, "selectionType": "CHARACTER", "selectionValue": 1341, "entrant": {"id": 21093528}, "character": {"id": 1341, "name": "Zero Suit Samus"}}]}, {"id": 32185300, "orderNum": 2, "winnerId": 21089009, "entrant1Score": null, "entrant2Score": 0, "stage": null, "selections": [{"id": 47433202, "selectionType": "CHARACTER", "selectionValue": 1410, "entrant": {"id": 21089009}, "character": {"id": 1410, "name": "Ken"}}, {"id": 47433203, "selectionType": "CHARACTER", "selectionValue": 1341, "entrant": {"id": 21093528}, "character": {"id": 1341, "name": "Zero Suit Samus"}}]}]}, {"id": 93147951, "state": 3, "round": -4, "fullRoundText": "Losers Round 2", "completedAt": 1756340625, "winnerId": 21091488, "slots": [{"id": "93147951-0", "entrant": {"id": 21091488, "name": "Rain~", "participants": [{"id": 19400826, "gamerTag": "Rain~", "prefix": null, "user": {"location": {"city": "Atlanta", "state": "GA", "country": "United States"}}, "player": {"id": 4240164, "gamerTag": "Rain~", "prefix": null, "user": {"location": {"city": "Atlanta", "state": "GA", "country": "United States"}}}}]}, "standing": {"placement": 1, "stats": {"score": {"value": 2}}}}, {"id": "93147951-1", "entrant": {"id": 21092516, "name": "KSU | colorful\u029a\u025e", "participants": [{"id": 19401757, "gamerTag": "colorful\u029a\u025e", "prefix": "KSU", "user": {"location": {"city": "Kennesaw", "state": "GA", "country": "United States"}}, "player": {"id": 1783074, "gamerTag": "colorful\u029a\u025e", "prefix": "KSU | RM", "user": {"location": {"city": "Kennesaw", "state": "GA", "country": "United States"}}}}]}, "standing": {"placement": 2, "stats": {"score": {"value": 1}}}}], "games": [{"id": 32185051, "orderNum": 1, "winnerId": 21092516, "entrant1Score": 0, "entrant2Score": null, "stage": null, "selections": [{"id": 47432951, "selectionType": "CHARACTER", "selectionValue": 1329, "entrant": {"id": 21091488}, "character": {"id": 1329, "name": "Sheik"}}, {"id": 47432952, "selectionType": "CHARACTER", "selectionValue": 1275, "entrant": {"id": 21092516}, "character": {"id": 1275, "name": "Cloud"}}]}, {"id": 32185052, "orderNum": 2, "winnerId": 21091488, "entrant1Score": null, "entrant2Score": 0, "stage": null, "selections": [{"id": 47432953, "selectionType": "CHARACTER", "selectionValue": 1292, "entrant": {"id": 21091488}, "character": {"id": 1292, "name": "Inkling"}}, {"id": 47432954, "selectionType": "CHARACTER", "selectionValue": 1275, "entrant": {"id": 21092516}, "character": {"id": 1275, "name": "Cloud"}}]}, {"id": 32185053, "orderNum": 3, "winnerId": 21091488, "entrant1Score": null, "entrant2Score": 0, "stage": null, "selections": [{"id": 47432955, "selectionType": "CHARACTER", "selectionValue": 1292, "entrant": {"id": 21091488}, "character": {"id": 1292, "name": "Inkling"}}, {"id": 47432956, "selectionType": "CHARACTER", "selectionValue": 1275, "entrant": {"id": 21092516}, "character": {"id": 1275, "name": "Cloud"}}]}]}, {"id": 93147952, "state": 3, "round": -4, "fullRoundText": "Losers Round 2", "completedAt": 1756340799, "winnerId": 21091258, "slots": [{"id": "93147952-0", "entrant": {"id": 21091258, "name": "Boo", "participants": [{"id": 19400603, "gamerTag": "Boo", "prefix": "", "user": {"location": {"city": "Cumming", "state": "GA", "country": "United States"}}, "player": {"id": 2647915, "gamerTag": "Boo", "prefix": "", "user": {"location": {"city": "Cumming", "state": "GA", "country": "United States"}}}}]}, "standing": {"placement": 1, "stats": {"score": {"value": 2}}}}, {"id": "93147952-1", "entrant": {"id": 21092182, "name": "promamamia", "participants": [{"id": 19401435, "gamerTag": "promamamia", "prefix": "", "user": {"location": {"city": "Alpharetta", "state": "GA", "country": "United States"}}, "player": {"id": 3548468, "gamerTag": "promamamia", "prefix": "", "user": {"location": {"city": "Alpharetta", "state": "GA", "country": "United States"}}}}]}, "standing": {"placement": 2, "stats": {"score": {"value": 0}}}}], "games": [{"id": 32185319, "orderNum": 1, "winnerId": 21091258, "entrant1Score": null, "entrant2Score": 0, "stage": null, "selections": [{"id": 47433218, "selectionType": "CHARACTER", "selectionValue": 1405, "entrant": {"id": 21091258}, "character": {"id": 1405, "name": "Mr. Game & Watch"}}, {"id": 47433219, "selectionType": "CHARACTER", "selectionValue": 1326, "entrant": {"id": 21092182}, "character": {"id": 1326, "name": "Roy"}}]}, {"id": 32185320, "orderNum": 2, "winnerId": 21091258, "entrant1Score": null, "entrant2Score": 0, "stage": null, "selections": [{"id": 47433220, "selectionType": "CHARACTER", "selectionValue": 1405, "entrant": {"id": 21091258}, "character": {"id": 1405, "name": "Mr. Game & Watch"}}, {"id": 47433221, "selectionType": "CHARACTER", "selectionValue": 1326, "entrant": {"id": 21092182}, "character": {"id": 1326, "name": "Roy"}}]}]}, {"id": 93147946, "state": 3, "round": -3, "fullRoundText": "Losers Round 1", "completedAt": 1756339754, "winnerId": 21093528, "slots": [{"id": "93147946-0", "entrant": {"id": 21093438, "name": "Zarek", "participants": [{"id": 19402585, "gamerTag": "Zarek", "prefix": "", "user": {"location": {"city": "Atlanta", "state": "GA", "country": "United States"}}, "player": {"id": 405682, "gamerTag": "Zarek", "prefix": "", "user": {"location": {"city": "Atlanta", "state": "GA", "country": "United States"}}}}]}, "standing": {"placement": 2, "stats": {"score": {"value": 1}}}}, {"id": "93147946-1", "entrant": {"id": 21093528, "name": "WDKL MTM | D*ron", "participants": [{"id": 19402669, "gamerTag": "D*ron", "prefix": "WDKL MTM", "user": {"location": {"city": "Smyrna", "state": "GA", "country": "United States"}}, "player": {"id": 516047, "gamerTag": "D*ron", "prefix": "WDKL MTM", "user": {"location": {"city": "Smyrna", "state": "GA", "country": "United States"}}}}]}, "standing": {"placement": 1, "stats": {"score": {"value": 2}}}}], "games": [{"id": 32183720, "orderNum": 1, "winnerId": 21093528, "entrant1Score": 0, "entrant2Score": null, "stage": null, "selections": [{"id": 47431583, "selectionType": "CHARACTER", "selectionValue": 1315, "entrant": {"id": 21093438}, "character": {"id": 1315, "name": "Pac-Man"}}, {"id": 47431584, "selectionType": "CHARACTER", "selectionValue": 1332, "entrant": {"id": 21093528}, "character": {"id": 1332, "name": "Sonic"}}]}, {"id": 32183721, "orderNum": 2, "winnerId": 21093438, "entrant1Score": null, "entrant2Score": 0, "stage": null, "selections": [{"id": 47431585, "selectionType": "CHARACTER", "selectionValue": 1315, "entrant": {"id": 21093438}, "character": {"id": 1315, "name": "Pac-Man"}}, {"id": 47431586, "selectionType": "CHARACTER", "selectionValue": 1332, "entrant": {"id": 21093528}, "character": {"id": 1332, "name": "Sonic"}}]}, {"id": 32183722, "orderNum": 3, "winnerId": 21093528, "entrant1Score": 0, "entrant2Score": null, "stage": null, "selections": [{"id": 47431587, "selectionType": "CHARACTER", "selectionValue": 1315, "entrant": {"id": 21093438}, "character": {"id": 1315, "name": "Pac-Man"}}, {"id": 47431588, "selectionType": "CHARACTER", "selectionValue": 1332, "entrant": {"id": 21093528}, "character": {"id": 1332, "name": "Sonic"}}]}]}, {"id": 93147948, "state": 3, "round": -3, "fullRoundText": "Losers Round 1", "completedAt": 1756340178, "winnerId": 21092182, "slots": [{"id": "93147948-0", "entrant": {"id": 21084840, "name": "IceWave4", "participants": [{"id": 19394811, "gamerTag": "IceWave4", "prefix": null, "user": {"location": {"city": "Dallas", "state": "GA", "country": "United States"}}, "player": {"id": 4191196, "gamerTag": "IceWave4", "prefix": null, "user": {"location": {"city": "Dallas", "state": "GA", "country": "United States"}}}}]}, "standing": {"placement": 2, "stats": {"score": {"value": 0}}}}, {"id": "93147948-1", "entrant": {"id": 21092182, "name": "promamamia", "participants": [{"id": 19401435, "gamerTag": "promamamia", "prefix": "", "user": {"location": {"city": "Alpharetta", "state": "GA", "country": "United States"}}, "player": {"id": 3548468, "gamerTag": "promamamia", "prefix": "", "user": {"location": {"city": "Alpharetta", "state": "GA", "country": "United States"}}}}]}, "standing": {"placement": 1, "stats": {"score": {"value": 2}}}}], "games": [{"id": 32184361, "orderNum": 1, "winnerId": 21092182, "entrant1Score": 0, "entrant2Score": null, "stage": null, "selections": [{"id": 47432275, "selectionType": "CHARACTER", "selectionValue": 1332, "entrant": {"id": 21084840}, "character": {"id": 1332, "name": "Sonic"}}, {"id": 47432276, "selectionType": "CHARACTER", "selectionValue": 1326, "entrant": {"id": 21092182}, "character": {"id": 1326, "name": "Roy"}}]}, {"id": 32184362, "orderNum": 2, "winnerId": 21092182, "entrant1Score": 0, "entrant2Score": null, "stage": null, "selections": [{"id": 47432277, "selectionType": "CHARACTER", "selectionValue": 1332, "entrant": {"id": 21084840}, "character": {"id": 1332, "name": "Sonic"}}, {"id": 47432278, "selectionType": "CHARACTER", "selectionValue": 1326, "entrant": {"id": 21092182}, "character": {"id": 1326, "name": "Roy"}}]}]}, {"id": 93147913, "state": 3, "round": 1, "fullRoundText": "Winners Round 1", "completedAt": 1756338967, "winnerId": 21091258, "slots": [{"id": "93147913-0", "entrant": {"id": 21093994, "name": "carlop", "participants": [{"id": 19403095, "gamerTag": "carlop", "prefix": null, "user": {"location": {"city": "Johns Creek", "state": "GA", "country": "United States"}}, "player": {"id": 3431919, "gamerTag": "carlop", "prefix": null, "user": {"location": {"city": "Johns Creek", "state": "GA", "country": "United States"}}}}]}, "standing": {"placement": 2, "stats": {"score": {"value": 1}}}}, {"id": "93147913-1", "entrant": {"id": 21091258, "name": "Boo", "participants": [{"id": 19400603, "gamerTag": "Boo", "prefix": "", "user": {"location": {"city": "Cumming", "state": "GA", "country": "United States"}}, "player": {"id": 2647915, "gamerTag": "Boo", "prefix": "", "user": {"location": {"city": "Cumming", "state": "GA", "country": "United States"}}}}]}, "standing": {"placement": 1, "stats": {"score": {"value": 2}}}}], "games": [{"id": 32182921, "orderNum": 1, "winnerId": 21091258, "entrant1Score": 0, "entrant2Score": null, "stage": null, "selections": [{"id": 47430692, "selectionType": "CHARACTER", "selectionValue": 1405, "entrant": {"id": 21091258}, "character": {"id": 1405, "name": "Mr. Game & Watch"}}, {"id": 47430693, "selectionType": "CHARACTER", "selectionValue": 1299, "entrant": {"id": 21093994}, "character": {"id": 1299, "name": "Lucas"}}]}, {"id": 32182922, "orderNum": 2, "winnerId": 21093994, "entrant1Score": null, "entrant2Score": 0, "stage": null, "selections": [{"id": 47430694, "selectionType": "CHARACTER", "selectionValue": 1405, "entrant": {"id": 21091258}, "character": {"id": 1405, "name": "Mr. Game & Watch"}}, {"id": 47430695, "selectionType": "CHARACTER", "selectionValue": 1299, "entrant": {"id": 21093994}, "character": {"id": 1299, "name": "Lucas"}}]}, {"id": 32182923, "orderNum": 3, "winnerId": 21091258, "entrant1Score": 0, "entrant2Score": null, "stage": null, "selections": [{"id": 47430696, "selectionType": "CHARACTER", "selectionValue": 1405, "entrant": {"id": 21091258}, "character": {"id": 1405, "name": "Mr. Game & Watch"}}, {"id": 47430697, "selectionType": "CHARACTER", "selectionValue": 1299, "entrant": {"id": 21093994}, "character": {"id": 1299, "name": "Lucas"}}]}]}, {"id": 93147914, "state": 3, "round": 1, "fullRoundText": "Winners Round 1", "completedAt": 1756338540, "winnerId": 21091488, "slots": [{"id": "93147914-0", "entrant": {"id": 21091488, "name": "Rain~", "participants": [{"id": 19400826, "gamerTag": "Rain~", "prefix": null, "user": {"location": {"city": "Atlanta", "state": "GA", "country": "United States"}}, "player": {"id": 4240164, "gamerTag": "Rain~", "prefix": null, "user": {"location": {"city": "Atlanta", "state": "GA", "country": "United States"}}}}]}, "standing": {"placement": 1, "stats": {"score": {"value": 2}}}}, {"id": "93147914-1", "entrant": {"id": 21093438, "name": "Zarek", "participants": [{"id": 19402585, "gamerTag": "Zarek", "prefix": "", "user": {"location": {"city": "Atlanta", "state": "GA", "country": "United States"}}, "player": {"id": 405682, "gamerTag": "Zarek", "prefix": "", "user": {"location": {"city": "Atlanta", "state": "GA", "country": "United States"}}}}]}, "standing": {"placement": 2, "stats": {"score": {"value": 0}}}}], "games": [{"id": 32182607, "orderNum": 1, "winnerId": 21091488, "entrant1Score": null, "entrant2Score": 0, "stage": null, "selections": [{"id": 47430200, "selectionType": "CHARACTER", "selectionValue": 1271, "entrant": {"id": 21091488}, "character": {"id": 1271, "name": "Bayonetta"}}, {"id": 47430201, "selectionType": "CHARACTER", "selectionValue": 1338, "entrant": {"id": 21093438}, "character": {"id": 1338, "name": "Yoshi"}}]}, {"id": 32182608, "orderNum": 2, "winnerId": 21091488, "entrant1Score": null, "entrant2Score": 0, "stage": null, "selections": [{"id": 47430202, "selectionType": "CHARACTER", "selectionValue": 1329, "entrant": {"id": 21091488}, "character": {"id": 1329, "name": "Sheik"}}, {"id": 47430203, "selectionType": "CHARACTER", "selectionValue": 1338, "entrant": {"id": 21093438}, "character": {"id": 1338, "name": "Yoshi"}}]}]}, {"id": 93147915, "state": 3, "round": 1, "fullRoundText": "Winners Round 1", "completedAt": 1756338714, "winnerId": 21088403, "slots": [{"id": "93147915-0", "entrant": {"id": 21088403, "name": "UTO|WhaLey | Kingwifi", "participants": [{"id": 19397978, "gamerTag": "Kingwifi", "prefix": "UTO|WhaLey", "user": {"location": {"city": "Stone Mountain", "state": "GA", "country": "United States"}}, "player": {"id": 2016149, "gamerTag": "Whaley", "prefix": "KSU|UTO|BLZE", "user": {"location": {"city": "Stone Mountain", "state": "GA", "country": "United States"}}}}]}, "standing": {"placement": 1, "stats": {"score": {"value": 2}}}}, {"id": "93147915-1", "entrant": {"id": 21093528, "name": "WDKL MTM | D*ron", "participants": [{"id": 19402669, "gamerTag": "D*ron", "prefix": "WDKL MTM", "user": {"location": {"city": "Smyrna", "state": "GA", "country": "United States"}}, "player": {"id": 516047, "gamerTag": "D*ron", "prefix": "WDKL MTM", "user": {"location": {"city": "Smyrna", "state": "GA", "country": "United States"}}}}]}, "standing": {"placement": 2, "stats": {"score": {"value": 0}}}}], "games": [{"id": 32182732, "orderNum": 1, "winnerId": 21088403, "entrant1Score": null, "entrant2Score": 0, "stage": null, "selections": [{"id": 47430402, "selectionType": "CHARACTER", "selectionValue": 1294, "entrant": {"id": 21088403}, "character": {"id": 1294, "name": "King Dedede"}}, {"id": 47430403, "selectionType": "CHARACTER", "selectionValue": 1340, "entrant": {"id": 21093528}, "character": {"id": 1340, "name": "Zelda"}}]}, {"id": 32182733, "orderNum": 2, "winnerId": 21088403, "entrant1Score": null, "entrant2Score": 0, "stage": null, "selections": [{"id": 47430404, "selectionType": "CHARACTER", "selectionValue": 1294, "entrant": {"id": 21088403}, "character": {"id": 1294, "name": "King Dedede"}}, {"id": 47430405, "selectionType": "CHARACTER", "selectionValue": 1340, "entrant": {"id": 21093528}, "character": {"id": 1340, "name": "Zelda"}}]}]}, {"id": 93147917, "state": 3, "round": 1, "fullRoundText": "Winners Round 1", "completedAt": 1756339206, "winnerId": 21089009, "slots": [{"id": "93147917-0", "entrant": {"id": 21089009, "name": "red dot", "participants": [{"id": 19398512, "gamerTag": "red dot", "prefix": "", "user": {"location": {"city": "Milton", "state": "GA", "country": "United States"}}, "player": {"id": 1812177, "gamerTag": "red dot", "prefix": "", "user": {"location": {"city": "Milton", "state": "GA", "country": "United States"}}}}]}, "standing": {"placement": 1, "stats": {"score": {"value": 2}}}}, {"id": "93147917-1", "entrant": {"id": 21092516, "name": "KSU | colorful\u029a\u025e", "participants": [{"id": 19401757, "gamerTag": "colorful\u029a\u025e", "prefix": "KSU", "user": {"location": {"city": "Kennesaw", "state": "GA", "country": "United States"}}, "player": {"id": 1783074, "gamerTag": "colorful\u029a\u025e", "prefix": "KSU | RM", "user": {"location": {"city": "Kennesaw", "state": "GA", "country": "United States"}}}}]}, "standing": {"placement": 2, "stats": {"score": {"value": 1}}}}], "games": [{"id": 32183105, "orderNum": 1, "winnerId": 21089009, "entrant1Score": null, "entrant2Score": 0, "stage": null, "selections": [{"id": 47430917, "selectionType": "CHARACTER", "selectionValue": 1410, "entrant": {"id": 21089009}, "character": {"id": 1410, "name": "Ken"}}, {"id": 47430918, "selectionType": "CHARACTER", "selectionValue": 1275, "entrant": {"id": 21092516}, "character": {"id": 1275, "name": "Cloud"}}]}, {"id": 32183106, "orderNum": 2, "winnerId": 21092516, "entrant1Score": 0, "entrant2Score": null, "stage": null, "selections": [{"id": 47430919, "selectionType": "CHARACTER", "selectionValue": 1410, "entrant": {"id": 21089009}, "character": {"id": 1410, "name": "Ken"}}, {"id": 47430920, "selectionType": "CHARACTER", "selectionValue": 1275, "entrant": {"id": 21092516}, "character": {"id": 1275, "name": "Cloud"}}]}, {"id": 32183108, "orderNum": 3, "winnerId": 21089009, "entrant1Score": null, "entrant2Score": 0, "stage": null, "selections": [{"id": 47430921, "selectionType": "CHARACTER", "selectionValue": 1410, "entrant": {"id": 21089009}, "character": {"id": 1410, "name": "Ken"}}, {"id": 47430922, "selectionType": "CHARACTER", "selectionValue": 1275, "entrant": {"id": 21092516}, "character": {"id": 1275, "name": "Cloud"}}]}]}, {"id": 93147918, "state": 3, "round": 1, "fullRoundText": "Winners Round 1", "completedAt": 1756339603, "winnerId": 21091294, "slots": [{"id": "93147918-0", "entrant": {"id": 21091294, "name": "GUMP2 | JankTrees!", "participants": [{"id": 19400634, "gamerTag": "JankTrees!", "prefix": "GUMP2", "user": {"location": {"city": "Cartersville", "state": "GA", "country": "United States"}}, "player": {"id": 35695, "gamerTag": "JankTrees!", "prefix": "GUMP2", "user": {"location": {"city": "Cartersville", "state": "GA", "country": "United States"}}}}]}, "standing": {"placement": 1, "stats": {"score": {"value": 2}}}}, {"id": "93147918-1", "entrant": {"id": 21084840, "name": "IceWave4", "participants": [{"id": 19394811, "gamerTag": "IceWave4", "prefix": null, "user": {"location": {"city": "Dallas", "state": "GA", "country": "United States"}}, "player": {"id": 4191196, "gamerTag": "IceWave4", "prefix": null, "user": {"location": {"city": "Dallas", "state": "GA", "country": "United States"}}}}]}, "standing": {"placement": 2, "stats": {"score": {"value": 0}}}}], "games": [{"id": 32183504, "orderNum": 1, "winnerId": 21091294, "entrant1Score": null, "entrant2Score": 0, "stage": null, "selections": [{"id": 47431370, "selectionType": "CHARACTER", "selectionValue": 1332, "entrant": {"id": 21084840}, "character": {"id": 1332, "name": "Sonic"}}, {"id": 47431371, "selectionType": "CHARACTER", "selectionValue": 1338, "entrant": {"id": 21091294}, "character": {"id": 1338, "name": "Yoshi"}}]}, {"id": 32183505, "orderNum": 2, "winnerId": 21091294, "entrant1Score": null, "entrant2Score": 0, "stage": null, "selections": [{"id": 47431372, "selectionType": "CHARACTER", "selectionValue": 1332, "entrant": {"id": 21084840}, "character": {"id": 1332, "name": "Sonic"}}, {"id": 47431373, "selectionType": "CHARACTER", "selectionValue": 1338, "entrant": {"id": 21091294}, "character": {"id": 1338, "name": "Yoshi"}}]}]}, {"id": 93147919, "state": 3, "round": 1, "fullRoundText": "Winners Round 1", "completedAt": 1756338526, "winnerId": 21092045, "slots": [{"id": "93147919-0", "entrant": {"id": 21092045, "name": "PattyOats | \u00c6ON", "participants": [{"id": 19401312, "gamerTag": "\u00c6ON", "prefix": "PattyOats", "user": {"location": {"city": null, "state": null, "country": "United States"}}, "player": {"id": 1437386, "gamerTag": "\u00c6ON", "prefix": "PattyOats", "user": {"location": {"city": null, "state": null, "country": "United States"}}}}]}, "standing": {"placement": 1, "stats": {"score": {"value": 2}}}}, {"id": "93147919-1", "entrant": {"id": 21092182, "name": "promamamia", "participants": [{"id": 19401435, "gamerTag": "promamamia", "prefix": "", "user": {"location": {"city": "Alpharetta", "state": "GA", "country": "United States"}}, "player": {"id": 3548468, "gamerTag": "promamamia", "prefix": "", "user": {"location": {"city": "Alpharetta", "state": "GA", "country": "United States"}}}}]}, "standing": {"placement": 2, "stats": {"score": {"value": 1}}}}], "games": [{"id": 32182592, "orderNum": 1, "winnerId": 21092045, "entrant1Score": null, "entrant2Score": 0, "stage": null, "selections": [{"id": 47430172, "selectionType": "CHARACTER", "selectionValue": 1747, "entrant": {"id": 21092045}, "character": {"id": 1747, "name": "Min Min"}}, {"id": 47430173, "selectionType": "CHARACTER", "selectionValue": 1326, "entrant": {"id": 21092182}, "character": {"id": 1326, "name": "Roy"}}]}, {"id": 32182593, "orderNum": 2, "winnerId": 21092182, "entrant1Score": 0, "entrant2Score": null, "stage": null, "selections": [{"id": 47430174, "selectionType": "CHARACTER", "selectionValue": 1747, "entrant": {"id": 21092045}, "character": {"id": 1747, "name": "Min Min"}}, {"id": 47430175, "selectionType": "CHARACTER", "selectionValue": 1326, "entrant": {"id": 21092182}, "character": {"id": 1326, "name": "Roy"}}]}, {"id": 32182594, "orderNum": 3, "winnerId": 21092045, "entrant1Score": null, "entrant2Score": 0, "stage": null, "selections": [{"id": 47430176, "selectionType": "CHARACTER", "selectionValue": 1747, "entrant": {"id": 21092045}, "character": {"id": 1747, "name": "Min Min"}}, {"id": 47430177, "selectionType": "CHARACTER", "selectionValue": 1326, "entrant": {"id": 21092182}, "character": {"id": 1326, "name": "Roy"}}]}]}]}}}