{"phase": {"seeds": {"pageInfo": {"totalPages": 1, "total": 4}, "nodes": [{"id": 36547692, "seedNum": 1, "entrant": {"id": 21218264, "name": "EVIL | Alas", "participants": [{"id": 19513217, "gamerTag": "Alas", "prefix": "EVIL", "user": {"location": {"city": null, "state": null, "country": null}}, "player": {"id": 25946, "gamerTag": "Alas", "prefix": "EVIL", "user": {"location": {"city": null, "state": null, "country": null}}}}]}}, {"id": 36547779, "seedNum": 3, "entrant": {"id": 21218344, "name": "DD | Kingpoyothefirst", "participants": [{"id": 19513285, "gamerTag": "Kingpoyothefirst", "prefix": "DD", "user": {"location": {"city": null, "state": null, "country": null}}, "player": {"id": 2934299, "gamerTag": "Kingpoyothefirst", "prefix": "DD", "user": {"location": {"city": null, "state": null, "country": null}}}}]}}, {"id": 36575316, "seedNum": 2, "entrant": {"id": 21238609, "name": "Blank", "participants": [{"id": 19531221, "gamerTag": "Blank", "prefix": null, "user": {"location": {"city": "Snellville", "state": "GA", "country": "United States"}}, "player": {"id": 216554, "gamerTag": "Blank", "prefix": null, "user": {"location": {"city": "Snellville", "state": "GA", "country": "United States"}}}}]}}, {"id": 36548194, "seedNum": 4, "entrant": {"id": 21218715, "name": "The Hive | braxton", "participants": [{"id": 19513520, "gamerTag": "braxton", "prefix": "The Hive", "user": {"location": {"city": "Atlanta", "state": "GA", "country": "United States"}}, "player": {"id": 1037821, "gamerTag": "braxton", "prefix": "The Hive", "user": {"location": {"city": "Atlanta", "state": "GA", "country": "United States"}}}}]}}]}}}