{"event": {"sets": {"pageInfo": {"totalPages": 22, "total": 318}, "nodes": [{"id": 92227323, "state": 3, "round": -6, "fullRoundText": "Losers Round 3", "completedAt": 1754171775, "winnerId": 20555303, "slots": [{"id": "92227323-0", "entrant": {"id": 20555303, "name": "MopN", "participants": [{"id": 18925707, "gamerTag": "MopN", "prefix": "", "user": {"location": {"city": "Montevallo", "state": "AL", "country": "United States"}}, "player": {"id": 180688, "gamerTag": "MopN", "prefix": "", "user": {"location": {"city": "Montevallo", "state": "AL", "country": "United States"}}}}]}, "standing": {"placement": 1, "stats": {"score": {"value": 2}}}}, {"id": "92227323-1", "entrant": {"id": 20488423, "name": "Sol | Spruce", "participants": [{"id": 18867391, "gamerTag": "Spruce", "prefix": "Sol", "user": {"location": {"city": null, "state": null, "country": "United States"}}, "player": {"id": 1100077, "gamerTag": "Spruce", "prefix": "Sol", "user": {"location": {"city": null, "state": null, "country": "United States"}}}}]}, "standing": {"placement": 2, "stats": {"score": {"value": 1}}}}], "games": null}, {"id": 92227964, "state": 3, "round": -6, "fullRoundText": "Losers Round 3", "completedAt": 1754177778, "winnerId": 20719693, "slots": [{"id": "92227964-0", "entrant": {"id": 20719693, "name": "PHNM | Senn", "participants": [{"id": 19068870, "gamerTag": "Senn", "prefix": "PHNM", "user": {"location": {"city": "Waxhaw", "state": "NC", "country": "United States"}}, "player": {"id": 1194511, "gamerTag": "Senn", "prefix": "PHNM", "user": {"location": {"city": "Waxhaw", "state": "NC", "country": "United States"}}}}]}, "standing": {"placement": 1, "stats": {"score": {"value": 2}}}}, {"id": "92227964-1", "entrant": {"id": 20488896, "name": "BB | Buddwaur", "participants": [{"id": 18867819, "gamerTag": "Buddwaur", "prefix": "BB", "user": {"location": {"city": "Holly Springs", "state": "NC", "country": "United States"}}, "player": {"id": 1469415, "gamerTag": "Buddwaur", "prefix": "BB", "user": {"location": {"city": "Holly Springs", "state": "NC", "country": "United States"}}}}]}, "standing": {"placement": 2, "stats": {"score": {"value": 0}}}}], "games": null}, {"id": 92227965, "state": 3, "round": -6, "fullRoundText": "Losers Round 3", "completedAt": 1754177114, "winnerId": 20554453, "slots": [{"id": "92227965-0", "entrant": {"id": 20554453, "name": "WOD | Scrafty", "participants": [{"id": 18924986, "gamerTag": "Scrafty", "prefix": "WOD", "user": {"location": {"city": "Tupelo", "state": "MS", "country": "United States"}}, "player": {"id": 159520, "gamerTag": "Scrafty", "prefix": "WOD", "user": {"location": {"city": "Tupelo", "state": "MS", "country": "United States"}}}}]}, "standing": {"placement": 1, "stats": {"score": {"value": 2}}}}, {"id": "92227965-1", "entrant": {"id": 20488936, "name": "Boo", "participants": [{"id": 18867842, "gamerTag": "Boo", "prefix": "", "user": {"location": {"city": "Cumming", "state": "GA", "country": "United States"}}, "player": {"id": 2647915, "gamerTag": "Boo", "prefix": "", "user": {"location": {"city": "Cumming", "state": "GA", "country": "United States"}}}}]}, "standing": {"placement": 2, "stats": {"score": {"value": 0}}}}], "games": null}, {"id": 92227324, "state": 3, "round": -6, "fullRoundText": "Losers Round 3", "completedAt": 1754170877, "winnerId": 20494615, "slots": [{"id": "92227324-0", "entrant": {"id": 20494615, "name": "PACDUECE", "participants": [{"id": 18872949, "gamerTag": "PACDUECE", "prefix": "", "user": {"location": {"city": "Valdosta", "state": "GA", "country": "United States"}}, "player": {"id": 35275, "gamerTag": "PACDUECE", "prefix": "", "user": {"location": {"city": "Valdosta", "state": "GA", "country": "United States"}}}}]}, "standing": {"placement": 1, "stats": {"score": {"value": 2}}}}, {"id": "92227324-1", "entrant": {"id": 20489324, "name": "carlop", "participants": [{"id": 18868187, "gamerTag": "carlop", "prefix": null, "user": {"location": {"city": "Johns Creek", "state": "GA", "country": "United States"}}, "player": {"id": 3431919, "gamerTag": "carlop", "prefix": null, "user": {"location": {"city": "Johns Creek", "state": "GA", "country": "United States"}}}}]}, "standing": {"placement": 2, "stats": {"score": {"value": 0}}}}], "games": null}, {"id": 92227515, "state": 3, "round": -6, "fullRoundText": "Losers Round 3", "completedAt": 1754170286, "winnerId": 20488758, "slots": [{"id": "92227515-0", "entrant": {"id": 20488758, "name": "LBE | Acid @ Indigo Park", "participants": [{"id": 18867695, "gamerTag": "Acid @ Indigo Park", "prefix": "LBE", "user": {"location": {"city": null, "state": null, "country": "United States"}}, "player": {"id": 1917673, "gamerTag": "Acid @ Indigo Park", "prefix": "LBE", "user": {"location": {"city": null, "state": null, "country": "United States"}}}}]}, "standing": {"placement": 1, "stats": {"score": {"value": 2}}}}, {"id": "92227515-1", "entrant": {"id": 20500222, "name": "BE/JLE | CaptainMilkMan", "participants": [{"id": 18877814, "gamerTag": "CaptainMilkMan", "prefix": "BE/JLE", "user": {"location": {"city": "Albany", "state": "GA", "country": "United States"}}, "player": {"id": 1101654, "gamerTag": "CaptainMilkMan", "prefix": "BE/JLE", "user": {"location": {"city": "Albany", "state": "GA", "country": "United States"}}}}]}, "standing": {"placement": 2, "stats": {"score": {"value": 0}}}}], "games": null}, {"id": 92227753, "state": 3, "round": -6, "fullRoundText": "Losers Round 3", "completedAt": 1754176972, "winnerId": 20777459, "slots": [{"id": "92227753-0", "entrant": {"id": 20777459, "name": "UAH | Otogi", "participants": [{"id": 19121590, "gamerTag": "Otogi", "prefix": "UAH", "user": {"location": {"city": "Huntsville", "state": "AL", "country": "United States"}}, "player": {"id": 3846627, "gamerTag": "Otogi", "prefix": "Argon", "user": {"location": {"city": "Huntsville", "state": "AL", "country": "United States"}}}}]}, "standing": {"placement": 1, "stats": {"score": {"value": 2}}}}, {"id": "92227753-1", "entrant": {"id": 20840838, "name": "UTO | Whaley", "participants": [{"id": 19177809, "gamerTag": "Whaley", "prefix": "UTO", "user": {"location": {"city": "Stone Mountain", "state": "GA", "country": "United States"}}, "player": {"id": 2016149, "gamerTag": "Whaley", "prefix": "KSU|UTO|BLZE", "user": {"location": {"city": "Stone Mountain", "state": "GA", "country": "United States"}}}}]}, "standing": {"placement": 2, "stats": {"score": {"value": 0}}}}], "games": null}, {"id": 92227754, "state": 3, "round": -6, "fullRoundText": "Losers Round 3", "completedAt": 1754177901, "winnerId": 20702798, "slots": [{"id": "92227754-0", "entrant": {"id": 20702798, "name": "Riddul", "participants": [{"id": 19053992, "gamerTag": "Riddul", "prefix": "", "user": {"location": {"city": null, "state": null, "country": "United States"}}, "player": {"id": 1418775, "gamerTag": "Riddul", "prefix": "", "user": {"location": {"city": null, "state": null, "country": "United States"}}}}]}, "standing": {"placement": 1, "stats": {"score": {"value": 2}}}}, {"id": "92227754-1", "entrant": {"id": 20492297, "name": "TFT | Frank", "participants": [{"id": 18870820, "gamerTag": "Frank", "prefix": "TFT", "user": {"location": {"city": "Doraville", "state": "GA", "country": "United States"}}, "player": {"id": 1227401, "gamerTag": "Terry Labonte", "prefix": "TFT", "user": {"location": {"city": "Doraville", "state": "GA", "country": "United States"}}}}]}, "standing": {"placement": 2, "stats": {"score": {"value": 0}}}}], "games": null}, {"id": 92227516, "state": 3, "round": -6, "fullRoundText": "Losers Round 3", "completedAt": 1754171842, "winnerId": 20867172, "slots": [{"id": "92227516-0", "entrant": {"id": 20867172, "name": "Trout~", "participants": [{"id": 19201389, "gamerTag": "Trout~", "prefix": "", "user": {"location": {"city": "Lawrenceville", "state": "GA", "country": "United States"}}, "player": {"id": 905410, "gamerTag": "Primary Trout~", "prefix": "", "user": {"location": {"city": "Lawrenceville", "state": "GA", "country": "United States"}}}}]}, "standing": {"placement": 1, "stats": {"score": {"value": 2}}}}, {"id": "92227516-1", "entrant": {"id": 20654955, "name": "red dot", "participants": [{"id": 19012783, "gamerTag": "red dot", "prefix": "", "user": {"location": {"city": "Milton", "state": "GA", "country": "United States"}}, "player": {"id": 1812177, "gamerTag": "red dot", "prefix": "", "user": {"location": {"city": "Milton", "state": "GA", "country": "United States"}}}}]}, "standing": {"placement": 2, "stats": {"score": {"value": 1}}}}], "games": null}, {"id": 92227325, "state": 3, "round": -6, "fullRoundText": "Losers Round 3", "completedAt": 1754171084, "winnerId": 20634587, "slots": [{"id": "92227325-0", "entrant": {"id": 20733414, "name": "Kailen", "participants": [{"id": 19080738, "gamerTag": "Kailen", "prefix": "", "user": {"location": {"city": "Atlanta", "state": "GA", "country": "United States"}}, "player": {"id": 1647157, "gamerTag": "Kailen", "prefix": "", "user": {"location": {"city": "Atlanta", "state": "GA", "country": "United States"}}}}]}, "standing": {"placement": 2, "stats": {"score": {"value": 1}}}}, {"id": "92227325-1", "entrant": {"id": 20634587, "name": "Rain~", "participants": [{"id": 18995271, "gamerTag": "Rain~", "prefix": null, "user": {"location": {"city": "Atlanta", "state": "GA", "country": "United States"}}, "player": {"id": 4240164, "gamerTag": "Rain~", "prefix": null, "user": {"location": {"city": "Atlanta", "state": "GA", "country": "United States"}}}}]}, "standing": {"placement": 1, "stats": {"score": {"value": 2}}}}], "games": null}, {"id": 92227966, "state": 3, "round": -6, "fullRoundText": "Losers Round 3", "completedAt": 1754176421, "winnerId": 20487835, "slots": [{"id": "92227966-0", "entrant": {"id": 20777657, "name": "REAL | Apollonitus", "participants": [{"id": 19121798, "gamerTag": "Apollonitus", "prefix": "REAL", "user": {"location": {"city": "PACOIMA", "state": "CA", "country": "United States"}}, "player": {"id": 354915, "gamerTag": "Apollonitus", "prefix": "REAL", "user": {"location": {"city": "PACOIMA", "state": "CA", "country": "United States"}}}}]}, "standing": {"placement": 2, "stats": {"score": {"value": 0}}}}, {"id": "92227966-1", "entrant": {"id": 20487835, "name": "cO | Netherlord64", "participants": [{"id": 18867025, "gamerTag": "Netherlord64", "prefix": "cO", "user": {"location": {"city": "Roswell", "state": "GA", "country": "United States"}}, "player": {"id": 4586226, "gamerTag": "Netherlord64", "prefix": "", "user": {"location": {"city": "Roswell", "state": "GA", "country": "United States"}}}}]}, "standing": {"placement": 1, "stats": {"score": {"value": 2}}}}], "games": null}, {"id": 92227967, "state": 3, "round": -6, "fullRoundText": "Losers Round 3", "completedAt": 1754176512, "winnerId": 20497378, "slots": [{"id": "92227967-0", "entrant": {"id": 20497378, "name": "Dubz", "participants": [{"id": 18875528, "gamerTag": "Dubz", "prefix": "", "user": {"location": {"city": "Grayson", "state": "GA", "country": "United States"}}, "player": {"id": 22583, "gamerTag": "Dubz", "prefix": "", "user": {"location": {"city": "Grayson", "state": "GA", "country": "United States"}}}}]}, "standing": {"placement": 1, "stats": {"score": {"value": 2}}}}, {"id": "92227967-1", "entrant": {"id": 20822777, "name": "Jeni", "participants": [{"id": 19161733, "gamerTag": "Jeni", "prefix": "", "user": {"location": {"city": null, "state": null, "country": null}}, "player": {"id": 1499467, "gamerTag": "Jeni", "prefix": "", "user": {"location": {"city": null, "state": null, "country": null}}}}]}, "standing": {"placement": 2, "stats": {"score": {"value": 0}}}}], "games": null}, {"id": 92227755, "state": 3, "round": -6, "fullRoundText": "Losers Round 3", "completedAt": 1754178789, "winnerId": 20488306, "slots": [{"id": "92227755-0", "entrant": {"id": 20488306, "name": "VA | StreetDzine", "participants": [{"id": 18867299, "gamerTag": "StreetDzine", "prefix": "VA", "user": {"location": {"city": null, "state": null, "country": "United States"}}, "player": {"id": 989587, "gamerTag": "StreetDzine", "prefix": "VA", "user": {"location": {"city": null, "state": null, "country": "United States"}}}}]}, "standing": {"placement": 1, "stats": {"score": {"value": 2}}}}, {"id": "92227755-1", "entrant": {"id": 20489402, "name": "LBE | Savant", "participants": [{"id": 18868251, "gamerTag": "Savant", "prefix": "LBE", "user": {"location": {"city": "Athens", "state": "GA", "country": "United States"}}, "player": {"id": 1944044, "gamerTag": "Savant", "prefix": "LBE | CC", "user": {"location": {"city": "Athens", "state": "GA", "country": "United States"}}}}]}, "standing": {"placement": 2, "stats": {"score": {"value": 0}}}}], "games": null}, {"id": 92227517, "state": 3, "round": -6, "fullRoundText": "Losers Round 3", "completedAt": 1754170497, "winnerId": 20490407, "slots": [{"id": "92227517-0", "entrant": {"id": 20490407, "name": "TC | Mr.Speedman", "participants": [{"id": 18869131, "gamerTag": "Mr.Speedman", "prefix": "TC", "user": {"location": {"city": "Roswell", "state": "GA", "country": "United States"}}, "player": {"id": 36192, "gamerTag": "Mr.Speedman", "prefix": "TC", "user": {"location": {"city": "Roswell", "state": "GA", "country": "United States"}}}}]}, "standing": {"placement": 1, "stats": {"score": {"value": 2}}}}, {"id": "92227517-1", "entrant": {"id": 20511683, "name": "BE | Derp", "participants": [{"id": 18887902, "gamerTag": "Derp", "prefix": "BE", "user": {"location": {"city": "", "state": "GA", "country": "United States"}}, "player": {"id": 2080364, "gamerTag": "Derp", "prefix": "BE", "user": {"location": {"city": "", "state": "GA", "country": "United States"}}}}]}, "standing": {"placement": 2, "stats": {"score": {"value": 0}}}}], "games": null}, {"id": 92227326, "state": 3, "round": -6, "fullRoundText": "Losers Round 3", "completedAt": 1754170957, "winnerId": 20831892, "slots": [{"id": "92227326-0", "entrant": {"id": 20831892, "name": "iNGenius", "participants": [{"id": 19170319, "gamerTag": "iNGenius", "prefix": "", "user": {"location": {"city": null, "state": null, "country": null}}, "player": {"id": 3194293, "gamerTag": "iNGenius", "prefix": "", "user": {"location": {"city": null, "state": null, "country": null}}}}]}, "standing": {"placement": 1, "stats": {"score": {"value": 2}}}}, {"id": "92227326-1", "entrant": {"id": 20493556, "name": "TEASER FANCLUB | #1 TEASER FAN FOR LIFE", "participants": [{"id": 18871944, "gamerTag": "#1 TEASER FAN FOR LIFE", "prefix": "TEASER FANCLUB", "user": {"location": {"city": "Johns Creek", "state": "GA", "country": "United States"}}, "player": {"id": 181040, "gamerTag": "#1 TEASER FAN FOR LIFE", "prefix": "TEASER FANCLUB", "user": {"location": {"city": "Johns Creek", "state": "GA", "country": "United States"}}}}]}, "standing": {"placement": 2, "stats": {"score": {"value": 0}}}}], "games": null}, {"id": 92227968, "state": 3, "round": -6, "fullRoundText": "Losers Round 3", "completedAt": 1754177391, "winnerId": 20783378, "slots": [{"id": "92227968-0", "entrant": {"id": 20783378, "name": "FreeDubs", "participants": [{"id": 19127053, "gamerTag": "FreeDubs", "prefix": "", "user": {"location": {"city": "Atlanta", "state": null, "country": "United States"}}, "player": {"id": 4888408, "gamerTag": "FreeDubs", "prefix": "", "user": {"location": {"city": "Atlanta", "state": null, "country": "United States"}}}}]}, "standing": {"placement": 1, "stats": {"score": {"value": 2}}}}, {"id": "92227968-1", "entrant": {"id": 20516098, "name": "Heart", "participants": [{"id": 18891882, "gamerTag": "Heart", "prefix": "", "user": {"location": {"city": "Atlanta", "state": "GA", "country": "United States"}}, "player": {"id": 4287822, "gamerTag": "Heart", "prefix": "", "user": {"location": {"city": "Atlanta", "state": "GA", "country": "United States"}}}}]}, "standing": {"placement": 2, "stats": {"score": {"value": 0}}}}], "games": null}]}}}