{"event": {"sets": {"pageInfo": {"totalPages": 3, "total": 32}, "nodes": [{"id": 93912487, "state": 3, "round": -6, "fullRoundText": "Losers Round 3", "completedAt": 1757885061, "winnerId": 21266669, "slots": [{"id": "93912487-0", "entrant": {"id": 21266669, "name": "tomguy", "participants": [{"id": 19555086, "gamerTag": "tomguy", "prefix": "", "user": {"location": {"city": "Atlanta", "state": "GA", "country": "United States"}}, "player": {"id": 147458, "gamerTag": "tomguy", "prefix": "", "user": {"location": {"city": "Atlanta", "state": "GA", "country": "United States"}}}}]}, "standing": {"placement": 1, "stats": {"score": {"value": 3}}}}, {"id": "93912487-1", "entrant": {"id": 20926454, "name": "The Hive | braxton", "participants": [{"id": 19253557, "gamerTag": "braxton", "prefix": "The Hive", "user": {"location": {"city": "Atlanta", "state": "GA", "country": "United States"}}, "player": {"id": 1037821, "gamerTag": "braxton", "prefix": "The Hive", "user": {"location": {"city": "Atlanta", "state": "GA", "country": "United States"}}}}]}, "standing": {"placement": 2, "stats": {"score": {"value": 2}}}}], "games": null}, {"id": 93912488, "state": 3, "round": -6, "fullRoundText": "Losers Round 3", "completedAt": 1757884201, "winnerId": 20926627, "slots": [{"id": "93912488-0", "entrant": {"id": 20926627, "name": "DD | Kingpoyothefirst", "participants": [{"id": 19253717, "gamerTag": "Kingpoyothefirst", "prefix": "DD", "user": {"location": {"city": null, "state": null, "country": null}}, "player": {"id": 2934299, "gamerTag": "Kingpoyothefirst", "prefix": "DD", "user": {"location": {"city": null, "state": null, "country": null}}}}]}, "standing": {"placement": 1, "stats": {"score": {"value": 3}}}}, {"id": "93912488-1", "entrant": {"id": 21175679, "name": "SCS | dougie2doinks", "participants": [{"id": 19475795, "gamerTag": "dougie2doinks", "prefix": "SCS", "user": {"location": {"city": "Atlanta", "state": "GA", "country": "United States"}}, "player": {"id": 1569735, "gamerTag": "dougie2doinks", "prefix": "SCS", "user": {"location": {"city": "Atlanta", "state": "GA", "country": "United States"}}}}]}, "standing": {"placement": 2, "stats": {"score": {"value": 1}}}}], "games": null}, {"id": 93912489, "state": 3, "round": -6, "fullRoundText": "Losers Round 3", "completedAt": 1757883830, "winnerId": 21257968, "slots": [{"id": "93912489-0", "entrant": {"id": 21257968, "name": "Nero", "participants": [{"id": 19547970, "gamerTag": "Nero", "prefix": "", "user": {"location": {"city": "Calgary", "state": "AB", "country": "Canada"}}, "player": {"id": 175669, "gamerTag": "Nero", "prefix": "", "user": {"location": {"city": "Calgary", "state": "AB", "country": "Canada"}}}}]}, "standing": {"placement": 1, "stats": {"score": {"value": 3}}}}, {"id": "93912489-1", "entrant": {"id": 20960939, "name": "noided", "participants": [{"id": 19283764, "gamerTag": "noided", "prefix": "", "user": {"location": {"city": "Atlanta", "state": "GA", "country": "United States"}}, "player": {"id": 2586521, "gamerTag": "noided", "prefix": "", "user": {"location": {"city": "Atlanta", "state": "GA", "country": "United States"}}}}]}, "standing": {"placement": 2, "stats": {"score": {"value": 0}}}}], "games": null}, {"id": 93912483, "state": 3, "round": -5, "fullRoundText": "Losers Round 2", "completedAt": 1757883249, "winnerId": 20926454, "slots": [{"id": "93912483-0", "entrant": {"id": 20926454, "name": "The Hive | braxton", "participants": [{"id": 19253557, "gamerTag": "braxton", "prefix": "The Hive", "user": {"location": {"city": "Atlanta", "state": "GA", "country": "United States"}}, "player": {"id": 1037821, "gamerTag": "braxton", "prefix": "The Hive", "user": {"location": {"city": "Atlanta", "state": "GA", "country": "United States"}}}}]}, "standing": {"placement": 1, "stats": {"score": {"value": 3}}}}, {"id": "93912483-1", "entrant": {"id": 20943140, "name": "dgo", "participants": [{"id": 19268547, "gamerTag": "dgo", "prefix": null, "user": {"location": {"city": "Lithonia", "state": "GA", "country": "United States"}}, "player": {"id": 3821146, "gamerTag": "dgo", "prefix": null, "user": {"location": {"city": "Lithonia", "state": "GA", "country": "United States"}}}}]}, "standing": {"placement": 2, "stats": {"score": {"value": 0}}}}], "games": null}, {"id": 93912484, "state": 3, "round": -5, "fullRoundText": "Losers Round 2", "completedAt": 1757882140, "winnerId": 21175679, "slots": [{"id": "93912484-0", "entrant": {"id": 21175679, "name": "SCS | dougie2doinks", "participants": [{"id": 19475795, "gamerTag": "dougie2doinks", "prefix": "SCS", "user": {"location": {"city": "Atlanta", "state": "GA", "country": "United States"}}, "player": {"id": 1569735, "gamerTag": "dougie2doinks", "prefix": "SCS", "user": {"location": {"city": "Atlanta", "state": "GA", "country": "United States"}}}}]}, "standing": {"placement": 1, "stats": {"score": {"value": 3}}}}, {"id": "93912484-1", "entrant": {"id": 21265209, "name": "STEEZY", "participants": [{"id": 19553922, "gamerTag": "STEEZY", "prefix": null, "user": {"location": {"city": "HELL", "state": "GA", "country": "United States"}}, "player": {"id": 2496238, "gamerTag": "STEEZY", "prefix": null, "user": {"location": {"city": "HELL", "state": "GA", "country": "United States"}}}}]}, "standing": {"placement": 2, "stats": {"score": {"value": 0}}}}], "games": null}, {"id": 93912485, "state": 3, "round": -5, "fullRoundText": "Losers Round 2", "completedAt": 1757882686, "winnerId": 20960939, "slots": [{"id": "93912485-0", "entrant": {"id": 21079648, "name": "blaise", "participants": [{"id": 19390207, "gamerTag": "blaise", "prefix": "", "user": {"location": {"city": "douglasville", "state": "GA", "country": "United States"}}, "player": {"id": 1326121, "gamerTag": "blaise", "prefix": "", "user": {"location": {"city": "douglasville", "state": "GA", "country": "United States"}}}}]}, "standing": {"placement": 2, "stats": {"score": {"value": 2}}}}, {"id": "93912485-1", "entrant": {"id": 20960939, "name": "noided", "participants": [{"id": 19283764, "gamerTag": "noided", "prefix": "", "user": {"location": {"city": "Atlanta", "state": "GA", "country": "United States"}}, "player": {"id": 2586521, "gamerTag": "noided", "prefix": "", "user": {"location": {"city": "Atlanta", "state": "GA", "country": "United States"}}}}]}, "standing": {"placement": 1, "stats": {"score": {"value": 3}}}}], "games": null}, {"id": 93912486, "state": 3, "round": -5, "fullRoundText": "Losers Round 2", "completedAt": 1757883161, "winnerId": 21214401, "slots": [{"id": "93912486-0", "entrant": {"id": 21214401, "name": "diremaykr", "participants": [{"id": 19509904, "gamerTag": "diremaykr", "prefix": "", "user": {"location": {"city": "Buford", "state": "GA", "country": "United States"}}, "player": {"id": 3207366, "gamerTag": "diremaykr", "prefix": "", "user": {"location": {"city": "Buford", "state": "GA", "country": "United States"}}}}]}, "standing": {"placement": 1, "stats": {"score": {"value": 3}}}}, {"id": "93912486-1", "entrant": {"id": 21213776, "name": "TPS | $CAITLIN", "participants": [{"id": 19509349, "gamerTag": "$CAITLIN", "prefix": "TPS", "user": {"location": {"city": "Kennesaw", "state": "GA", "country": "United States"}}, "player": {"id": 3422494, "gamerTag": "$CAITLIN", "prefix": "TPS", "user": {"location": {"city": "Kennesaw", "state": "GA", "country": "United States"}}}}]}, "standing": {"placement": 2, "stats": {"score": {"value": 0}}}}], "games": null}, {"id": 93912418, "state": 3, "round": 2, "fullRoundText": "Winners Round 2", "completedAt": 1757882344, "winnerId": 21183941, "slots": [{"id": "93912418-0", "entrant": {"id": 21183941, "name": "Eclipse", "participants": [{"id": 19482972, "gamerTag": "Eclipse", "prefix": "", "user": {"location": {"city": "Fairburn", "state": "GA", "country": "United States"}}, "player": {"id": 1496702, "gamerTag": "Eclipse", "prefix": "", "user": {"location": {"city": "Fairburn", "state": "GA", "country": "United States"}}}}]}, "standing": {"placement": 1, "stats": {"score": {"value": 3}}}}, {"id": "93912418-1", "entrant": {"id": 21213776, "name": "TPS | $CAITLIN", "participants": [{"id": 19509349, "gamerTag": "$CAITLIN", "prefix": "TPS", "user": {"location": {"city": "Kennesaw", "state": "GA", "country": "United States"}}, "player": {"id": 3422494, "gamerTag": "$CAITLIN", "prefix": "TPS", "user": {"location": {"city": "Kennesaw", "state": "GA", "country": "United States"}}}}]}, "standing": {"placement": 2, "stats": {"score": {"value": 0}}}}], "games": null}, {"id": 93912419, "state": 3, "round": 2, "fullRoundText": "Winners Round 2", "completedAt": 1757881430, "winnerId": 20926627, "slots": [{"id": "93912419-0", "entrant": {"id": 20926627, "name": "DD | Kingpoyothefirst", "participants": [{"id": 19253717, "gamerTag": "Kingpoyothefirst", "prefix": "DD", "user": {"location": {"city": null, "state": null, "country": null}}, "player": {"id": 2934299, "gamerTag": "Kingpoyothefirst", "prefix": "DD", "user": {"location": {"city": null, "state": null, "country": null}}}}]}, "standing": {"placement": 1, "stats": {"score": {"value": 3}}}}, {"id": "93912419-1", "entrant": {"id": 21214401, "name": "diremaykr", "participants": [{"id": 19509904, "gamerTag": "diremaykr", "prefix": "", "user": {"location": {"city": "Buford", "state": "GA", "country": "United States"}}, "player": {"id": 3207366, "gamerTag": "diremaykr", "prefix": "", "user": {"location": {"city": "Buford", "state": "GA", "country": "United States"}}}}]}, "standing": {"placement": 2, "stats": {"score": {"value": 0}}}}], "games": null}, {"id": 93912420, "state": 3, "round": 2, "fullRoundText": "Winners Round 2", "completedAt": 1757881407, "winnerId": 20927283, "slots": [{"id": "93912420-0", "entrant": {"id": 20927283, "name": "Monolithic", "participants": [{"id": 19254272, "gamerTag": "Monolithic", "prefix": "", "user": {"location": {"city": "", "state": "GA", "country": "United States"}}, "player": {"id": 1926775, "gamerTag": "Monolithic", "prefix": "", "user": {"location": {"city": "", "state": "GA", "country": "United States"}}}}]}, "standing": {"placement": 1, "stats": {"score": {"value": 3}}}}, {"id": "93912420-1", "entrant": {"id": 20960939, "name": "noided", "participants": [{"id": 19283764, "gamerTag": "noided", "prefix": "", "user": {"location": {"city": "Atlanta", "state": "GA", "country": "United States"}}, "player": {"id": 2586521, "gamerTag": "noided", "prefix": "", "user": {"location": {"city": "Atlanta", "state": "GA", "country": "United States"}}}}]}, "standing": {"placement": 2, "stats": {"score": {"value": 0}}}}], "games": null}, {"id": 93912421, "state": 3, "round": 2, "fullRoundText": "Winners Round 2", "completedAt": 1757881362, "winnerId": 21266669, "slots": [{"id": "93912421-0", "entrant": {"id": 21266669, "name": "tomguy", "participants": [{"id": 19555086, "gamerTag": "tomguy", "prefix": "", "user": {"location": {"city": "Atlanta", "state": "GA", "country": "United States"}}, "player": {"id": 147458, "gamerTag": "tomguy", "prefix": "", "user": {"location": {"city": "Atlanta", "state": "GA", "country": "United States"}}}}]}, "standing": {"placement": 1, "stats": {"score": {"value": 3}}}}, {"id": "93912421-1", "entrant": {"id": 21079648, "name": "blaise", "participants": [{"id": 19390207, "gamerTag": "blaise", "prefix": "", "user": {"location": {"city": "douglasville", "state": "GA", "country": "United States"}}, "player": {"id": 1326121, "gamerTag": "blaise", "prefix": "", "user": {"location": {"city": "douglasville", "state": "GA", "country": "United States"}}}}]}, "standing": {"placement": 2, "stats": {"score": {"value": 0}}}}], "games": null}, {"id": 93912422, "state": 3, "round": 2, "fullRoundText": "Winners Round 2", "completedAt": 1757881179, "winnerId": 21241697, "slots": [{"id": "93912422-0", "entrant": {"id": 21241697, "name": "natebug01", "participants": [{"id": 19533864, "gamerTag": "natebug01", "prefix": null, "user": {"location": {"city": "atl", "state": "GA", "country": "United States"}}, "player": {"id": 69973, "gamerTag": "natebug01", "prefix": null, "user": {"location": {"city": "atl", "state": "GA", "country": "United States"}}}}]}, "standing": {"placement": 1, "stats": {"score": {"value": 3}}}}, {"id": "93912422-1", "entrant": {"id": 21265209, "name": "STEEZY", "participants": [{"id": 19553922, "gamerTag": "STEEZY", "prefix": null, "user": {"location": {"city": "HELL", "state": "GA", "country": "United States"}}, "player": {"id": 2496238, "gamerTag": "STEEZY", "prefix": null, "user": {"location": {"city": "HELL", "state": "GA", "country": "United States"}}}}]}, "standing": {"placement": 2, "stats": {"score": {"value": 0}}}}], "games": null}, {"id": 93912423, "state": 3, "round": 2, "fullRoundText": "Winners Round 2", "completedAt": 1757881547, "winnerId": 20927887, "slots": [{"id": "93912423-0", "entrant": {"id": 20927887, "name": "EVIL | Alas", "participants": [{"id": 19254781, "gamerTag": "Alas", "prefix": "EVIL", "user": {"location": {"city": null, "state": null, "country": null}}, "player": {"id": 25946, "gamerTag": "Alas", "prefix": "EVIL", "user": {"location": {"city": null, "state": null, "country": null}}}}]}, "standing": {"placement": 1, "stats": {"score": {"value": 3}}}}, {"id": "93912423-1", "entrant": {"id": 21175679, "name": "SCS | dougie2doinks", "participants": [{"id": 19475795, "gamerTag": "dougie2doinks", "prefix": "SCS", "user": {"location": {"city": "Atlanta", "state": "GA", "country": "United States"}}, "player": {"id": 1569735, "gamerTag": "dougie2doinks", "prefix": "SCS", "user": {"location": {"city": "Atlanta", "state": "GA", "country": "United States"}}}}]}, "standing": {"placement": 2, "stats": {"score": {"value": 1}}}}], "games": null}, {"id": 93912424, "state": 3, "round": 2, "fullRoundText": "Winners Round 2", "completedAt": 1757881696, "winnerId": 21221544, "slots": [{"id": "93912424-0", "entrant": {"id": 21221544, "name": "Austintacious", "participants": [{"id": 19516050, "gamerTag": "Austintacious", "prefix": "", "user": {"location": {"city": "Atlanta", "state": "GA", "country": "United States"}}, "player": {"id": 14025, "gamerTag": "Austintacious", "prefix": "", "user": {"location": {"city": "Atlanta", "state": "GA", "country": "United States"}}}}]}, "standing": {"placement": 1, "stats": {"score": {"value": 3}}}}, {"id": "93912424-1", "entrant": {"id": 20943140, "name": "dgo", "participants": [{"id": 19268547, "gamerTag": "dgo", "prefix": null, "user": {"location": {"city": "Lithonia", "state": "GA", "country": "United States"}}, "player": {"id": 3821146, "gamerTag": "dgo", "prefix": null, "user": {"location": {"city": "Lithonia", "state": "GA", "country": "United States"}}}}]}, "standing": {"placement": 2, "stats": {"score": {"value": 0}}}}], "games": null}, {"id": 93912425, "state": 3, "round": 2, "fullRoundText": "Winners Round 2", "completedAt": 1757882043, "winnerId": 21257968, "slots": [{"id": "93912425-0", "entrant": {"id": 21257968, "name": "Nero", "participants": [{"id": 19547970, "gamerTag": "Nero", "prefix": "", "user": {"location": {"city": "Calgary", "state": "AB", "country": "Canada"}}, "player": {"id": 175669, "gamerTag": "Nero", "prefix": "", "user": {"location": {"city": "Calgary", "state": "AB", "country": "Canada"}}}}]}, "standing": {"placement": 1, "stats": {"score": {"value": 3}}}}, {"id": "93912425-1", "entrant": {"id": 20926454, "name": "The Hive | braxton", "participants": [{"id": 19253557, "gamerTag": "braxton", "prefix": "The Hive", "user": {"location": {"city": "Atlanta", "state": "GA", "country": "United States"}}, "player": {"id": 1037821, "gamerTag": "braxton", "prefix": "The Hive", "user": {"location": {"city": "Atlanta", "state": "GA", "country": "United States"}}}}]}, "standing": {"placement": 2, "stats": {"score": {"value": 0}}}}], "games": null}]}}}