{"event": {"sets": {"pageInfo": {"totalPages": 2, "total": 18}, "nodes": [{"id": 92820073, "state": 3, "round": -4, "fullRoundText": "Losers Round 1", "completedAt": 1755557892, "winnerId": 21003845, "slots": [{"id": "92820073-0", "entrant": {"id": 21003845, "name": "KHW | Frumps", "participants": [{"id": 19321519, "gamerTag": "Frumps", "prefix": "KHW", "user": {"location": {"city": "Greenville", "state": "SC", "country": "United States"}}, "player": {"id": 2844590, "gamerTag": "Frumps", "prefix": "KHW", "user": {"location": {"city": "Greenville", "state": "SC", "country": "United States"}}}}]}, "standing": {"placement": 1, "stats": {"score": {"value": 2}}}}, {"id": "92820073-1", "entrant": {"id": 21005695, "name": "NMBS | roshi", "participants": [{"id": 19321274, "gamerTag": "roshi", "prefix": "NMBS", "user": {"location": {"city": "Atlanta", "state": "GA", "country": "United States"}}, "player": {"id": 37667, "gamerTag": "roshi", "prefix": "NMBS", "user": {"location": {"city": "Atlanta", "state": "GA", "country": "United States"}}}}]}, "standing": {"placement": 2, "stats": {"score": {"value": 0}}}}], "games": [{"id": 31991057, "orderNum": 1, "winnerId": 21003845, "entrant1Score": null, "entrant2Score": 0, "stage": null, "selections": [{"id": 47134296, "selectionType": "CHARACTER", "selectionValue": 1598, "entrant": {"id": 21003845}, "character": {"id": 1598, "name": "Meta Knight"}}, {"id": 47134297, "selectionType": "CHARACTER", "selectionValue": 1619, "entrant": {"id": 21005695}, "character": {"id": 1619, "name": "Wario"}}]}, {"id": 31991058, "orderNum": 2, "winnerId": 21003845, "entrant1Score": null, "entrant2Score": 0, "stage": null, "selections": [{"id": 47134298, "selectionType": "CHARACTER", "selectionValue": 1598, "entrant": {"id": 21003845}, "character": {"id": 1598, "name": "Meta Knight"}}, {"id": 47134299, "selectionType": "CHARACTER", "selectionValue": 1619, "entrant": {"id": 21005695}, "character": {"id": 1619, "name": "Wario"}}]}]}, {"id": 92820035, "state": 3, "round": 1, "fullRoundText": "Winners Round 1", "completedAt": 1755556339, "winnerId": 21002210, "slots": [{"id": "92820035-0", "entrant": {"id": 21002210, "name": "key$", "participants": [{"id": 19319978, "gamerTag": "key$", "prefix": "", "user": {"location": {"city": "Suwanee", "state": "GA", "country": "United States"}}, "player": {"id": 2370046, "gamerTag": "key$", "prefix": "", "user": {"location": {"city": "Suwanee", "state": "GA", "country": "United States"}}}}]}, "standing": {"placement": 1, "stats": {"score": {"value": 0}}}}, {"id": "92820035-1", "entrant": {"id": 21001964, "name": "CELL", "participants": [{"id": 19319718, "gamerTag": "CELL", "prefix": "", "user": {"location": {"city": null, "state": null, "country": null}}, "player": {"id": 4391291, "gamerTag": "CELL", "prefix": "", "user": {"location": {"city": null, "state": null, "country": null}}}}]}, "standing": {"placement": 2, "stats": {"score": {"value": -1}}}}], "games": null}, {"id": 92820039, "state": 3, "round": 1, "fullRoundText": "Winners Round 1", "completedAt": 1755556388, "winnerId": 21000974, "slots": [{"id": "92820039-0", "entrant": {"id": 21000974, "name": "Permafrost", "participants": [{"id": 19318727, "gamerTag": "Permafrost", "prefix": "", "user": {"location": {"city": "Atlanta", "state": "GA", "country": "United States"}}, "player": {"id": 1256898, "gamerTag": "Permafrost", "prefix": "", "user": {"location": {"city": "Atlanta", "state": "GA", "country": "United States"}}}}]}, "standing": {"placement": 1, "stats": {"score": {"value": 2}}}}, {"id": "92820039-1", "entrant": {"id": 21005695, "name": "NMBS | roshi", "participants": [{"id": 19321274, "gamerTag": "roshi", "prefix": "NMBS", "user": {"location": {"city": "Atlanta", "state": "GA", "country": "United States"}}, "player": {"id": 37667, "gamerTag": "roshi", "prefix": "NMBS", "user": {"location": {"city": "Atlanta", "state": "GA", "country": "United States"}}}}]}, "standing": {"placement": 2, "stats": {"score": {"value": 0}}}}], "games": [{"id": 31990761, "orderNum": 1, "winnerId": 21000974, "entrant1Score": null, "entrant2Score": 0, "stage": null, "selections": [{"id": 47133983, "selectionType": "CHARACTER", "selectionValue": 1601, "entrant": {"id": 21000974}, "character": {"id": 1601, "name": "Falco"}}, {"id": 47133984, "selectionType": "CHARACTER", "selectionValue": 1619, "entrant": {"id": 21005695}, "character": {"id": 1619, "name": "Wario"}}]}, {"id": 31990762, "orderNum": 2, "winnerId": 21000974, "entrant1Score": null, "entrant2Score": 0, "stage": null, "selections": [{"id": 47133985, "selectionType": "CHARACTER", "selectionValue": 1601, "entrant": {"id": 21000974}, "character": {"id": 1601, "name": "Falco"}}, {"id": 47133986, "selectionType": "CHARACTER", "selectionValue": 1616, "entrant": {"id": 21005695}, "character": {"id": 1616, "name": "Ike"}}]}]}]}}}