{"phase": {"seeds": {"pageInfo": {"totalPages": 1, "total": 6}, "nodes": [{"id": 36000836, "seedNum": 3, "entrant": {"id": 20867400, "name": "Katnip", "participants": [{"id": 19201582, "gamerTag": "Katnip", "prefix": "", "user": {"location": {"city": "Columbus", "state": "GA", "country": "United States"}}, "player": {"id": 951915, "gamerTag": "Katnip", "prefix": "", "user": {"location": {"city": "Columbus", "state": "GA", "country": "United States"}}}}]}}, {"id": 36000171, "seedNum": 2, "entrant": {"id": 20866913, "name": "Andromeda", "participants": [{"id": 19201153, "gamerTag": "Andromeda", "prefix": "", "user": {"location": {"city": "Columbus", "state": "GA", "country": "United States"}}, "player": {"id": 1458791, "gamerTag": "Andromeda", "prefix": "", "user": {"location": {"city": "Columbus", "state": "GA", "country": "United States"}}}}]}}, {"id": 35860162, "seedNum": 1, "entrant": {"id": 20780955, "name": "Ashm | Cryptonite", "participants": [{"id": 19124912, "gamerTag": "Cryptonite", "prefix": "Ashm", "user": {"location": {"city": "Hamilton", "state": "GA", "country": "United States"}}, "player": {"id": 2300323, "gamerTag": "Cryptonite", "prefix": "Ashm", "user": {"location": {"city": "Hamilton", "state": "GA", "country": "United States"}}}}]}}, {"id": 36018212, "seedNum": 6, "entrant": {"id": 20876254, "name": "StuffinCrust", "participants": [{"id": 19209226, "gamerTag": "StuffinCrust", "prefix": null, "user": {"location": {"city": "Columbus", "state": "GA", "country": "United States"}}, "player": {"id": 1648511, "gamerTag": "StuffinCrust", "prefix": null, "user": {"location": {"city": "Columbus", "state": "GA", "country": "United States"}}}}]}}, {"id": 36000885, "seedNum": 4, "entrant": {"id": 20867452, "name": "CSU | OfficeWalrus", "participants": [{"id": 19201620, "gamerTag": "OfficeWalrus", "prefix": "CSU", "user": {"location": {"city": "Columbus", "state": "GA", "country": "United States"}}, "player": {"id": 3860050, "gamerTag": "OfficeWalrus", "prefix": "CSU", "user": {"location": {"city": "Columbus", "state": "GA", "country": "United States"}}}}]}}, {"id": 36001019, "seedNum": 5, "entrant": {"id": 20867559, "name": "ddogg26", "participants": [{"id": 19201710, "gamerTag": "ddogg26", "prefix": "", "user": {"location": {"city": null, "state": null, "country": "United States"}}, "player": {"id": 3859990, "gamerTag": "ddogg26", "prefix": "", "user": {"location": {"city": null, "state": null, "country": "United States"}}}}]}}]}}}