{"event": {"sets": {"pageInfo": {"totalPages": 5, "total": 66}, "nodes": [{"id": 93342034, "state": 3, "round": 7, "fullRoundText": "Grand Final", "completedAt": 1756672181, "winnerId": 21122800, "slots": [{"id": "93342034-0", "entrant": {"id": 21122800, "name": "Sidvictor", "participants": [{"id": 19428833, "gamerTag": "Sidvictor", "prefix": "", "user": {"location": {"city": "Austin", "state": "TX", "country": "United States"}}, "player": {"id": 2515061, "gamerTag": "Sidvictor", "prefix": "", "user": {"location": {"city": "Austin", "state": "TX", "country": "United States"}}}}]}, "standing": {"placement": 1, "stats": {"score": {"value": 3}}}}, {"id": "93342034-1", "entrant": {"id": 21124433, "name": "TROLLGANG | hors-d'\u0153uvre offa napkin", "participants": [{"id": 19430239, "gamerTag": "hors-d'\u0153uvre offa napkin", "prefix": "TROLLGANG", "user": {"location": {"city": null, "state": null, "country": null}}, "player": {"id": 1601669, "gamerTag": "Love", "prefix": "TROLLGANG", "user": {"location": {"city": null, "state": null, "country": null}}}}]}, "standing": {"placement": 2, "stats": {"score": {"value": 0}}}}], "games": null}, {"id": 93342033, "state": 3, "round": 6, "fullRoundText": "Winners Final", "completedAt": 1756670235, "winnerId": 21122800, "slots": [{"id": "93342033-0", "entrant": {"id": 21122800, "name": "Sidvictor", "participants": [{"id": 19428833, "gamerTag": "Sidvictor", "prefix": "", "user": {"location": {"city": "Austin", "state": "TX", "country": "United States"}}, "player": {"id": 2515061, "gamerTag": "Sidvictor", "prefix": "", "user": {"location": {"city": "Austin", "state": "TX", "country": "United States"}}}}]}, "standing": {"placement": 1, "stats": {"score": {"value": 3}}}}, {"id": "93342033-1", "entrant": {"id": 20951583, "name": "TROLLGANG | Bozo", "participants": [{"id": 19275900, "gamerTag": "Bozo", "prefix": "TROLLGANG", "user": {"location": {"city": "NYC", "state": "NY", "country": "United States"}}, "player": {"id": 1125705, "gamerTag": "Bozo", "prefix": "TROLLGANG", "user": {"location": {"city": "NYC", "state": "NY", "country": "United States"}}}}]}, "standing": {"placement": 2, "stats": {"score": {"value": 1}}}}], "games": null}, {"id": 93342161, "state": 3, "round": -12, "fullRoundText": "Losers Final", "completedAt": 1756671755, "winnerId": 21124433, "slots": [{"id": "93342161-0", "entrant": {"id": 20951583, "name": "TROLLGANG | Bozo", "participants": [{"id": 19275900, "gamerTag": "Bozo", "prefix": "TROLLGANG", "user": {"location": {"city": "NYC", "state": "NY", "country": "United States"}}, "player": {"id": 1125705, "gamerTag": "Bozo", "prefix": "TROLLGANG", "user": {"location": {"city": "NYC", "state": "NY", "country": "United States"}}}}]}, "standing": {"placement": 2, "stats": {"score": {"value": 1}}}}, {"id": "93342161-1", "entrant": {"id": 21124433, "name": "TROLLGANG | hors-d'\u0153uvre offa napkin", "participants": [{"id": 19430239, "gamerTag": "hors-d'\u0153uvre offa napkin", "prefix": "TROLLGANG", "user": {"location": {"city": null, "state": null, "country": null}}, "player": {"id": 1601669, "gamerTag": "Love", "prefix": "TROLLGANG", "user": {"location": {"city": null, "state": null, "country": null}}}}]}, "standing": {"placement": 1, "stats": {"score": {"value": 3}}}}], "games": null}, {"id": 93342160, "state": 3, "round": -11, "fullRoundText": "Losers Semi-Final", "completedAt": 1756671092, "winnerId": 21124433, "slots": [{"id": "93342160-0", "entrant": {"id": 21124433, "name": "TROLLGANG | hors-d'\u0153uvre offa napkin", "participants": [{"id": 19430239, "gamerTag": "hors-d'\u0153uvre offa napkin", "prefix": "TROLLGANG", "user": {"location": {"city": null, "state": null, "country": null}}, "player": {"id": 1601669, "gamerTag": "Love", "prefix": "TROLLGANG", "user": {"location": {"city": null, "state": null, "country": null}}}}]}, "standing": {"placement": 1, "stats": {"score": {"value": 3}}}}, {"id": "93342160-1", "entrant": {"id": 21126168, "name": "Psyro", "participants": [{"id": 19431937, "gamerTag": "Psyro", "prefix": "", "user": {"location": {"city": "Tuscaloosa", "state": "GA", "country": "United States"}}, "player": {"id": 2358101, "gamerTag": "Psyro", "prefix": "", "user": {"location": {"city": "Tuscaloosa", "state": "GA", "country": "United States"}}}}]}, "standing": {"placement": 2, "stats": {"score": {"value": 1}}}}], "games": null}, {"id": 93342031, "state": 3, "round": 5, "fullRoundText": "Winners Semi-Final", "completedAt": 1756666749, "winnerId": 21122800, "slots": [{"id": "93342031-0", "entrant": {"id": 21122800, "name": "Sidvictor", "participants": [{"id": 19428833, "gamerTag": "Sidvictor", "prefix": "", "user": {"location": {"city": "Austin", "state": "TX", "country": "United States"}}, "player": {"id": 2515061, "gamerTag": "Sidvictor", "prefix": "", "user": {"location": {"city": "Austin", "state": "TX", "country": "United States"}}}}]}, "standing": {"placement": 1, "stats": {"score": {"value": 3}}}}, {"id": "93342031-1", "entrant": {"id": 21124433, "name": "TROLLGANG | hors-d'\u0153uvre offa napkin", "participants": [{"id": 19430239, "gamerTag": "hors-d'\u0153uvre offa napkin", "prefix": "TROLLGANG", "user": {"location": {"city": null, "state": null, "country": null}}, "player": {"id": 1601669, "gamerTag": "Love", "prefix": "TROLLGANG", "user": {"location": {"city": null, "state": null, "country": null}}}}]}, "standing": {"placement": 2, "stats": {"score": {"value": 1}}}}], "games": null}, {"id": 93342032, "state": 3, "round": 5, "fullRoundText": "Winners Semi-Final", "completedAt": 1756666140, "winnerId": 20951583, "slots": [{"id": "93342032-0", "entrant": {"id": 20951583, "name": "TROLLGANG | Bozo", "participants": [{"id": 19275900, "gamerTag": "Bozo", "prefix": "TROLLGANG", "user": {"location": {"city": "NYC", "state": "NY", "country": "United States"}}, "player": {"id": 1125705, "gamerTag": "Bozo", "prefix": "TROLLGANG", "user": {"location": {"city": "NYC", "state": "NY", "country": "United States"}}}}]}, "standing": {"placement": 1, "stats": {"score": {"value": 3}}}}, {"id": "93342032-1", "entrant": {"id": 21125154, "name": "UmKellan", "participants": [{"id": 19430916, "gamerTag": "UmKellan", "prefix": "", "user": {"location": {"city": "Atlanta", "state": "GA", "country": "United States"}}, "player": {"id": 1022375, "gamerTag": "UmKellan", "prefix": "", "user": {"location": {"city": "Atlanta", "state": "GA", "country": "United States"}}}}]}, "standing": {"placement": 2, "stats": {"score": {"value": 0}}}}], "games": null}, {"id": 93342158, "state": 3, "round": -10, "fullRoundText": "Losers Quarter-Final", "completedAt": 1756669503, "winnerId": 21124433, "slots": [{"id": "93342158-0", "entrant": {"id": 21124433, "name": "TROLLGANG | hors-d'\u0153uvre offa napkin", "participants": [{"id": 19430239, "gamerTag": "hors-d'\u0153uvre offa napkin", "prefix": "TROLLGANG", "user": {"location": {"city": null, "state": null, "country": null}}, "player": {"id": 1601669, "gamerTag": "Love", "prefix": "TROLLGANG", "user": {"location": {"city": null, "state": null, "country": null}}}}]}, "standing": {"placement": 1, "stats": {"score": {"value": 3}}}}, {"id": "93342158-1", "entrant": {"id": 20935381, "name": "ATLRiot", "participants": [{"id": 19261454, "gamerTag": "ATLRiot", "prefix": "", "user": {"location": {"city": "Augusta", "state": "GA", "country": "United States"}}, "player": {"id": 2057913, "gamerTag": "ATLRiot", "prefix": "", "user": {"location": {"city": "Augusta", "state": "GA", "country": "United States"}}}}]}, "standing": {"placement": 2, "stats": {"score": {"value": 0}}}}], "games": null}, {"id": 93342159, "state": 3, "round": -10, "fullRoundText": "Losers Quarter-Final", "completedAt": 1756668995, "winnerId": 21126168, "slots": [{"id": "93342159-0", "entrant": {"id": 21125154, "name": "UmKellan", "participants": [{"id": 19430916, "gamerTag": "UmKellan", "prefix": "", "user": {"location": {"city": "Atlanta", "state": "GA", "country": "United States"}}, "player": {"id": 1022375, "gamerTag": "UmKellan", "prefix": "", "user": {"location": {"city": "Atlanta", "state": "GA", "country": "United States"}}}}]}, "standing": {"placement": 2, "stats": {"score": {"value": 1}}}}, {"id": "93342159-1", "entrant": {"id": 21126168, "name": "Psyro", "participants": [{"id": 19431937, "gamerTag": "Psyro", "prefix": "", "user": {"location": {"city": "Tuscaloosa", "state": "GA", "country": "United States"}}, "player": {"id": 2358101, "gamerTag": "Psyro", "prefix": "", "user": {"location": {"city": "Tuscaloosa", "state": "GA", "country": "United States"}}}}]}, "standing": {"placement": 1, "stats": {"score": {"value": 3}}}}], "games": null}, {"id": 93342156, "state": 3, "round": -9, "fullRoundText": "Losers Round 6", "completedAt": 1756668215, "winnerId": 20935381, "slots": [{"id": "93342156-0", "entrant": {"id": 20935381, "name": "ATLRiot", "participants": [{"id": 19261454, "gamerTag": "ATLRiot", "prefix": "", "user": {"location": {"city": "Augusta", "state": "GA", "country": "United States"}}, "player": {"id": 2057913, "gamerTag": "ATLRiot", "prefix": "", "user": {"location": {"city": "Augusta", "state": "GA", "country": "United States"}}}}]}, "standing": {"placement": 1, "stats": {"score": {"value": 3}}}}, {"id": "93342156-1", "entrant": {"id": 21124913, "name": "Magic", "participants": [{"id": 19430696, "gamerTag": "Magic", "prefix": null, "user": {"location": {"city": null, "state": null, "country": "United States"}}, "player": {"id": 1722236, "gamerTag": "Magic", "prefix": null, "user": {"location": {"city": null, "state": null, "country": "United States"}}}}]}, "standing": {"placement": 2, "stats": {"score": {"value": 2}}}}], "games": null}, {"id": 93342157, "state": 3, "round": -9, "fullRoundText": "Losers Round 6", "completedAt": 1756667534, "winnerId": 21126168, "slots": [{"id": "93342157-0", "entrant": {"id": 20974572, "name": "Jel-Sensei", "participants": [{"id": 19295829, "gamerTag": "Jel-Sensei", "prefix": "", "user": {"location": {"city": "birmingham", "state": "AL", "country": "United States"}}, "player": {"id": 1966345, "gamerTag": "Jel-Sensei", "prefix": "", "user": {"location": {"city": "birmingham", "state": "AL", "country": "United States"}}}}]}, "standing": {"placement": 2, "stats": {"score": {"value": 0}}}}, {"id": "93342157-1", "entrant": {"id": 21126168, "name": "Psyro", "participants": [{"id": 19431937, "gamerTag": "Psyro", "prefix": "", "user": {"location": {"city": "Tuscaloosa", "state": "GA", "country": "United States"}}, "player": {"id": 2358101, "gamerTag": "Psyro", "prefix": "", "user": {"location": {"city": "Tuscaloosa", "state": "GA", "country": "United States"}}}}]}, "standing": {"placement": 1, "stats": {"score": {"value": 3}}}}], "games": null}, {"id": 93342027, "state": 3, "round": 4, "fullRoundText": "Winners Quarter-Final", "completedAt": 1756665559, "winnerId": 21122800, "slots": [{"id": "93342027-0", "entrant": {"id": 21122800, "name": "Sidvictor", "participants": [{"id": 19428833, "gamerTag": "Sidvictor", "prefix": "", "user": {"location": {"city": "Austin", "state": "TX", "country": "United States"}}, "player": {"id": 2515061, "gamerTag": "Sidvictor", "prefix": "", "user": {"location": {"city": "Austin", "state": "TX", "country": "United States"}}}}]}, "standing": {"placement": 1, "stats": {"score": {"value": 3}}}}, {"id": "93342027-1", "entrant": {"id": 20974572, "name": "Jel-Sensei", "participants": [{"id": 19295829, "gamerTag": "Jel-Sensei", "prefix": "", "user": {"location": {"city": "birmingham", "state": "AL", "country": "United States"}}, "player": {"id": 1966345, "gamerTag": "Jel-Sensei", "prefix": "", "user": {"location": {"city": "birmingham", "state": "AL", "country": "United States"}}}}]}, "standing": {"placement": 2, "stats": {"score": {"value": 2}}}}], "games": null}, {"id": 93342028, "state": 3, "round": 4, "fullRoundText": "Winners Quarter-Final", "completedAt": 1756665519, "winnerId": 21124433, "slots": [{"id": "93342028-0", "entrant": {"id": 21124433, "name": "TROLLGANG | hors-d'\u0153uvre offa napkin", "participants": [{"id": 19430239, "gamerTag": "hors-d'\u0153uvre offa napkin", "prefix": "TROLLGANG", "user": {"location": {"city": null, "state": null, "country": null}}, "player": {"id": 1601669, "gamerTag": "Love", "prefix": "TROLLGANG", "user": {"location": {"city": null, "state": null, "country": null}}}}]}, "standing": {"placement": 1, "stats": {"score": {"value": 3}}}}, {"id": "93342028-1", "entrant": {"id": 21126168, "name": "Psyro", "participants": [{"id": 19431937, "gamerTag": "Psyro", "prefix": "", "user": {"location": {"city": "Tuscaloosa", "state": "GA", "country": "United States"}}, "player": {"id": 2358101, "gamerTag": "Psyro", "prefix": "", "user": {"location": {"city": "Tuscaloosa", "state": "GA", "country": "United States"}}}}]}, "standing": {"placement": 2, "stats": {"score": {"value": 2}}}}], "games": null}, {"id": 93342029, "state": 3, "round": 4, "fullRoundText": "Winners Quarter-Final", "completedAt": 1756664681, "winnerId": 20951583, "slots": [{"id": "93342029-0", "entrant": {"id": 20951583, "name": "TROLLGANG | Bozo", "participants": [{"id": 19275900, "gamerTag": "Bozo", "prefix": "TROLLGANG", "user": {"location": {"city": "NYC", "state": "NY", "country": "United States"}}, "player": {"id": 1125705, "gamerTag": "Bozo", "prefix": "TROLLGANG", "user": {"location": {"city": "NYC", "state": "NY", "country": "United States"}}}}]}, "standing": {"placement": 1, "stats": {"score": {"value": 3}}}}, {"id": "93342029-1", "entrant": {"id": 20858771, "name": "Cat", "participants": [{"id": 19194117, "gamerTag": "Cat", "prefix": null, "user": {"location": {"city": null, "state": null, "country": "United States"}}, "player": {"id": 2159834, "gamerTag": "Cat", "prefix": null, "user": {"location": {"city": null, "state": null, "country": "United States"}}}}]}, "standing": {"placement": 2, "stats": {"score": {"value": 0}}}}], "games": null}, {"id": 93342030, "state": 3, "round": 4, "fullRoundText": "Winners Quarter-Final", "completedAt": 1756664013, "winnerId": 21125154, "slots": [{"id": "93342030-0", "entrant": {"id": 21128176, "name": "goostain", "participants": [{"id": 19422888, "gamerTag": "goostain", "prefix": null, "user": {"location": {"city": "Huntersville", "state": "NC", "country": "United States"}}, "player": {"id": 3365655, "gamerTag": "goostain", "prefix": "", "user": {"location": {"city": "Huntersville", "state": "NC", "country": "United States"}}}}]}, "standing": {"placement": 2, "stats": {"score": {"value": 0}}}}, {"id": "93342030-1", "entrant": {"id": 21125154, "name": "UmKellan", "participants": [{"id": 19430916, "gamerTag": "UmKellan", "prefix": "", "user": {"location": {"city": "Atlanta", "state": "GA", "country": "United States"}}, "player": {"id": 1022375, "gamerTag": "UmKellan", "prefix": "", "user": {"location": {"city": "Atlanta", "state": "GA", "country": "United States"}}}}]}, "standing": {"placement": 1, "stats": {"score": {"value": 3}}}}], "games": null}, {"id": 93342152, "state": 3, "round": -8, "fullRoundText": "Losers Round 5", "completedAt": 1756667063, "winnerId": 20935381, "slots": [{"id": "93342152-0", "entrant": {"id": 20858771, "name": "Cat", "participants": [{"id": 19194117, "gamerTag": "Cat", "prefix": null, "user": {"location": {"city": null, "state": null, "country": "United States"}}, "player": {"id": 2159834, "gamerTag": "Cat", "prefix": null, "user": {"location": {"city": null, "state": null, "country": "United States"}}}}]}, "standing": {"placement": 2, "stats": {"score": {"value": 1}}}}, {"id": "93342152-1", "entrant": {"id": 20935381, "name": "ATLRiot", "participants": [{"id": 19261454, "gamerTag": "ATLRiot", "prefix": "", "user": {"location": {"city": "Augusta", "state": "GA", "country": "United States"}}, "player": {"id": 2057913, "gamerTag": "ATLRiot", "prefix": "", "user": {"location": {"city": "Augusta", "state": "GA", "country": "United States"}}}}]}, "standing": {"placement": 1, "stats": {"score": {"value": 3}}}}], "games": null}]}}}