{"phase": {"seeds": {"pageInfo": {"totalPages": 1, "total": 6}, "nodes": [{"id": 37016652, "seedNum": 1, "entrant": {"id": 21546807, "name": "blaise", "participants": [{"id": 19788200, "gamerTag": "blaise", "prefix": "", "user": {"location": {"city": "douglasville", "state": "GA", "country": "United States"}}, "player": {"id": 1326121, "gamerTag": "blaise", "prefix": "", "user": {"location": {"city": "douglasville", "state": "GA", "country": "United States"}}}}]}}, {"id": 37016654, "seedNum": 2, "entrant": {"id": 21546809, "name": "Stenaven", "participants": [{"id": 19796742, "gamerTag": "Stenaven", "prefix": "", "user": {"location": {"city": "", "state": "GA", "country": "United States"}}, "player": {"id": 229871, "gamerTag": "Stenaven", "prefix": "", "user": {"location": {"city": "", "state": "GA", "country": "United States"}}}}]}}, {"id": 37016700, "seedNum": 4, "entrant": {"id": 21546845, "name": "MarioMan505", "participants": [{"id": 19799122, "gamerTag": "MarioMan505", "prefix": "", "user": null, "player": {"id": 5018440, "gamerTag": "MarioMan505", "prefix": "", "user": null}}]}}, {"id": 37016396, "seedNum": 3, "entrant": {"id": 21546573, "name": "KHW | Frumps", "participants": [{"id": 19795692, "gamerTag": "Frumps", "prefix": "KHW", "user": {"location": {"city": "Greenville", "state": "SC", "country": "United States"}}, "player": {"id": 2844590, "gamerTag": "Frumps", "prefix": "KHW", "user": {"location": {"city": "Greenville", "state": "SC", "country": "United States"}}}}]}}, {"id": 37016434, "seedNum": 5, "entrant": {"id": 21546617, "name": "Permafrost", "participants": [{"id": 19794494, "gamerTag": "Permafrost", "prefix": "", "user": {"location": {"city": "Atlanta", "state": "GA", "country": "United States"}}, "player": {"id": 1256898, "gamerTag": "Permafrost", "prefix": "", "user": {"location": {"city": "Atlanta", "state": "GA", "country": "United States"}}}}]}}, {"id": 37016316, "seedNum": 6, "entrant": {"id": 21546495, "name": "Evil | JackTheGiant", "participants": [{"id": 19793838, "gamerTag": "JackTheGiant", "prefix": "Evil", "user": {"location": {"city": "Woodstock", "state": "GA", "country": "United States"}}, "player": {"id": 2393715, "gamerTag": "JackTheGiant", "prefix": "Evil", "user": {"location": {"city": "Woodstock", "state": "GA", "country": "United States"}}}}]}}]}}}