{"event": {"sets": {"pageInfo": {"totalPages": 2, "total": 28}, "nodes": [{"id": 92666020, "state": 3, "round": 5, "fullRoundText": "Grand Final", "completedAt": 1755224056, "winnerId": 20947802, "slots": [{"id": "92666020-0", "entrant": {"id": 20947802, "name": "swaggerbee", "participants": [{"id": 19272628, "gamerTag": "swaggerbee", "prefix": "", "user": {"location": {"city": "Atlanta", "state": "GA", "country": "United States"}}, "player": {"id": 1687384, "gamerTag": "swaggerbee", "prefix": "", "user": {"location": {"city": "Atlanta", "state": "GA", "country": "United States"}}}}]}, "standing": {"placement": 1, "stats": {"score": {"value": 3}}}}, {"id": "92666020-1", "entrant": {"id": 20959292, "name": "vivesthesia", "participants": [{"id": 19282378, "gamerTag": "vivesthesia", "prefix": null, "user": {"location": {"city": "Atlanta", "state": "GA", "country": "United States"}}, "player": {"id": 4395171, "gamerTag": "vivesthesia", "prefix": null, "user": {"location": {"city": "Atlanta", "state": "GA", "country": "United States"}}}}]}, "standing": {"placement": 2, "stats": {"score": {"value": 1}}}}], "games": null}, {"id": 92666019, "state": 3, "round": 4, "fullRoundText": "Winners Final", "completedAt": 1755222005, "winnerId": 20947802, "slots": [{"id": "92666019-0", "entrant": {"id": 20959292, "name": "vivesthesia", "participants": [{"id": 19282378, "gamerTag": "vivesthesia", "prefix": null, "user": {"location": {"city": "Atlanta", "state": "GA", "country": "United States"}}, "player": {"id": 4395171, "gamerTag": "vivesthesia", "prefix": null, "user": {"location": {"city": "Atlanta", "state": "GA", "country": "United States"}}}}]}, "standing": {"placement": 2, "stats": {"score": {"value": 1}}}}, {"id": "92666019-1", "entrant": {"id": 20947802, "name": "swaggerbee", "participants": [{"id": 19272628, "gamerTag": "swaggerbee", "prefix": "", "user": {"location": {"city": "Atlanta", "state": "GA", "country": "United States"}}, "player": {"id": 1687384, "gamerTag": "swaggerbee", "prefix": "", "user": {"location": {"city": "Atlanta", "state": "GA", "country": "United States"}}}}]}, "standing": {"placement": 1, "stats": {"score": {"value": 3}}}}], "games": null}, {"id": 92666051, "state": 3, "round": -8, "fullRoundText": "Losers Final", "completedAt": 1755224036, "winnerId": 20959292, "slots": [{"id": "92666051-0", "entrant": {"id": 20959292, "name": "vivesthesia", "participants": [{"id": 19282378, "gamerTag": "vivesthesia", "prefix": null, "user": {"location": {"city": "Atlanta", "state": "GA", "country": "United States"}}, "player": {"id": 4395171, "gamerTag": "vivesthesia", "prefix": null, "user": {"location": {"city": "Atlanta", "state": "GA", "country": "United States"}}}}]}, "standing": {"placement": 1, "stats": {"score": {"value": 3}}}}, {"id": "92666051-1", "entrant": {"id": 20958561, "name": "audrey", "participants": [{"id": 19281764, "gamerTag": "audrey", "prefix": null, "user": {"location": {"city": "Dunwoody", "state": "GA", "country": "United States"}}, "player": {"id": 1335864, "gamerTag": "audrey", "prefix": null, "user": {"location": {"city": "Dunwoody", "state": "GA", "country": "United States"}}}}]}, "standing": {"placement": 2, "stats": {"score": {"value": 2}}}}], "games": null}, {"id": 92666050, "state": 3, "round": -7, "fullRoundText": "Losers Semi-Final", "completedAt": 1755221655, "winnerId": 20958561, "slots": [{"id": "92666050-0", "entrant": {"id": 20971853, "name": "skyguy | bag", "participants": [{"id": 19293396, "gamerTag": "bag", "prefix": "skyguy", "user": {"location": {"city": "Atlanta", "state": "GA", "country": "United States"}}, "player": {"id": 271346, "gamerTag": "bag", "prefix": "skyguy", "user": {"location": {"city": "Atlanta", "state": "GA", "country": "United States"}}}}]}, "standing": {"placement": 2, "stats": {"score": {"value": 1}}}}, {"id": "92666050-1", "entrant": {"id": 20958561, "name": "audrey", "participants": [{"id": 19281764, "gamerTag": "audrey", "prefix": null, "user": {"location": {"city": "Dunwoody", "state": "GA", "country": "United States"}}, "player": {"id": 1335864, "gamerTag": "audrey", "prefix": null, "user": {"location": {"city": "Dunwoody", "state": "GA", "country": "United States"}}}}]}, "standing": {"placement": 1, "stats": {"score": {"value": 3}}}}], "games": null}, {"id": 92666017, "state": 3, "round": 3, "fullRoundText": "Winners Semi-Final", "completedAt": 1755220073, "winnerId": 20959292, "slots": [{"id": "92666017-0", "entrant": {"id": 20959292, "name": "vivesthesia", "participants": [{"id": 19282378, "gamerTag": "vivesthesia", "prefix": null, "user": {"location": {"city": "Atlanta", "state": "GA", "country": "United States"}}, "player": {"id": 4395171, "gamerTag": "vivesthesia", "prefix": null, "user": {"location": {"city": "Atlanta", "state": "GA", "country": "United States"}}}}]}, "standing": {"placement": 1, "stats": {"score": {"value": 3}}}}, {"id": "92666017-1", "entrant": {"id": 20971853, "name": "skyguy | bag", "participants": [{"id": 19293396, "gamerTag": "bag", "prefix": "skyguy", "user": {"location": {"city": "Atlanta", "state": "GA", "country": "United States"}}, "player": {"id": 271346, "gamerTag": "bag", "prefix": "skyguy", "user": {"location": {"city": "Atlanta", "state": "GA", "country": "United States"}}}}]}, "standing": {"placement": 2, "stats": {"score": {"value": 1}}}}], "games": null}, {"id": 92666018, "state": 3, "round": 3, "fullRoundText": "Winners Semi-Final", "completedAt": 1755219194, "winnerId": 20947802, "slots": [{"id": "92666018-0", "entrant": {"id": 20947802, "name": "swaggerbee", "participants": [{"id": 19272628, "gamerTag": "swaggerbee", "prefix": "", "user": {"location": {"city": "Atlanta", "state": "GA", "country": "United States"}}, "player": {"id": 1687384, "gamerTag": "swaggerbee", "prefix": "", "user": {"location": {"city": "Atlanta", "state": "GA", "country": "United States"}}}}]}, "standing": {"placement": 1, "stats": {"score": {"value": 3}}}}, {"id": "92666018-1", "entrant": {"id": 20958561, "name": "audrey", "participants": [{"id": 19281764, "gamerTag": "audrey", "prefix": null, "user": {"location": {"city": "Dunwoody", "state": "GA", "country": "United States"}}, "player": {"id": 1335864, "gamerTag": "audrey", "prefix": null, "user": {"location": {"city": "Dunwoody", "state": "GA", "country": "United States"}}}}]}, "standing": {"placement": 2, "stats": {"score": {"value": 0}}}}], "games": null}, {"id": 92666049, "state": 3, "round": -6, "fullRoundText": "Losers Quarter-Final", "completedAt": 1755221537, "winnerId": 20958561, "slots": [{"id": "92666049-0", "entrant": {"id": 20958561, "name": "audrey", "participants": [{"id": 19281764, "gamerTag": "audrey", "prefix": null, "user": {"location": {"city": "Dunwoody", "state": "GA", "country": "United States"}}, "player": {"id": 1335864, "gamerTag": "audrey", "prefix": null, "user": {"location": {"city": "Dunwoody", "state": "GA", "country": "United States"}}}}]}, "standing": {"placement": 1, "stats": {"score": {"value": 3}}}}, {"id": "92666049-1", "entrant": {"id": 20949797, "name": "Monolithic", "participants": [{"id": 19274283, "gamerTag": "Monolithic", "prefix": "", "user": {"location": {"city": "", "state": "GA", "country": "United States"}}, "player": {"id": 1926775, "gamerTag": "Monolithic", "prefix": "", "user": {"location": {"city": "", "state": "GA", "country": "United States"}}}}]}, "standing": {"placement": 2, "stats": {"score": {"value": 0}}}}], "games": [{"id": 31910448, "orderNum": 1, "winnerId": 20958561, "entrant1Score": null, "entrant2Score": 0, "stage": null, "selections": [{"id": 47003160, "selectionType": "CHARACTER", "selectionValue": 8, "entrant": {"id": 20949797}, "character": {"id": 8, "name": "Ice Climbers"}}, {"id": 47003161, "selectionType": "CHARACTER", "selectionValue": 6, "entrant": {"id": 20958561}, "character": {"id": 6, "name": "Fox"}}]}, {"id": 31910449, "orderNum": 2, "winnerId": 20958561, "entrant1Score": null, "entrant2Score": 0, "stage": null, "selections": [{"id": 47003162, "selectionType": "CHARACTER", "selectionValue": 8, "entrant": {"id": 20949797}, "character": {"id": 8, "name": "Ice Climbers"}}, {"id": 47003163, "selectionType": "CHARACTER", "selectionValue": 6, "entrant": {"id": 20958561}, "character": {"id": 6, "name": "Fox"}}]}, {"id": 31910450, "orderNum": 3, "winnerId": 20958561, "entrant1Score": null, "entrant2Score": 0, "stage": null, "selections": [{"id": 47003164, "selectionType": "CHARACTER", "selectionValue": 8, "entrant": {"id": 20949797}, "character": {"id": 8, "name": "Ice Climbers"}}, {"id": 47003165, "selectionType": "CHARACTER", "selectionValue": 6, "entrant": {"id": 20958561}, "character": {"id": 6, "name": "Fox"}}]}]}, {"id": 92666048, "state": 3, "round": -6, "fullRoundText": "Losers Quarter-Final", "completedAt": 1755220719, "winnerId": 20971853, "slots": [{"id": "92666048-0", "entrant": {"id": 20971853, "name": "skyguy | bag", "participants": [{"id": 19293396, "gamerTag": "bag", "prefix": "skyguy", "user": {"location": {"city": "Atlanta", "state": "GA", "country": "United States"}}, "player": {"id": 271346, "gamerTag": "bag", "prefix": "skyguy", "user": {"location": {"city": "Atlanta", "state": "GA", "country": "United States"}}}}]}, "standing": {"placement": 1, "stats": {"score": {"value": 3}}}}, {"id": "92666048-1", "entrant": {"id": 20970428, "name": "Joseph", "participants": [{"id": 19292108, "gamerTag": "Joseph", "prefix": "", "user": {"location": {"city": "", "state": "AL", "country": "United States"}}, "player": {"id": 22422, "gamerTag": "Joseph", "prefix": "", "user": {"location": {"city": "", "state": "AL", "country": "United States"}}}}]}, "standing": {"placement": 2, "stats": {"score": {"value": 0}}}}], "games": null}, {"id": 92666046, "state": 3, "round": -5, "fullRoundText": "Losers Round 3", "completedAt": 1755219411, "winnerId": 20970428, "slots": [{"id": "92666046-0", "entrant": {"id": 20970428, "name": "Joseph", "participants": [{"id": 19292108, "gamerTag": "Joseph", "prefix": "", "user": {"location": {"city": "", "state": "AL", "country": "United States"}}, "player": {"id": 22422, "gamerTag": "Joseph", "prefix": "", "user": {"location": {"city": "", "state": "AL", "country": "United States"}}}}]}, "standing": {"placement": 1, "stats": {"score": {"value": 3}}}}, {"id": "92666046-1", "entrant": {"id": 20963542, "name": "tomguy", "participants": [{"id": 19286019, "gamerTag": "tomguy", "prefix": "", "user": {"location": {"city": "Atlanta", "state": "GA", "country": "United States"}}, "player": {"id": 147458, "gamerTag": "tomguy", "prefix": "", "user": {"location": {"city": "Atlanta", "state": "GA", "country": "United States"}}}}]}, "standing": {"placement": 2, "stats": {"score": {"value": 1}}}}], "games": null}, {"id": 92666047, "state": 3, "round": -5, "fullRoundText": "Losers Round 3", "completedAt": 1755219777, "winnerId": 20949797, "slots": [{"id": "92666047-0", "entrant": {"id": 20949797, "name": "Monolithic", "participants": [{"id": 19274283, "gamerTag": "Monolithic", "prefix": "", "user": {"location": {"city": "", "state": "GA", "country": "United States"}}, "player": {"id": 1926775, "gamerTag": "Monolithic", "prefix": "", "user": {"location": {"city": "", "state": "GA", "country": "United States"}}}}]}, "standing": {"placement": 1, "stats": {"score": {"value": 3}}}}, {"id": "92666047-1", "entrant": {"id": 20969566, "name": "noided", "participants": [{"id": 19291318, "gamerTag": "noided", "prefix": "", "user": {"location": {"city": "Atlanta", "state": "GA", "country": "United States"}}, "player": {"id": 2586521, "gamerTag": "noided", "prefix": "", "user": {"location": {"city": "Atlanta", "state": "GA", "country": "United States"}}}}]}, "standing": {"placement": 2, "stats": {"score": {"value": 0}}}}], "games": [{"id": 31908975, "orderNum": 1, "winnerId": 20949797, "entrant1Score": null, "entrant2Score": 0, "stage": null, "selections": [{"id": 47001030, "selectionType": "CHARACTER", "selectionValue": 8, "entrant": {"id": 20949797}, "character": {"id": 8, "name": "Ice Climbers"}}, {"id": 47001031, "selectionType": "CHARACTER", "selectionValue": 5, "entrant": {"id": 20969566}, "character": {"id": 5, "name": "Falco"}}]}, {"id": 31908976, "orderNum": 2, "winnerId": 20949797, "entrant1Score": null, "entrant2Score": 0, "stage": null, "selections": [{"id": 47001032, "selectionType": "CHARACTER", "selectionValue": 8, "entrant": {"id": 20949797}, "character": {"id": 8, "name": "Ice Climbers"}}, {"id": 47001033, "selectionType": "CHARACTER", "selectionValue": 5, "entrant": {"id": 20969566}, "character": {"id": 5, "name": "Falco"}}]}, {"id": 31908977, "orderNum": 3, "winnerId": 20949797, "entrant1Score": 0, "entrant2Score": 0, "stage": null, "selections": [{"id": 47001034, "selectionType": "CHARACTER", "selectionValue": 8, "entrant": {"id": 20949797}, "character": {"id": 8, "name": "Ice Climbers"}}, {"id": 47001035, "selectionType": "CHARACTER", "selectionValue": 5, "entrant": {"id": 20969566}, "character": {"id": 5, "name": "Falco"}}]}]}, {"id": 92666013, "state": 3, "round": 2, "fullRoundText": "Winners Quarter-Final", "completedAt": 1755217860, "winnerId": 20959292, "slots": [{"id": "92666013-0", "entrant": {"id": 20959292, "name": "vivesthesia", "participants": [{"id": 19282378, "gamerTag": "vivesthesia", "prefix": null, "user": {"location": {"city": "Atlanta", "state": "GA", "country": "United States"}}, "player": {"id": 4395171, "gamerTag": "vivesthesia", "prefix": null, "user": {"location": {"city": "Atlanta", "state": "GA", "country": "United States"}}}}]}, "standing": {"placement": 1, "stats": {"score": {"value": 3}}}}, {"id": "92666013-1", "entrant": {"id": 20947847, "name": "Kingpoyothefirst", "participants": [{"id": 19272666, "gamerTag": "Kingpoyothefirst", "prefix": null, "user": {"location": {"city": null, "state": null, "country": null}}, "player": {"id": 2934299, "gamerTag": "Kingpoyothefirst", "prefix": "DD", "user": {"location": {"city": null, "state": null, "country": null}}}}]}, "standing": {"placement": 2, "stats": {"score": {"value": 0}}}}], "games": null}, {"id": 92666014, "state": 3, "round": 2, "fullRoundText": "Winners Quarter-Final", "completedAt": 1755219861, "winnerId": 20971853, "slots": [{"id": "92666014-0", "entrant": {"id": 20971853, "name": "skyguy | bag", "participants": [{"id": 19293396, "gamerTag": "bag", "prefix": "skyguy", "user": {"location": {"city": "Atlanta", "state": "GA", "country": "United States"}}, "player": {"id": 271346, "gamerTag": "bag", "prefix": "skyguy", "user": {"location": {"city": "Atlanta", "state": "GA", "country": "United States"}}}}]}, "standing": {"placement": 1, "stats": {"score": {"value": 3}}}}, {"id": "92666014-1", "entrant": {"id": 20949797, "name": "Monolithic", "participants": [{"id": 19274283, "gamerTag": "Monolithic", "prefix": "", "user": {"location": {"city": "", "state": "GA", "country": "United States"}}, "player": {"id": 1926775, "gamerTag": "Monolithic", "prefix": "", "user": {"location": {"city": "", "state": "GA", "country": "United States"}}}}]}, "standing": {"placement": 2, "stats": {"score": {"value": 1}}}}], "games": [{"id": 31909069, "orderNum": 1, "winnerId": 20949797, "entrant1Score": 0, "entrant2Score": null, "stage": null, "selections": [{"id": 47001148, "selectionType": "CHARACTER", "selectionValue": 8, "entrant": {"id": 20949797}, "character": {"id": 8, "name": "Ice Climbers"}}, {"id": 47001149, "selectionType": "CHARACTER", "selectionValue": 2, "entrant": {"id": 20971853}, "character": {"id": 2, "name": "Captain Falcon"}}]}, {"id": 31909070, "orderNum": 2, "winnerId": 20971853, "entrant1Score": null, "entrant2Score": 0, "stage": null, "selections": [{"id": 47001150, "selectionType": "CHARACTER", "selectionValue": 8, "entrant": {"id": 20949797}, "character": {"id": 8, "name": "Ice Climbers"}}, {"id": 47001151, "selectionType": "CHARACTER", "selectionValue": 2, "entrant": {"id": 20971853}, "character": {"id": 2, "name": "Captain Falcon"}}]}, {"id": 31909071, "orderNum": 3, "winnerId": 20971853, "entrant1Score": null, "entrant2Score": 0, "stage": null, "selections": [{"id": 47001152, "selectionType": "CHARACTER", "selectionValue": 8, "entrant": {"id": 20949797}, "character": {"id": 8, "name": "Ice Climbers"}}, {"id": 47001153, "selectionType": "CHARACTER", "selectionValue": 2, "entrant": {"id": 20971853}, "character": {"id": 2, "name": "Captain Falcon"}}]}, {"id": 31909072, "orderNum": 4, "winnerId": 20971853, "entrant1Score": null, "entrant2Score": 0, "stage": null, "selections": [{"id": 47001154, "selectionType": "CHARACTER", "selectionValue": 8, "entrant": {"id": 20949797}, "character": {"id": 8, "name": "Ice Climbers"}}, {"id": 47001155, "selectionType": "CHARACTER", "selectionValue": 2, "entrant": {"id": 20971853}, "character": {"id": 2, "name": "Captain Falcon"}}]}]}, {"id": 92666015, "state": 3, "round": 2, "fullRoundText": "Winners Quarter-Final", "completedAt": 1755217382, "winnerId": 20947802, "slots": [{"id": "92666015-0", "entrant": {"id": 20947802, "name": "swaggerbee", "participants": [{"id": 19272628, "gamerTag": "swaggerbee", "prefix": "", "user": {"location": {"city": "Atlanta", "state": "GA", "country": "United States"}}, "player": {"id": 1687384, "gamerTag": "swaggerbee", "prefix": "", "user": {"location": {"city": "Atlanta", "state": "GA", "country": "United States"}}}}]}, "standing": {"placement": 1, "stats": {"score": {"value": 3}}}}, {"id": "92666015-1", "entrant": {"id": 20963542, "name": "tomguy", "participants": [{"id": 19286019, "gamerTag": "tomguy", "prefix": "", "user": {"location": {"city": "Atlanta", "state": "GA", "country": "United States"}}, "player": {"id": 147458, "gamerTag": "tomguy", "prefix": "", "user": {"location": {"city": "Atlanta", "state": "GA", "country": "United States"}}}}]}, "standing": {"placement": 2, "stats": {"score": {"value": 0}}}}], "games": null}, {"id": 92666016, "state": 3, "round": 2, "fullRoundText": "Winners Quarter-Final", "completedAt": 1755217548, "winnerId": 20958561, "slots": [{"id": "92666016-0", "entrant": {"id": 20958561, "name": "audrey", "participants": [{"id": 19281764, "gamerTag": "audrey", "prefix": null, "user": {"location": {"city": "Dunwoody", "state": "GA", "country": "United States"}}, "player": {"id": 1335864, "gamerTag": "audrey", "prefix": null, "user": {"location": {"city": "Dunwoody", "state": "GA", "country": "United States"}}}}]}, "standing": {"placement": 1, "stats": {"score": {"value": 3}}}}, {"id": "92666016-1", "entrant": {"id": 20970428, "name": "Joseph", "participants": [{"id": 19292108, "gamerTag": "Joseph", "prefix": "", "user": {"location": {"city": "", "state": "AL", "country": "United States"}}, "player": {"id": 22422, "gamerTag": "Joseph", "prefix": "", "user": {"location": {"city": "", "state": "AL", "country": "United States"}}}}]}, "standing": {"placement": 2, "stats": {"score": {"value": 0}}}}], "games": null}, {"id": 92666042, "state": 3, "round": -4, "fullRoundText": "Losers Round 2", "completedAt": 1755218111, "winnerId": 20970428, "slots": [{"id": "92666042-0", "entrant": {"id": 20970428, "name": "Joseph", "participants": [{"id": 19292108, "gamerTag": "Joseph", "prefix": "", "user": {"location": {"city": "", "state": "AL", "country": "United States"}}, "player": {"id": 22422, "gamerTag": "Joseph", "prefix": "", "user": {"location": {"city": "", "state": "AL", "country": "United States"}}}}]}, "standing": {"placement": 1, "stats": {"score": {"value": 3}}}}, {"id": "92666042-1", "entrant": {"id": 20962985, "name": "Mac Piller", "participants": [{"id": 19285565, "gamerTag": "Mac Piller", "prefix": null, "user": {"location": {"city": "Auburn", "state": "AL", "country": "United States"}}, "player": {"id": 2363610, "gamerTag": "soup time", "prefix": null, "user": {"location": {"city": "Auburn", "state": "AL", "country": "United States"}}}}]}, "standing": {"placement": 2, "stats": {"score": {"value": 0}}}}], "games": null}]}}}