{"phase": {"seeds": {"pageInfo": {"totalPages": 1, "total": 8}, "nodes": [{"id": 36462252, "seedNum": 1, "entrant": {"id": 21164675, "name": "swaggerbee", "participants": [{"id": 19465975, "gamerTag": "swaggerbee", "prefix": "", "user": {"location": {"city": "Atlanta", "state": "GA", "country": "United States"}}, "player": {"id": 1687384, "gamerTag": "swaggerbee", "prefix": "", "user": {"location": {"city": "Atlanta", "state": "GA", "country": "United States"}}}}]}}, {"id": 36467906, "seedNum": 2, "entrant": {"id": 21167666, "name": "tomguy", "participants": [{"id": 19468640, "gamerTag": "tomguy", "prefix": "", "user": {"location": {"city": "Atlanta", "state": "GA", "country": "United States"}}, "player": {"id": 147458, "gamerTag": "tomguy", "prefix": "", "user": {"location": {"city": "Atlanta", "state": "GA", "country": "United States"}}}}]}}, {"id": 36448058, "seedNum": 3, "entrant": {"id": 21153657, "name": "EVIL | Alas", "participants": [{"id": 19456506, "gamerTag": "Alas", "prefix": "EVIL", "user": {"location": {"city": null, "state": null, "country": null}}, "player": {"id": 25946, "gamerTag": "Alas", "prefix": "EVIL", "user": {"location": {"city": null, "state": null, "country": null}}}}]}}, {"id": 36448261, "seedNum": 4, "entrant": {"id": 21153861, "name": "DD | Kingpoyothefirst", "participants": [{"id": 19456662, "gamerTag": "Kingpoyothefirst", "prefix": "DD", "user": {"location": {"city": null, "state": null, "country": null}}, "player": {"id": 2934299, "gamerTag": "Kingpoyothefirst", "prefix": "DD", "user": {"location": {"city": null, "state": null, "country": null}}}}]}}, {"id": 36450728, "seedNum": 5, "entrant": {"id": 21155684, "name": "The Hive | braxton", "participants": [{"id": 19458200, "gamerTag": "braxton", "prefix": "The Hive", "user": {"location": {"city": "Atlanta", "state": "GA", "country": "United States"}}, "player": {"id": 1037821, "gamerTag": "braxton", "prefix": "The Hive", "user": {"location": {"city": "Atlanta", "state": "GA", "country": "United States"}}}}]}}, {"id": 36467364, "seedNum": 6, "entrant": {"id": 21167205, "name": "blaise", "participants": [{"id": 19468206, "gamerTag": "blaise", "prefix": "", "user": {"location": {"city": "douglasville", "state": "GA", "country": "United States"}}, "player": {"id": 1326121, "gamerTag": "blaise", "prefix": "", "user": {"location": {"city": "douglasville", "state": "GA", "country": "United States"}}}}]}}, {"id": 36463787, "seedNum": 7, "entrant": {"id": 21165302, "name": "NMBS | roshi", "participants": [{"id": 19466490, "gamerTag": "roshi", "prefix": "NMBS", "user": {"location": {"city": "Atlanta", "state": "GA", "country": "United States"}}, "player": {"id": 37667, "gamerTag": "roshi", "prefix": "NMBS", "user": {"location": {"city": "Atlanta", "state": "GA", "country": "United States"}}}}]}}, {"id": 36461277, "seedNum": 8, "entrant": {"id": 21163935, "name": "FtR | Sneak", "participants": [{"id": 19465401, "gamerTag": "Sneak", "prefix": "FtR", "user": {"location": {"city": "Villa Rica", "state": "GA", "country": "United States"}}, "player": {"id": 1902931, "gamerTag": "Sneak", "prefix": null, "user": {"location": {"city": "Villa Rica", "state": "GA", "country": "United States"}}}}]}}]}}}