{"phase": {"seeds": {"pageInfo": {"totalPages": 1, "total": 44}, "nodes": [{"id": 35876679, "seedNum": 1, "entrant": {"id": 20791162, "name": "DTN | Jahzz0", "participants": [{"id": 19134542, "gamerTag": "Jahzz0", "prefix": "DTN", "user": {"location": {"city": null, "state": null, "country": "United States"}}, "player": {"id": 946548, "gamerTag": "Jahzz0", "prefix": "DTN", "user": {"location": {"city": null, "state": null, "country": "United States"}}}}]}}, {"id": 35876447, "seedNum": 2, "entrant": {"id": 20790954, "name": "DGS | spickles", "participants": [{"id": 19134345, "gamerTag": "spickles", "prefix": "DGS", "user": {"location": {"city": null, "state": null, "country": "United States"}}, "player": {"id": 1154793, "gamerTag": "spickles", "prefix": "DGS", "user": {"location": {"city": null, "state": null, "country": "United States"}}}}]}}, {"id": 35766830, "seedNum": 6, "entrant": {"id": 20727118, "name": "Ave~", "participants": [{"id": 19075249, "gamerTag": "Ave~", "prefix": "", "user": {"location": {"city": null, "state": null, "country": null}}, "player": {"id": 38830, "gamerTag": "Ave~", "prefix": "", "user": {"location": {"city": null, "state": null, "country": null}}}}]}}, {"id": 35876859, "seedNum": 4, "entrant": {"id": 20791337, "name": "GUMP2 | Eleven", "participants": [{"id": 19134702, "gamerTag": "Eleven", "prefix": "GUMP2", "user": {"location": {"city": null, "state": null, "country": null}}, "player": {"id": 2348605, "gamerTag": "Ryu from Streets", "prefix": "GUMP2", "user": {"location": {"city": null, "state": null, "country": null}}}}]}}, {"id": 35860810, "seedNum": 7, "entrant": {"id": 20781475, "name": "Kuma | Danye", "participants": [{"id": 19125538, "gamerTag": "Danye", "prefix": "Kuma", "user": {"location": {"city": "Duluth", "state": "GA", "country": "United States"}}, "player": {"id": 248498, "gamerTag": "Danye", "prefix": "Kuma", "user": {"location": {"city": "Duluth", "state": "GA", "country": "United States"}}}}]}}, {"id": 35846427, "seedNum": 10, "entrant": {"id": 20773635, "name": "Coven | Shelley", "participants": [{"id": 19118081, "gamerTag": "Shelley", "prefix": "Coven", "user": {"location": {"city": "Norcross", "state": "MS", "country": "United States"}}, "player": {"id": 4726196, "gamerTag": "REM!!!", "prefix": "Coven", "user": {"location": {"city": "Norcross", "state": "MS", "country": "United States"}}}}]}}, {"id": 35870953, "seedNum": 11, "entrant": {"id": 20786890, "name": "EVC | squirtleB", "participants": [{"id": 19130450, "gamerTag": "squirtleB", "prefix": "EVC", "user": {"location": {"city": null, "state": null, "country": null}}, "player": {"id": 264290, "gamerTag": "squirtleB", "prefix": "EVC", "user": {"location": {"city": null, "state": null, "country": null}}}}]}}, {"id": 35876237, "seedNum": 16, "entrant": {"id": 20790809, "name": "Barbashop", "participants": [{"id": 19134213, "gamerTag": "Barbashop", "prefix": "", "user": {"location": {"city": null, "state": null, "country": null}}, "player": {"id": 2537853, "gamerTag": "Barbashop", "prefix": "", "user": {"location": {"city": null, "state": null, "country": null}}}}]}}, {"id": 35875218, "seedNum": 3, "entrant": {"id": 20790037, "name": "GUMP2 | Sakana", "participants": [{"id": 19133464, "gamerTag": "Sakana", "prefix": "GUMP2", "user": {"location": {"city": null, "state": null, "country": "United States"}}, "player": {"id": 1045059, "gamerTag": "Sakana", "prefix": "GUMP2", "user": {"location": {"city": null, "state": null, "country": "United States"}}}}]}}, {"id": 35875177, "seedNum": 5, "entrant": {"id": 20789997, "name": "KumaDusk", "participants": [{"id": 19133424, "gamerTag": "KumaDusk", "prefix": "", "user": {"location": {"city": "Lawrenceville", "state": "GA", "country": "United States"}}, "player": {"id": 253909, "gamerTag": "KumaDusk", "prefix": "", "user": {"location": {"city": "Lawrenceville", "state": "GA", "country": "United States"}}}}]}}, {"id": 35874435, "seedNum": 9, "entrant": {"id": 20789303, "name": "Kailen", "participants": [{"id": 19132749, "gamerTag": "Kailen", "prefix": "", "user": {"location": {"city": "Atlanta", "state": "GA", "country": "United States"}}, "player": {"id": 1647157, "gamerTag": "Kailen", "prefix": "", "user": {"location": {"city": "Atlanta", "state": "GA", "country": "United States"}}}}]}}, {"id": 35867689, "seedNum": 13, "entrant": {"id": 20784767, "name": "GUMP2 | STiCK", "participants": [{"id": 19128318, "gamerTag": "STiCK", "prefix": "GUMP2", "user": {"location": {"city": "Woodstock", "state": "GA", "country": "United States"}}, "player": {"id": 282674, "gamerTag": "STiCK", "prefix": "GUMP2", "user": {"location": {"city": "Woodstock", "state": "GA", "country": "United States"}}}}]}}, {"id": 35871330, "seedNum": 12, "entrant": {"id": 20787196, "name": "GUMP2 | ToxiC", "participants": [{"id": 19130741, "gamerTag": "ToxiC", "prefix": "GUMP2", "user": {"location": {"city": "Marietta", "state": "GA", "country": "United States"}}, "player": {"id": 2585804, "gamerTag": "ToxiC", "prefix": "GUMP2", "user": {"location": {"city": "Marietta", "state": "GA", "country": "United States"}}}}]}}, {"id": 35878406, "seedNum": 14, "entrant": {"id": 20792229, "name": "RM | GUMP2 | Kr!stal:0", "participants": [{"id": 19135460, "gamerTag": "Kr!stal:0", "prefix": "RM | GUMP2", "user": {"location": {"city": "Lawrenceville", "state": "GA", "country": "United States"}}, "player": {"id": 2409815, "gamerTag": "AO ASHI SEASON 2 2026", "prefix": "RM | GUMP2", "user": {"location": {"city": "Lawrenceville", "state": "GA", "country": "United States"}}}}]}}, {"id": 35876649, "seedNum": 15, "entrant": {"id": 20791132, "name": "GUMP2 | JankTrees!", "participants": [{"id": 19134516, "gamerTag": "JankTrees!", "prefix": "GUMP2", "user": {"location": {"city": "Cartersville", "state": "GA", "country": "United States"}}, "player": {"id": 35695, "gamerTag": "JankTrees!", "prefix": "GUMP2", "user": {"location": {"city": "Cartersville", "state": "GA", "country": "United States"}}}}]}}, {"id": 35870197, "seedNum": 23, "entrant": {"id": 20786328, "name": "Rain~", "participants": [{"id": 19129860, "gamerTag": "Rain~", "prefix": null, "user": {"location": {"city": "Atlanta", "state": "GA", "country": "United States"}}, "player": {"id": 4240164, "gamerTag": "Rain~", "prefix": null, "user": {"location": {"city": "Atlanta", "state": "GA", "country": "United States"}}}}]}}, {"id": 35877133, "seedNum": 8, "entrant": {"id": 20791542, "name": "MBS | Vivid", "participants": [{"id": 19134890, "gamerTag": "Vivid", "prefix": "MBS", "user": {"location": {"city": "Atl", "state": "GA", "country": "United States"}}, "player": {"id": 499333, "gamerTag": "Vivid", "prefix": "MBS", "user": {"location": {"city": "Atl", "state": "GA", "country": "United States"}}}}]}}, {"id": 35877131, "seedNum": 17, "entrant": {"id": 20791537, "name": "VA | StreetDzine", "participants": [{"id": 19134886, "gamerTag": "StreetDzine", "prefix": "VA", "user": {"location": {"city": null, "state": null, "country": "United States"}}, "player": {"id": 989587, "gamerTag": "StreetDzine", "prefix": "VA", "user": {"location": {"city": null, "state": null, "country": "United States"}}}}]}}, {"id": 35803940, "seedNum": 18, "entrant": {"id": 20751000, "name": "cO | Netherlord64", "participants": [{"id": 19096478, "gamerTag": "Netherlord64", "prefix": "cO", "user": {"location": {"city": "Roswell", "state": "GA", "country": "United States"}}, "player": {"id": 4586226, "gamerTag": "Netherlord64", "prefix": "", "user": {"location": {"city": "Roswell", "state": "GA", "country": "United States"}}}}]}}, {"id": 35877863, "seedNum": 19, "entrant": {"id": 20791953, "name": "WFF | Olive", "participants": [{"id": 19135245, "gamerTag": "Olive", "prefix": "WFF", "user": {"location": {"city": "Atlanta", "state": "GA", "country": "United States"}}, "player": {"id": 1810274, "gamerTag": "Planet Of Da", "prefix": "WeFarmFrank", "user": {"location": {"city": "Atlanta", "state": "GA", "country": "United States"}}}}]}}, {"id": 35877354, "seedNum": 20, "entrant": {"id": 20791673, "name": "RM | lawl", "participants": [{"id": 19134998, "gamerTag": "lawl", "prefix": "RM", "user": {"location": {"city": "Dacula", "state": "GA", "country": "United States"}}, "player": {"id": 2116990, "gamerTag": "lawl", "prefix": "RM", "user": {"location": {"city": "Dacula", "state": "GA", "country": "United States"}}}}]}}, {"id": 35875143, "seedNum": 22, "entrant": {"id": 20789986, "name": "WFF | Happy", "participants": [{"id": 19133414, "gamerTag": "Happy", "prefix": "WFF", "user": {"location": {"city": "Peachtree CIty", "state": "GA", "country": "United States"}}, "player": {"id": 1383907, "gamerTag": "Happy", "prefix": "WFF", "user": {"location": {"city": "Peachtree CIty", "state": "GA", "country": "United States"}}}}]}}, {"id": 35877508, "seedNum": 24, "entrant": {"id": 20791724, "name": "AO5 | ImPhenyl", "participants": [{"id": 19135044, "gamerTag": "ImPhenyl", "prefix": "AO5", "user": {"location": {"city": "Lawrenceville", "state": "GA", "country": "United States"}}, "player": {"id": 3256876, "gamerTag": "ImPhenyl", "prefix": "AO5", "user": {"location": {"city": "Lawrenceville", "state": "GA", "country": "United States"}}}}]}}, {"id": 35873423, "seedNum": 28, "entrant": {"id": 20788784, "name": "Boo", "participants": [{"id": 19132250, "gamerTag": "Boo", "prefix": "", "user": {"location": {"city": "Cumming", "state": "GA", "country": "United States"}}, "player": {"id": 2647915, "gamerTag": "Boo", "prefix": "", "user": {"location": {"city": "Cumming", "state": "GA", "country": "United States"}}}}]}}, {"id": 35876218, "seedNum": 21, "entrant": {"id": 20790796, "name": "ACE | Ace_CMH", "participants": [{"id": 19134201, "gamerTag": "Ace_CMH", "prefix": "ACE", "user": {"location": {"city": "Marietta", "state": "GA", "country": "United States"}}, "player": {"id": 1990149, "gamerTag": "Ace_CMH", "prefix": "ACE", "user": {"location": {"city": "Marietta", "state": "GA", "country": "United States"}}}}]}}, {"id": 35877226, "seedNum": 25, "entrant": {"id": 20791607, "name": "cole | Jeff", "participants": [{"id": 19134943, "gamerTag": "Jeff", "prefix": "cole", "user": {"location": {"city": "Raleigh", "state": "NC", "country": "United States"}}, "player": {"id": 1324465, "gamerTag": "Jeff", "prefix": "cole", "user": {"location": {"city": "Raleigh", "state": "NC", "country": "United States"}}}}]}}, {"id": 35874655, "seedNum": 26, "entrant": {"id": 20789502, "name": "Whaley", "participants": [{"id": 19132945, "gamerTag": "Whaley", "prefix": "", "user": {"location": {"city": "Stone Mountain", "state": "GA", "country": "United States"}}, "player": {"id": 2016149, "gamerTag": "Whaley", "prefix": "KSU|UTO|BLZE", "user": {"location": {"city": "Stone Mountain", "state": "GA", "country": "United States"}}}}]}}, {"id": 35876058, "seedNum": 29, "entrant": {"id": 20790685, "name": "carlop", "participants": [{"id": 19134101, "gamerTag": "carlop", "prefix": null, "user": {"location": {"city": "Johns Creek", "state": "GA", "country": "United States"}}, "player": {"id": 3431919, "gamerTag": "carlop", "prefix": null, "user": {"location": {"city": "Johns Creek", "state": "GA", "country": "United States"}}}}]}}, {"id": 35876707, "seedNum": 30, "entrant": {"id": 20791189, "name": "SIR | vivor", "participants": [{"id": 19134567, "gamerTag": "vivor", "prefix": "SIR", "user": {"location": {"city": "Atlanta", "state": "GA", "country": "United States"}}, "player": {"id": 3373990, "gamerTag": "vivor", "prefix": "SIR", "user": {"location": {"city": "Atlanta", "state": "GA", "country": "United States"}}}}]}}, {"id": 35871583, "seedNum": 31, "entrant": {"id": 20787357, "name": "Nikol", "participants": [{"id": 19130909, "gamerTag": "Nikol", "prefix": "", "user": {"location": {"city": "Stockbridge", "state": "GA", "country": "United States"}}, "player": {"id": 2152846, "gamerTag": "Nikol", "prefix": "", "user": {"location": {"city": "Stockbridge", "state": "GA", "country": "United States"}}}}]}}, {"id": 35877331, "seedNum": 33, "entrant": {"id": 20791651, "name": "4o4 | Sh33rZ", "participants": [{"id": 19134982, "gamerTag": "Sh33rZ", "prefix": "4o4", "user": {"location": {"city": "alpharetta", "state": "GA", "country": "United States"}}, "player": {"id": 3640465, "gamerTag": "Sh33rZ", "prefix": "4o4", "user": {"location": {"city": "alpharetta", "state": "GA", "country": "United States"}}}}]}}, {"id": 35874594, "seedNum": 38, "entrant": {"id": 20789452, "name": "11D7", "participants": [{"id": 19132892, "gamerTag": "11D7", "prefix": null, "user": {"location": {"city": "Alpharetta", "state": "GA", "country": "United States"}}, "player": {"id": 4064891, "gamerTag": "11D7", "prefix": null, "user": {"location": {"city": "Alpharetta", "state": "GA", "country": "United States"}}}}]}}, {"id": 35874738, "seedNum": 27, "entrant": {"id": 20789590, "name": "LVL? | VaR", "participants": [{"id": 19133026, "gamerTag": "VaR", "prefix": "LVL?", "user": {"location": {"city": "Atlanta", "state": "GA", "country": "United States"}}, "player": {"id": 329546, "gamerTag": "VaR", "prefix": "GG", "user": {"location": {"city": "Atlanta", "state": "GA", "country": "United States"}}}}]}}, {"id": 35876797, "seedNum": 32, "entrant": {"id": 20791283, "name": "Par-i-dot Alpha", "participants": [{"id": 19134654, "gamerTag": "Par-i-dot Alpha", "prefix": "", "user": {"location": {"city": "Lithoina", "state": "GA", "country": "United States"}}, "player": {"id": 36418, "gamerTag": "Avalon", "prefix": "", "user": {"location": {"city": "Lithoina", "state": "GA", "country": "United States"}}}}]}}, {"id": 35877737, "seedNum": 34, "entrant": {"id": 20791906, "name": "SamRice", "participants": [{"id": 19135206, "gamerTag": "SamRice", "prefix": "", "user": {"location": {"city": "Norcross", "state": "GA", "country": "United States"}}, "player": {"id": 2387403, "gamerTag": "SamRice", "prefix": "", "user": {"location": {"city": "Norcross", "state": "GA", "country": "United States"}}}}]}}, {"id": 35876060, "seedNum": 35, "entrant": {"id": 20790687, "name": "Pleeploploop", "participants": [{"id": 19134103, "gamerTag": "Pleeploploop", "prefix": "", "user": {"location": {"city": "Snellville", "state": null, "country": "United States"}}, "player": {"id": 1739676, "gamerTag": "Pleeploploop", "prefix": "", "user": {"location": {"city": "Snellville", "state": null, "country": "United States"}}}}]}}, {"id": 35877996, "seedNum": 36, "entrant": {"id": 20792057, "name": "D.King79", "participants": [{"id": 19135323, "gamerTag": "D.King79", "prefix": null, "user": {"location": {"city": "Mt. Olympus", "state": "GA", "country": "United States"}}, "player": {"id": 534660, "gamerTag": "D.King79", "prefix": null, "user": {"location": {"city": "Mt. Olympus", "state": "GA", "country": "United States"}}}}]}}, {"id": 35875034, "seedNum": 37, "entrant": {"id": 20789874, "name": "EdiblePine", "participants": [{"id": 19133301, "gamerTag": "EdiblePine", "prefix": "", "user": {"location": {"city": "Atlanta", "state": "GA", "country": "United States"}}, "player": {"id": 1648278, "gamerTag": "EdiblePine", "prefix": "AP", "user": {"location": {"city": "Atlanta", "state": "GA", "country": "United States"}}}}]}}, {"id": 35877434, "seedNum": 39, "entrant": {"id": 20791709, "name": "Acronix", "participants": [{"id": 19135029, "gamerTag": "Acronix", "prefix": null, "user": {"location": {"city": "Norcross", "state": "GA", "country": "United States"}}, "player": {"id": 4331091, "gamerTag": "Acronix", "prefix": null, "user": {"location": {"city": "Norcross", "state": "GA", "country": "United States"}}}}]}}, {"id": 35878175, "seedNum": 40, "entrant": {"id": 20792119, "name": "Simfrm", "participants": [{"id": 19135366, "gamerTag": "Simfrm", "prefix": null, "user": {"location": {"city": "Dacula", "state": "GA", "country": "United States"}}, "player": {"id": 4506739, "gamerTag": "Simfrm", "prefix": null, "user": {"location": {"city": "Dacula", "state": "GA", "country": "United States"}}}}]}}, {"id": 35873117, "seedNum": 41, "entrant": {"id": 20788473, "name": "Nightlight | TAWKSICK", "participants": [{"id": 19131985, "gamerTag": "TAWKSICK", "prefix": "Nightlight", "user": {"location": {"city": null, "state": null, "country": "United States"}}, "player": {"id": 3342573, "gamerTag": "TAWKSICK", "prefix": "", "user": {"location": {"city": null, "state": null, "country": "United States"}}}}]}}, {"id": 35874855, "seedNum": 42, "entrant": {"id": 20789715, "name": "Manburnot", "participants": [{"id": 19133142, "gamerTag": "Manburnot", "prefix": "", "user": {"location": {"city": "Norcross", "state": "GA", "country": "United States"}}, "player": {"id": 4831519, "gamerTag": "Manburnot", "prefix": "", "user": {"location": {"city": "Norcross", "state": "GA", "country": "United States"}}}}]}}, {"id": 35875984, "seedNum": 43, "entrant": {"id": 20790619, "name": "AjaxAnonymous", "participants": [{"id": 19134034, "gamerTag": "AjaxAnonymous", "prefix": null, "user": {"location": {"city": "Atlanta", "state": "GA", "country": "United States"}}, "player": {"id": 4308428, "gamerTag": "AjaxAnonymous", "prefix": null, "user": {"location": {"city": "Atlanta", "state": "GA", "country": "United States"}}}}]}}, {"id": 35876353, "seedNum": 44, "entrant": {"id": 20790868, "name": "LittleMac9494", "participants": [{"id": 19134268, "gamerTag": "LittleMac9494", "prefix": null, "user": {"location": {"city": "", "state": "GA", "country": "United States"}}, "player": {"id": 4890718, "gamerTag": "LittleMac9494", "prefix": null, "user": {"location": {"city": "", "state": "GA", "country": "United States"}}}}]}}]}}}