{"event": {"sets": {"pageInfo": {"totalPages": 3, "total": 42}, "nodes": [{"id": 92755012, "state": 3, "round": -4, "fullRoundText": "Losers Round 1", "completedAt": 1755385888, "winnerId": 20987784, "slots": [{"id": "92755012-0", "entrant": {"id": 20987784, "name": "HtK | toties", "participants": [{"id": 19306993, "gamerTag": "toties", "prefix": "HtK", "user": {"location": {"city": "Atlanta", "state": "GA", "country": "United States"}}, "player": {"id": 3927021, "gamerTag": "toties", "prefix": "HtK", "user": {"location": {"city": "Atlanta", "state": "GA", "country": "United States"}}}}]}, "standing": {"placement": 1, "stats": {"score": {"value": 2}}}}, {"id": "92755012-1", "entrant": {"id": 20986543, "name": "YoshiAteMyPizza", "participants": [{"id": 19305915, "gamerTag": "YoshiAteMyPizza", "prefix": "", "user": {"location": {"city": "Norcross", "state": "GA", "country": "United States"}}, "player": {"id": 2364649, "gamerTag": "YoshiAteMyPizza", "prefix": "", "user": {"location": {"city": "Norcross", "state": "GA", "country": "United States"}}}}]}, "standing": {"placement": 2, "stats": {"score": {"value": 0}}}}], "games": null}, {"id": 92755014, "state": 3, "round": -4, "fullRoundText": "Losers Round 1", "completedAt": 1755386600, "winnerId": 20959008, "slots": [{"id": "92755014-0", "entrant": {"id": 20959008, "name": "InIt2WynneIt", "participants": [{"id": 19282159, "gamerTag": "InIt2WynneIt", "prefix": "", "user": {"location": {"city": "LAWRENCEVILLE", "state": "GA", "country": "United States"}}, "player": {"id": 260407, "gamerTag": "InIt2WynneIt", "prefix": "", "user": {"location": {"city": "LAWRENCEVILLE", "state": "GA", "country": "United States"}}}}]}, "standing": {"placement": 1, "stats": {"score": {"value": 2}}}}, {"id": "92755014-1", "entrant": {"id": 20989383, "name": "Fiji | 100 Latinas", "participants": [{"id": 19308327, "gamerTag": "100 Latinas", "prefix": "Fiji", "user": {"location": {"city": "Lithonia", "state": "GA", "country": "United States"}}, "player": {"id": 1890427, "gamerTag": "100 Latinas", "prefix": "Fiji", "user": {"location": {"city": "Lithonia", "state": "GA", "country": "United States"}}}}]}, "standing": {"placement": 2, "stats": {"score": {"value": 1}}}}], "games": null}, {"id": 92755015, "state": 3, "round": -4, "fullRoundText": "Losers Round 1", "completedAt": 1755385738, "winnerId": 20986409, "slots": [{"id": "92755015-0", "entrant": {"id": 20986409, "name": "Azarlith", "participants": [{"id": 19305810, "gamerTag": "Azarlith", "prefix": "", "user": {"location": {"city": "Lawrenceville", "state": null, "country": "United States"}}, "player": {"id": 3444743, "gamerTag": "Azarlith", "prefix": "", "user": {"location": {"city": "Lawrenceville", "state": null, "country": "United States"}}}}]}, "standing": {"placement": 1, "stats": {"score": {"value": 2}}}}, {"id": "92755015-1", "entrant": {"id": 20988879, "name": "girlfeet", "participants": [{"id": 19307895, "gamerTag": "girlfeet", "prefix": null, "user": {"location": {"city": "Atlanta", "state": "GA", "country": "United States"}}, "player": {"id": 3327119, "gamerTag": "girlfeet", "prefix": null, "user": {"location": {"city": "Atlanta", "state": "GA", "country": "United States"}}}}]}, "standing": {"placement": 2, "stats": {"score": {"value": 1}}}}], "games": null}, {"id": 92755008, "state": 3, "round": -4, "fullRoundText": "Losers Round 1", "completedAt": 1755385790, "winnerId": 20981135, "slots": [{"id": "92755008-0", "entrant": {"id": 20981135, "name": "4o4 | KhalRhaego", "participants": [{"id": 19301704, "gamerTag": "KhalRhaego", "prefix": "4o4", "user": {"location": {"city": "Jonesboro", "state": "GA", "country": "United States"}}, "player": {"id": 4076327, "gamerTag": "KhalRhaego", "prefix": "BOLT", "user": {"location": {"city": "Jonesboro", "state": "GA", "country": "United States"}}}}]}, "standing": {"placement": 1, "stats": {"score": {"value": 2}}}}, {"id": "92755008-1", "entrant": {"id": 20964162, "name": "Momokins", "participants": [{"id": 19286442, "gamerTag": "Momokins", "prefix": "", "user": {"location": {"city": "Atlanta", "state": "GA", "country": "United States"}}, "player": {"id": 612216, "gamerTag": "Momokins", "prefix": "", "user": {"location": {"city": "Atlanta", "state": "GA", "country": "United States"}}}}]}, "standing": {"placement": 2, "stats": {"score": {"value": 0}}}}], "games": null}, {"id": 92755010, "state": 3, "round": -4, "fullRoundText": "Losers Round 1", "completedAt": 1755386752, "winnerId": 20980819, "slots": [{"id": "92755010-0", "entrant": {"id": 20980819, "name": "Eternia Corp. | HBKdoza", "participants": [{"id": 19301417, "gamerTag": "HBKdoza", "prefix": "Eternia Corp.", "user": {"location": {"city": "Decatur", "state": "GA", "country": "United States"}}, "player": {"id": 3426567, "gamerTag": "HBKdoza", "prefix": "Eternia Corp.", "user": {"location": {"city": "Decatur", "state": "GA", "country": "United States"}}}}]}, "standing": {"placement": 1, "stats": {"score": {"value": 2}}}}, {"id": "92755010-1", "entrant": {"id": 20961404, "name": "PAR | Romanova", "participants": [{"id": 19284180, "gamerTag": "Romanova", "prefix": "PAR", "user": {"location": {"city": "Atlanta", "state": "GA", "country": "United States"}}, "player": {"id": 228245, "gamerTag": "Romanova", "prefix": "PAR", "user": {"location": {"city": "Atlanta", "state": "GA", "country": "United States"}}}}]}, "standing": {"placement": 2, "stats": {"score": {"value": 1}}}}], "games": null}, {"id": 92755011, "state": 3, "round": -4, "fullRoundText": "Losers Round 1", "completedAt": 1755386482, "winnerId": 20987994, "slots": [{"id": "92755011-0", "entrant": {"id": 20987994, "name": "ToBeFrank | FF | SLAYlor Moon", "participants": [{"id": 19307159, "gamerTag": "SLAYlor Moon", "prefix": "ToBeFrank | FF", "user": {"location": {"city": "Atlanta", "state": "GA", "country": "United States"}}, "player": {"id": 267007, "gamerTag": "SLAYlor Moon", "prefix": "ToBeFrank | FF", "user": {"location": {"city": "Atlanta", "state": "GA", "country": "United States"}}}}]}, "standing": {"placement": 1, "stats": {"score": {"value": 2}}}}, {"id": "92755011-1", "entrant": {"id": 20986999, "name": "C-2", "participants": [{"id": 19306328, "gamerTag": "C-2", "prefix": "", "user": {"location": {"city": "Atlanta", "state": "GA", "country": "United States"}}, "player": {"id": 1228856, "gamerTag": "C-2", "prefix": "", "user": {"location": {"city": "Atlanta", "state": "GA", "country": "United States"}}}}]}, "standing": {"placement": 2, "stats": {"score": {"value": 0}}}}], "games": null}, {"id": 92754936, "state": 3, "round": 1, "fullRoundText": "Winners Round 1", "completedAt": 1755384212, "winnerId": 20986409, "slots": [{"id": "92754936-0", "entrant": {"id": 20964162, "name": "Momokins", "participants": [{"id": 19286442, "gamerTag": "Momokins", "prefix": "", "user": {"location": {"city": "Atlanta", "state": "GA", "country": "United States"}}, "player": {"id": 612216, "gamerTag": "Momokins", "prefix": "", "user": {"location": {"city": "Atlanta", "state": "GA", "country": "United States"}}}}]}, "standing": {"placement": 2, "stats": {"score": {"value": 0}}}}, {"id": "92754936-1", "entrant": {"id": 20986409, "name": "Azarlith", "participants": [{"id": 19305810, "gamerTag": "Azarlith", "prefix": "", "user": {"location": {"city": "Lawrenceville", "state": null, "country": "United States"}}, "player": {"id": 3444743, "gamerTag": "Azarlith", "prefix": "", "user": {"location": {"city": "Lawrenceville", "state": null, "country": "United States"}}}}]}, "standing": {"placement": 1, "stats": {"score": {"value": 2}}}}], "games": null}, {"id": 92754940, "state": 3, "round": 1, "fullRoundText": "Winners Round 1", "completedAt": 1755384503, "winnerId": 20987306, "slots": [{"id": "92754940-0", "entrant": {"id": 20961404, "name": "PAR | Romanova", "participants": [{"id": 19284180, "gamerTag": "Romanova", "prefix": "PAR", "user": {"location": {"city": "Atlanta", "state": "GA", "country": "United States"}}, "player": {"id": 228245, "gamerTag": "Romanova", "prefix": "PAR", "user": {"location": {"city": "Atlanta", "state": "GA", "country": "United States"}}}}]}, "standing": {"placement": 2, "stats": {"score": {"value": 0}}}}, {"id": "92754940-1", "entrant": {"id": 20987306, "name": "LogieBear", "participants": [{"id": 19306588, "gamerTag": "LogieBear", "prefix": "", "user": {"location": {"city": "Snellville", "state": "GA", "country": "United States"}}, "player": {"id": 3809706, "gamerTag": "LogieBear", "prefix": "", "user": {"location": {"city": "Snellville", "state": "GA", "country": "United States"}}}}]}, "standing": {"placement": 1, "stats": {"score": {"value": 2}}}}], "games": null}, {"id": 92754942, "state": 3, "round": 1, "fullRoundText": "Winners Round 1", "completedAt": 1755384632, "winnerId": 20987784, "slots": [{"id": "92754942-0", "entrant": {"id": 20986999, "name": "C-2", "participants": [{"id": 19306328, "gamerTag": "C-2", "prefix": "", "user": {"location": {"city": "Atlanta", "state": "GA", "country": "United States"}}, "player": {"id": 1228856, "gamerTag": "C-2", "prefix": "", "user": {"location": {"city": "Atlanta", "state": "GA", "country": "United States"}}}}]}, "standing": {"placement": 2, "stats": {"score": {"value": 1}}}}, {"id": "92754942-1", "entrant": {"id": 20987784, "name": "HtK | toties", "participants": [{"id": 19306993, "gamerTag": "toties", "prefix": "HtK", "user": {"location": {"city": "Atlanta", "state": "GA", "country": "United States"}}, "player": {"id": 3927021, "gamerTag": "toties", "prefix": "HtK", "user": {"location": {"city": "Atlanta", "state": "GA", "country": "United States"}}}}]}, "standing": {"placement": 1, "stats": {"score": {"value": 2}}}}], "games": null}, {"id": 92754944, "state": 3, "round": 1, "fullRoundText": "Winners Round 1", "completedAt": 1755385168, "winnerId": 20987994, "slots": [{"id": "92754944-0", "entrant": {"id": 20987994, "name": "ToBeFrank | FF | SLAYlor Moon", "participants": [{"id": 19307159, "gamerTag": "SLAYlor Moon", "prefix": "ToBeFrank | FF", "user": {"location": {"city": "Atlanta", "state": "GA", "country": "United States"}}, "player": {"id": 267007, "gamerTag": "SLAYlor Moon", "prefix": "ToBeFrank | FF", "user": {"location": {"city": "Atlanta", "state": "GA", "country": "United States"}}}}]}, "standing": {"placement": 1, "stats": {"score": {"value": 2}}}}, {"id": "92754944-1", "entrant": {"id": 20986543, "name": "YoshiAteMyPizza", "participants": [{"id": 19305915, "gamerTag": "YoshiAteMyPizza", "prefix": "", "user": {"location": {"city": "Norcross", "state": "GA", "country": "United States"}}, "player": {"id": 2364649, "gamerTag": "YoshiAteMyPizza", "prefix": "", "user": {"location": {"city": "Norcross", "state": "GA", "country": "United States"}}}}]}, "standing": {"placement": 2, "stats": {"score": {"value": 0}}}}], "games": null}, {"id": 92754948, "state": 3, "round": 1, "fullRoundText": "Winners Round 1", "completedAt": 1755384976, "winnerId": 20989714, "slots": [{"id": "92754948-0", "entrant": {"id": 20989714, "name": "HEAVANER", "participants": [{"id": 19308638, "gamerTag": "HEAVANER", "prefix": "", "user": null, "player": {"id": 4912576, "gamerTag": "HEAVANER", "prefix": "", "user": null}}]}, "standing": {"placement": 1, "stats": {"score": {"value": 2}}}}, {"id": "92754948-1", "entrant": {"id": 20989383, "name": "Fiji | 100 Latinas", "participants": [{"id": 19308327, "gamerTag": "100 Latinas", "prefix": "Fiji", "user": {"location": {"city": "Lithonia", "state": "GA", "country": "United States"}}, "player": {"id": 1890427, "gamerTag": "100 Latinas", "prefix": "Fiji", "user": {"location": {"city": "Lithonia", "state": "GA", "country": "United States"}}}}]}, "standing": {"placement": 2, "stats": {"score": {"value": 0}}}}], "games": null}, {"id": 92754950, "state": 3, "round": 1, "fullRoundText": "Winners Round 1", "completedAt": 1755384216, "winnerId": 20986580, "slots": [{"id": "92754950-0", "entrant": {"id": 20986580, "name": "JFCA | Abstract", "participants": [{"id": 19305947, "gamerTag": "Abstract", "prefix": "JFCA", "user": {"location": {"city": "Atlanta", "state": "GA", "country": "United States"}}, "player": {"id": 36643, "gamerTag": "Abstract", "prefix": "JFCA", "user": {"location": {"city": "Atlanta", "state": "GA", "country": "United States"}}}}]}, "standing": {"placement": 1, "stats": {"score": {"value": 2}}}}, {"id": "92754950-1", "entrant": {"id": 20988879, "name": "girlfeet", "participants": [{"id": 19307895, "gamerTag": "girlfeet", "prefix": null, "user": {"location": {"city": "Atlanta", "state": "GA", "country": "United States"}}, "player": {"id": 3327119, "gamerTag": "girlfeet", "prefix": null, "user": {"location": {"city": "Atlanta", "state": "GA", "country": "United States"}}}}]}, "standing": {"placement": 2, "stats": {"score": {"value": 0}}}}], "games": null}]}}}