{"phase": {"seeds": {"pageInfo": {"totalPages": 1, "total": 8}, "nodes": [{"id": 36590083, "seedNum": 3, "entrant": {"id": 21248962, "name": "Mrfreefree", "participants": [{"id": 19540377, "gamerTag": "Mrfreefree", "prefix": "", "user": {"location": {"city": "Rincon", "state": "GA", "country": "United States"}}, "player": {"id": 4405269, "gamerTag": "Mrfreefree", "prefix": "", "user": {"location": {"city": "Rincon", "state": "GA", "country": "United States"}}}}]}}, {"id": 36562761, "seedNum": 2, "entrant": {"id": 21228884, "name": "YRDEN | Bwlingiant", "participants": [{"id": 19522405, "gamerTag": "Bwlingiant", "prefix": "YRDEN", "user": {"location": {"city": "Savannah", "state": null, "country": "United States"}}, "player": {"id": 3202213, "gamerTag": "Bwlingiant", "prefix": "YRDEN", "user": {"location": {"city": "Savannah", "state": null, "country": "United States"}}}}]}}, {"id": 36562635, "seedNum": 4, "entrant": {"id": 21228758, "name": "otherzenith", "participants": [{"id": 19522315, "gamerTag": "otherzenith", "prefix": "", "user": {"location": {"city": "Kennesaw", "state": null, "country": "United States"}}, "player": {"id": 3827458, "gamerTag": "otherzenith", "prefix": "", "user": {"location": {"city": "Kennesaw", "state": null, "country": "United States"}}}}]}}, {"id": 36584913, "seedNum": 6, "entrant": {"id": 21245394, "name": "KnifeHand", "participants": [{"id": 19537081, "gamerTag": "KnifeHand", "prefix": null, "user": {"location": {"city": "Boise", "state": "ID", "country": "United States"}}, "player": {"id": 1980212, "gamerTag": "KnifeHand", "prefix": null, "user": {"location": {"city": "Boise", "state": "ID", "country": "United States"}}}}]}}, {"id": 36585237, "seedNum": 1, "entrant": {"id": 21245701, "name": "Aloe", "participants": [{"id": 19537335, "gamerTag": "Aloe", "prefix": null, "user": {"location": {"city": "Savannah", "state": "WI", "country": "United States"}}, "player": {"id": 2656903, "gamerTag": "Aloe", "prefix": null, "user": {"location": {"city": "Savannah", "state": "WI", "country": "United States"}}}}]}}, {"id": 36563756, "seedNum": 8, "entrant": {"id": 21229683, "name": "SQ1 | TheFamilyPanda", "participants": [{"id": 19523068, "gamerTag": "TheFamilyPanda", "prefix": "SQ1", "user": {"location": {"city": "Savannah", "state": "GA", "country": "United States"}}, "player": {"id": 2228673, "gamerTag": "TheFamilyPanda", "prefix": "SQ1", "user": {"location": {"city": "Savannah", "state": "GA", "country": "United States"}}}}]}}, {"id": 36576046, "seedNum": 5, "entrant": {"id": 21239122, "name": "Venture13", "participants": [{"id": 19531701, "gamerTag": "Venture13", "prefix": "", "user": {"location": {"city": null, "state": null, "country": "United States"}}, "player": {"id": 4971253, "gamerTag": "Venture13", "prefix": "", "user": {"location": {"city": null, "state": null, "country": "United States"}}}}]}}, {"id": 36590012, "seedNum": 7, "entrant": {"id": 21248899, "name": "SQ1 | Luff", "participants": [{"id": 19540306, "gamerTag": "Luff", "prefix": "SQ1", "user": {"location": {"city": "Savannah", "state": "GA", "country": "United States"}}, "player": {"id": 4102348, "gamerTag": "Luff", "prefix": "SQ1", "user": {"location": {"city": "Savannah", "state": "GA", "country": "United States"}}}}]}}]}}}