{"event": {"sets": {"pageInfo": {"totalPages": 22, "total": 318}, "nodes": [{"id": 92227350, "state": 3, "round": 1, "fullRoundText": "Winners Round 1", "completedAt": 1754166773, "winnerId": 20867172, "slots": [{"id": "92227350-0", "entrant": {"id": 20867172, "name": "Trout~", "participants": [{"id": 19201389, "gamerTag": "Trout~", "prefix": "", "user": {"location": {"city": "Lawrenceville", "state": "GA", "country": "United States"}}, "player": {"id": 905410, "gamerTag": "Primary Trout~", "prefix": "", "user": {"location": {"city": "Lawrenceville", "state": "GA", "country": "United States"}}}}]}, "standing": {"placement": 1, "stats": {"score": {"value": 2}}}}, {"id": "92227350-1", "entrant": {"id": 20824137, "name": "Deathrite", "participants": [{"id": 19163108, "gamerTag": "Deathrite", "prefix": "", "user": {"location": {"city": null, "state": null, "country": "United States"}}, "player": {"id": 4819014, "gamerTag": "Deathrite", "prefix": "", "user": {"location": {"city": null, "state": null, "country": "United States"}}}}]}, "standing": {"placement": 2, "stats": {"score": {"value": 0}}}}], "games": null}, {"id": 92227588, "state": 3, "round": 1, "fullRoundText": "Winners Round 1", "completedAt": 1754172847, "winnerId": 20653366, "slots": [{"id": "92227588-0", "entrant": {"id": 20653366, "name": "WFF | Happy", "participants": [{"id": 19011376, "gamerTag": "Happy", "prefix": "WFF", "user": {"location": {"city": "Peachtree CIty", "state": "GA", "country": "United States"}}, "player": {"id": 1383907, "gamerTag": "Happy", "prefix": "WFF", "user": {"location": {"city": "Peachtree CIty", "state": "GA", "country": "United States"}}}}]}, "standing": {"placement": 1, "stats": {"score": {"value": 2}}}}, {"id": "92227588-1", "entrant": {"id": 20822929, "name": "Aubrey", "participants": [{"id": 19161896, "gamerTag": "Aubrey", "prefix": "", "user": {"location": {"city": null, "state": null, "country": "United States"}}, "player": {"id": 4818785, "gamerTag": "Aubrey", "prefix": "", "user": {"location": {"city": null, "state": null, "country": "United States"}}}}]}, "standing": {"placement": 2, "stats": {"score": {"value": 0}}}}], "games": null}, {"id": 92227354, "state": 3, "round": 1, "fullRoundText": "Winners Round 1", "completedAt": 1754167124, "winnerId": 20674489, "slots": [{"id": "92227354-0", "entrant": {"id": 20674489, "name": "Transcendent", "participants": [{"id": 19029548, "gamerTag": "Transcendent", "prefix": "", "user": {"location": {"city": "Lawrenceville", "state": "GA", "country": "United States"}}, "player": {"id": 1671724, "gamerTag": "Transcendent", "prefix": "", "user": {"location": {"city": "Lawrenceville", "state": "GA", "country": "United States"}}}}]}, "standing": {"placement": 1, "stats": {"score": {"value": 2}}}}, {"id": "92227354-1", "entrant": {"id": 20788478, "name": "deimos", "participants": [{"id": 19131988, "gamerTag": "deimos", "prefix": null, "user": {"location": {"city": null, "state": null, "country": "United States"}}, "player": {"id": 4305406, "gamerTag": "deimos", "prefix": null, "user": {"location": {"city": null, "state": null, "country": "United States"}}}}]}, "standing": {"placement": 2, "stats": {"score": {"value": 0}}}}], "games": null}, {"id": 92110783, "state": 3, "round": 1, "fullRoundText": "Winners Round 1", "completedAt": 1754179026, "winnerId": 20555293, "slots": [{"id": "92110783-0", "entrant": {"id": 20555293, "name": "omega", "participants": [{"id": 18925691, "gamerTag": "omega", "prefix": "", "user": {"location": {"city": "Suwanee", "state": "GA", "country": "United States"}}, "player": {"id": 24638, "gamerTag": "omega", "prefix": "", "user": {"location": {"city": "Suwanee", "state": "GA", "country": "United States"}}}}]}, "standing": {"placement": 1, "stats": {"score": {"value": 2}}}}, {"id": "92110783-1", "entrant": {"id": 20720965, "name": "ROK | Surehyper", "participants": [{"id": 19070028, "gamerTag": "Surehyper", "prefix": "ROK", "user": {"location": {"city": "Miami", "state": "FL", "country": "United States"}}, "player": {"id": 1726915, "gamerTag": "Surehyper", "prefix": "ROK", "user": {"location": {"city": "Miami", "state": "FL", "country": "United States"}}}}]}, "standing": {"placement": 2, "stats": {"score": {"value": 0}}}}], "games": null}, {"id": 92227163, "state": 3, "round": 1, "fullRoundText": "Winners Round 1", "completedAt": 1754167083, "winnerId": 20830351, "slots": [{"id": "92227163-0", "entrant": {"id": 20495009, "name": "Alex828", "participants": [{"id": 18873284, "gamerTag": "Alex828", "prefix": "", "user": {"location": {"city": "Valdosta", "state": "GA", "country": "United States"}}, "player": {"id": 1630146, "gamerTag": "Alex828", "prefix": "", "user": {"location": {"city": "Valdosta", "state": "GA", "country": "United States"}}}}]}, "standing": {"placement": 2, "stats": {"score": {"value": 1}}}}, {"id": "92227163-1", "entrant": {"id": 20830351, "name": "Pleeploploop", "participants": [{"id": 19168887, "gamerTag": "Pleeploploop", "prefix": "", "user": {"location": {"city": "Snellville", "state": null, "country": "United States"}}, "player": {"id": 1739676, "gamerTag": "Pleeploploop", "prefix": "", "user": {"location": {"city": "Snellville", "state": null, "country": "United States"}}}}]}, "standing": {"placement": 1, "stats": {"score": {"value": 2}}}}], "games": null}, {"id": 92227592, "state": 3, "round": 1, "fullRoundText": "Winners Round 1", "completedAt": 1754173900, "winnerId": 20499634, "slots": [{"id": "92227592-0", "entrant": {"id": 20499634, "name": "sushinap", "participants": [{"id": 18877287, "gamerTag": "sushinap", "prefix": "", "user": {"location": {"city": "BIRMINGHAM", "state": "AL", "country": "United States"}}, "player": {"id": 1092449, "gamerTag": "sushinap", "prefix": "", "user": {"location": {"city": "BIRMINGHAM", "state": "AL", "country": "United States"}}}}]}, "standing": {"placement": 1, "stats": {"score": {"value": 2}}}}, {"id": "92227592-1", "entrant": {"id": 20743387, "name": "TnT | annamation", "participants": [{"id": 19089304, "gamerTag": "annamation", "prefix": "TnT", "user": {"location": {"city": "Atlanta", "state": "GA", "country": "United States"}}, "player": {"id": 1699369, "gamerTag": "annamation", "prefix": "TnT", "user": {"location": {"city": "Atlanta", "state": "GA", "country": "United States"}}}}]}, "standing": {"placement": 2, "stats": {"score": {"value": 1}}}}], "games": null}, {"id": 92227804, "state": 3, "round": 1, "fullRoundText": "Winners Round 1", "completedAt": 1754172946, "winnerId": 20522394, "slots": [{"id": "92227804-0", "entrant": {"id": 20494061, "name": "AO5 | ImPhenyl", "participants": [{"id": 18872449, "gamerTag": "ImPhenyl", "prefix": "AO5", "user": {"location": {"city": "Lawrenceville", "state": "GA", "country": "United States"}}, "player": {"id": 3256876, "gamerTag": "ImPhenyl", "prefix": "AO5", "user": {"location": {"city": "Lawrenceville", "state": "GA", "country": "United States"}}}}]}, "standing": {"placement": 2, "stats": {"score": {"value": -1}}}}, {"id": "92227804-1", "entrant": {"id": 20522394, "name": "4o4 | REAL | Nikita", "participants": [{"id": 18897526, "gamerTag": "Nikita", "prefix": "4o4 | REAL", "user": {"location": {"city": null, "state": "GA", "country": "United States"}}, "player": {"id": 1144070, "gamerTag": "Nikita", "prefix": "4o4 | REAL", "user": {"location": {"city": null, "state": "GA", "country": "United States"}}}}]}, "standing": {"placement": 1, "stats": {"score": {"value": null}}}}], "games": null}, {"id": 92227167, "state": 3, "round": 1, "fullRoundText": "Winners Round 1", "completedAt": 1754166384, "winnerId": 20865146, "slots": [{"id": "92227167-0", "entrant": {"id": 20492846, "name": "ZB | Juniper", "participants": [{"id": 18871290, "gamerTag": "Juniper", "prefix": "ZB", "user": {"location": {"city": "Morrow", "state": "GA", "country": "United States"}}, "player": {"id": 46895, "gamerTag": "Juniper", "prefix": "ZB", "user": {"location": {"city": "Morrow", "state": "GA", "country": "United States"}}}}]}, "standing": {"placement": 2, "stats": {"score": {"value": 0}}}}, {"id": "92227167-1", "entrant": {"id": 20865146, "name": "Par-i-dot Alpha", "participants": [{"id": 19199748, "gamerTag": "Par-i-dot Alpha", "prefix": "", "user": {"location": {"city": "Lithoina", "state": "GA", "country": "United States"}}, "player": {"id": 36418, "gamerTag": "Avalon", "prefix": "", "user": {"location": {"city": "Lithoina", "state": "GA", "country": "United States"}}}}]}, "standing": {"placement": 1, "stats": {"score": {"value": 2}}}}], "games": null}, {"id": 92227808, "state": 3, "round": 1, "fullRoundText": "Winners Round 1", "completedAt": 1754173371, "winnerId": 20516098, "slots": [{"id": "92227808-0", "entrant": {"id": 20516098, "name": "Heart", "participants": [{"id": 18891882, "gamerTag": "Heart", "prefix": "", "user": {"location": {"city": "Atlanta", "state": "GA", "country": "United States"}}, "player": {"id": 4287822, "gamerTag": "Heart", "prefix": "", "user": {"location": {"city": "Atlanta", "state": "GA", "country": "United States"}}}}]}, "standing": {"placement": 1, "stats": {"score": {"value": 2}}}}, {"id": "92227808-1", "entrant": {"id": 20616017, "name": "GUMP2 | Scrib", "participants": [{"id": 18978747, "gamerTag": "Scrib", "prefix": "GUMP2", "user": {"location": {"city": "Marietta", "state": "GA", "country": "United States"}}, "player": {"id": 1504459, "gamerTag": "Scrib", "prefix": "GUMP2", "user": {"location": {"city": "Marietta", "state": "GA", "country": "United States"}}}}]}, "standing": {"placement": 2, "stats": {"score": {"value": 0}}}}], "games": null}, {"id": 92227596, "state": 3, "round": 1, "fullRoundText": "Winners Round 1", "completedAt": 1754173301, "winnerId": 20710004, "slots": [{"id": "92227596-0", "entrant": {"id": 20710004, "name": "DaHuey", "participants": [{"id": 19060500, "gamerTag": "DaHuey", "prefix": "", "user": {"location": {"city": "Cartersville", "state": "GA", "country": "United States"}}, "player": {"id": 1183375, "gamerTag": "DaHuey", "prefix": "", "user": {"location": {"city": "Cartersville", "state": "GA", "country": "United States"}}}}]}, "standing": {"placement": 1, "stats": {"score": {"value": 2}}}}, {"id": "92227596-1", "entrant": {"id": 20492307, "name": "EDLN | BWU | GOOMBA!", "participants": [{"id": 18870830, "gamerTag": "GOOMBA!", "prefix": "EDLN | BWU", "user": {"location": {"city": "Johns Creek", "state": "GA", "country": "United States"}}, "player": {"id": 1052642, "gamerTag": "GOOMBA!", "prefix": "EDLN | BWU", "user": {"location": {"city": "Johns Creek", "state": "GA", "country": "United States"}}}}]}, "standing": {"placement": 2, "stats": {"score": {"value": 0}}}}], "games": null}, {"id": 92110784, "state": 3, "round": 1, "fullRoundText": "Winners Round 1", "completedAt": 1754178367, "winnerId": 20735917, "slots": [{"id": "92110784-0", "entrant": {"id": 20768144, "name": "UNAG | WOD | Mirage", "participants": [{"id": 19113338, "gamerTag": "Mirage", "prefix": "UNAG | WOD", "user": {"location": {"city": null, "state": "AL", "country": "United States"}}, "player": {"id": 2303717, "gamerTag": "Mirage", "prefix": "UNAG | WOD", "user": {"location": {"city": null, "state": "AL", "country": "United States"}}}}]}, "standing": {"placement": 2, "stats": {"score": {"value": 0}}}}, {"id": "92110784-1", "entrant": {"id": 20735917, "name": "DTN | Fatality", "participants": [{"id": 19082720, "gamerTag": "Fatality", "prefix": "DTN", "user": {"location": {"city": "Lilburn", "state": "GA", "country": "United States"}}, "player": {"id": 15921, "gamerTag": "Fatality", "prefix": "DTN", "user": {"location": {"city": "Lilburn", "state": "GA", "country": "United States"}}}}]}, "standing": {"placement": 1, "stats": {"score": {"value": 2}}}}], "games": null}, {"id": 92227358, "state": 3, "round": 1, "fullRoundText": "Winners Round 1", "completedAt": 1754167121, "winnerId": 20843201, "slots": [{"id": "92227358-0", "entrant": {"id": 20843201, "name": "MONEY | ImNoPro", "participants": [{"id": 19180001, "gamerTag": "ImNoPro", "prefix": "MONEY", "user": {"location": {"city": "Calhoun", "state": "GA", "country": "United States"}}, "player": {"id": 2149803, "gamerTag": "ImNoPro", "prefix": "MONEY", "user": {"location": {"city": "Calhoun", "state": "GA", "country": "United States"}}}}]}, "standing": {"placement": 1, "stats": {"score": {"value": 2}}}}, {"id": "92227358-1", "entrant": {"id": 20736227, "name": "Wyndeezi", "participants": [{"id": 19082951, "gamerTag": "Wyndeezi", "prefix": "", "user": {"location": {"city": "Lawrenceville", "state": "GA", "country": "United States"}}, "player": {"id": 3254098, "gamerTag": "Wyndeezi", "prefix": "", "user": {"location": {"city": "Lawrenceville", "state": "GA", "country": "United States"}}}}]}, "standing": {"placement": 2, "stats": {"score": {"value": 0}}}}], "games": null}, {"id": 92227812, "state": 3, "round": 1, "fullRoundText": "Winners Round 1", "completedAt": 1754173354, "winnerId": 20488568, "slots": [{"id": "92227812-0", "entrant": {"id": 20488729, "name": "BlaZR", "participants": [{"id": 18867672, "gamerTag": "BlaZR", "prefix": "", "user": {"location": {"city": "ur mum", "state": null, "country": "United States"}}, "player": {"id": 1804122, "gamerTag": "BlaZR", "prefix": "", "user": {"location": {"city": "ur mum", "state": null, "country": "United States"}}}}]}, "standing": {"placement": 2, "stats": {"score": {"value": 0}}}}, {"id": "92227812-1", "entrant": {"id": 20488568, "name": "promamamia", "participants": [{"id": 18867510, "gamerTag": "promamamia", "prefix": "", "user": {"location": {"city": "Alpharetta", "state": "GA", "country": "United States"}}, "player": {"id": 3548468, "gamerTag": "promamamia", "prefix": "", "user": {"location": {"city": "Alpharetta", "state": "GA", "country": "United States"}}}}]}, "standing": {"placement": 1, "stats": {"score": {"value": 2}}}}], "games": null}, {"id": 92227362, "state": 3, "round": 1, "fullRoundText": "Winners Round 1", "completedAt": 1754167020, "winnerId": 20867239, "slots": [{"id": "92227362-0", "entrant": {"id": 20699303, "name": "RM | WFF | Sakruoi", "participants": [{"id": 19050928, "gamerTag": "Sakruoi", "prefix": "RM | WFF", "user": {"location": {"city": "atlanta", "state": "GA", "country": "United States"}}, "player": {"id": 1230555, "gamerTag": "Sakruoi", "prefix": "RM | WFF", "user": {"location": {"city": "atlanta", "state": "GA", "country": "United States"}}}}]}, "standing": {"placement": 2, "stats": {"score": {"value": 1}}}}, {"id": "92227362-1", "entrant": {"id": 20867239, "name": "Nestor", "participants": [{"id": 19201441, "gamerTag": "Nestor", "prefix": null, "user": {"location": {"city": "Gainesville", "state": "GA", "country": "United States"}}, "player": {"id": 1630543, "gamerTag": "Nestor", "prefix": null, "user": {"location": {"city": "Gainesville", "state": "GA", "country": "United States"}}}}]}, "standing": {"placement": 1, "stats": {"score": {"value": 2}}}}], "games": null}, {"id": 92227600, "state": 3, "round": 1, "fullRoundText": "Winners Round 1", "completedAt": 1754172542, "winnerId": 20709953, "slots": [{"id": "92227600-0", "entrant": {"id": 20709953, "name": "RaW | Gekyume", "participants": [{"id": 19060454, "gamerTag": "Gekyume", "prefix": "RaW", "user": {"location": {"city": "Cartersville", "state": "GA", "country": "United States"}}, "player": {"id": 1183242, "gamerTag": "Gekyume", "prefix": "RaW", "user": {"location": {"city": "Cartersville", "state": "GA", "country": "United States"}}}}]}, "standing": {"placement": 1, "stats": {"score": {"value": null}}}}, {"id": "92227600-1", "entrant": {"id": 20803505, "name": "Mr. L", "participants": [{"id": 19145596, "gamerTag": "Mr. L", "prefix": "", "user": {"location": {"city": "Starkville", "state": "MS", "country": "United States"}}, "player": {"id": 3604371, "gamerTag": "Mr. L", "prefix": "", "user": {"location": {"city": "Starkville", "state": "MS", "country": "United States"}}}}]}, "standing": {"placement": 2, "stats": {"score": {"value": -1}}}}], "games": null}]}}}