{"event": {"sets": {"pageInfo": {"totalPages": 2, "total": 18}, "nodes": [{"id": 93127414, "state": 3, "round": -4, "fullRoundText": "Losers Round 1", "completedAt": 1756256769, "winnerId": 21078845, "slots": [{"id": "93127414-0", "entrant": {"id": 21078845, "name": "Heart", "participants": [{"id": 19389471, "gamerTag": "Heart", "prefix": "", "user": {"location": {"city": "Atlanta", "state": "GA", "country": "United States"}}, "player": {"id": 4287822, "gamerTag": "Heart", "prefix": "", "user": {"location": {"city": "Atlanta", "state": "GA", "country": "United States"}}}}]}, "standing": {"placement": 1, "stats": {"score": {"value": 3}}}}, {"id": "93127414-1", "entrant": {"id": 21082006, "name": "Hq", "participants": [{"id": 19392394, "gamerTag": "Hq", "prefix": "", "user": {"location": {"city": "Suwanee", "state": "GA", "country": "United States"}}, "player": {"id": 4680916, "gamerTag": "Hq", "prefix": "", "user": {"location": {"city": "Suwanee", "state": "GA", "country": "United States"}}}}]}, "standing": {"placement": 2, "stats": {"score": {"value": 0}}}}], "games": null}, {"id": 93127376, "state": 3, "round": 1, "fullRoundText": "Winners Round 1", "completedAt": 1756255964, "winnerId": 21083460, "slots": [{"id": "93127376-0", "entrant": {"id": 21078032, "name": "Mighty Morfin", "participants": [{"id": 19388720, "gamerTag": "Mighty Morfin", "prefix": "", "user": {"location": {"city": "Gainesville", "state": "GA", "country": "United States"}}, "player": {"id": 1630530, "gamerTag": "Mighty Morfin", "prefix": "", "user": {"location": {"city": "Gainesville", "state": "GA", "country": "United States"}}}}]}, "standing": {"placement": 2, "stats": {"score": {"value": 1}}}}, {"id": "93127376-1", "entrant": {"id": 21083460, "name": "Envexity", "participants": [{"id": 19393685, "gamerTag": "Envexity", "prefix": null, "user": {"location": {"city": "", "state": "GA", "country": "United States"}}, "player": {"id": 4003882, "gamerTag": "Envexity", "prefix": null, "user": {"location": {"city": "", "state": "GA", "country": "United States"}}}}]}, "standing": {"placement": 1, "stats": {"score": {"value": 3}}}}], "games": null}, {"id": 93127380, "state": 3, "round": 1, "fullRoundText": "Winners Round 1", "completedAt": 1756255891, "winnerId": 21084186, "slots": [{"id": "93127380-0", "entrant": {"id": 21084186, "name": "Billy Jones", "participants": [{"id": 19394351, "gamerTag": "Billy Jones", "prefix": "", "user": {"location": {"city": "Atlanta", "state": "GA", "country": "United States"}}, "player": {"id": 1004383, "gamerTag": "Billy Jones", "prefix": "", "user": {"location": {"city": "Atlanta", "state": "GA", "country": "United States"}}}}]}, "standing": {"placement": 1, "stats": {"score": {"value": 3}}}}, {"id": "93127380-1", "entrant": {"id": 21082006, "name": "Hq", "participants": [{"id": 19392394, "gamerTag": "Hq", "prefix": "", "user": {"location": {"city": "Suwanee", "state": "GA", "country": "United States"}}, "player": {"id": 4680916, "gamerTag": "Hq", "prefix": "", "user": {"location": {"city": "Suwanee", "state": "GA", "country": "United States"}}}}]}, "standing": {"placement": 2, "stats": {"score": {"value": 0}}}}], "games": null}]}}}