{"phase": {"seeds": {"pageInfo": {"totalPages": 1, "total": 35}, "nodes": [{"id": 36416484, "seedNum": 1, "entrant": {"id": 21133176, "name": "JJBREEZE", "participants": [{"id": 19438406, "gamerTag": "JJBREEZE", "prefix": "", "user": {"location": {"city": "Atlanta", "state": "GA", "country": "United States"}}, "player": {"id": 688460, "gamerTag": "JJBREEZE", "prefix": "", "user": {"location": {"city": "Atlanta", "state": "GA", "country": "United States"}}}}]}}, {"id": 36358565, "seedNum": 2, "entrant": {"id": 21093003, "name": "Pokchop", "participants": [{"id": 19402205, "gamerTag": "Pokchop", "prefix": "", "user": {"location": {"city": "Atlanta", "state": "GA", "country": "United States"}}, "player": {"id": 150402, "gamerTag": "Pokchop", "prefix": "", "user": {"location": {"city": "Atlanta", "state": "GA", "country": "United States"}}}}]}}, {"id": 36316338, "seedNum": 7, "entrant": {"id": 21065689, "name": "ofito95", "participants": [{"id": 19377312, "gamerTag": "ofito95", "prefix": null, "user": {"location": {"city": "Atlanta", "state": "NJ", "country": "United States"}}, "player": {"id": 490676, "gamerTag": "ofito95", "prefix": null, "user": {"location": {"city": "Atlanta", "state": "NJ", "country": "United States"}}}}]}}, {"id": 36416564, "seedNum": 3, "entrant": {"id": 21133259, "name": "O.N.2", "participants": [{"id": 19438478, "gamerTag": "O.N.2", "prefix": "", "user": {"location": {"city": "SNELLVILLE", "state": "GA", "country": "United States"}}, "player": {"id": 1042436, "gamerTag": "O.N.2", "prefix": "", "user": {"location": {"city": "SNELLVILLE", "state": "GA", "country": "United States"}}}}]}}, {"id": 36275692, "seedNum": 4, "entrant": {"id": 21037322, "name": "BOLT | KhalRhaego", "participants": [{"id": 19351924, "gamerTag": "KhalRhaego", "prefix": "BOLT", "user": {"location": {"city": "Jonesboro", "state": "GA", "country": "United States"}}, "player": {"id": 4076327, "gamerTag": "KhalRhaego", "prefix": "BOLT", "user": {"location": {"city": "Jonesboro", "state": "GA", "country": "United States"}}}}]}}, {"id": 36408688, "seedNum": 12, "entrant": {"id": 21126805, "name": "ToBeFrank | FF | SLAYlor Moon", "participants": [{"id": 19432500, "gamerTag": "SLAYlor Moon", "prefix": "ToBeFrank | FF", "user": {"location": {"city": "Atlanta", "state": "GA", "country": "United States"}}, "player": {"id": 267007, "gamerTag": "SLAYlor Moon", "prefix": "ToBeFrank | FF", "user": {"location": {"city": "Atlanta", "state": "GA", "country": "United States"}}}}]}}, {"id": 36408609, "seedNum": 6, "entrant": {"id": 21126753, "name": "Eternia Corp. | HBKdoza", "participants": [{"id": 19432456, "gamerTag": "HBKdoza", "prefix": "Eternia Corp.", "user": {"location": {"city": "Decatur", "state": "GA", "country": "United States"}}, "player": {"id": 3426567, "gamerTag": "HBKdoza", "prefix": "Eternia Corp.", "user": {"location": {"city": "Decatur", "state": "GA", "country": "United States"}}}}]}}, {"id": 36407145, "seedNum": 9, "entrant": {"id": 21125761, "name": "DESPERADOS | NinjaLuis", "participants": [{"id": 19431521, "gamerTag": "NinjaLuis", "prefix": "DESPERADOS", "user": {"location": {"city": "Dalton", "state": "GA", "country": "United States"}}, "player": {"id": 390270, "gamerTag": "NinjaLuis", "prefix": "DESPERADOS", "user": {"location": {"city": "Dalton", "state": "GA", "country": "United States"}}}}]}}, {"id": 36408574, "seedNum": 5, "entrant": {"id": 21126719, "name": "Iso.Dgaf", "participants": [{"id": 19432428, "gamerTag": "Iso.Dgaf", "prefix": null, "user": {"location": {"city": "Acworth", "state": "GA", "country": "United States"}}, "player": {"id": 4285541, "gamerTag": "Iso.Dgaf", "prefix": null, "user": {"location": {"city": "Acworth", "state": "GA", "country": "United States"}}}}]}}, {"id": 35783395, "seedNum": 10, "entrant": {"id": 20738293, "name": "BOLT | Slash", "participants": [{"id": 19084598, "gamerTag": "Slash", "prefix": "BOLT", "user": {"location": {"city": "Grovetown", "state": "GA", "country": "United States"}}, "player": {"id": 4020750, "gamerTag": "Slash", "prefix": "BOLT", "user": {"location": {"city": "Grovetown", "state": "GA", "country": "United States"}}}}]}}, {"id": 36387384, "seedNum": 15, "entrant": {"id": 21111503, "name": "HtK | toties", "participants": [{"id": 19418880, "gamerTag": "toties", "prefix": "HtK", "user": {"location": {"city": "Atlanta", "state": "GA", "country": "United States"}}, "player": {"id": 3927021, "gamerTag": "toties", "prefix": "HtK", "user": {"location": {"city": "Atlanta", "state": "GA", "country": "United States"}}}}]}}, {"id": 36403842, "seedNum": 29, "entrant": {"id": 21123301, "name": "Rated R", "participants": [{"id": 19386004, "gamerTag": "Rated R", "prefix": null, "user": {"location": {"city": null, "state": null, "country": "United States"}}, "player": {"id": 2703555, "gamerTag": "Rated R", "prefix": null, "user": {"location": {"city": null, "state": null, "country": "United States"}}}}]}}, {"id": 36416552, "seedNum": 8, "entrant": {"id": 21133246, "name": "Owen Dos | BlackHeart", "participants": [{"id": 19438468, "gamerTag": "BlackHeart", "prefix": "Owen Dos", "user": {"location": {"city": "Buford", "state": "GA", "country": "United States"}}, "player": {"id": 2228433, "gamerTag": "BlackHeart", "prefix": "Owen Dos", "user": {"location": {"city": "Buford", "state": "GA", "country": "United States"}}}}]}}, {"id": 36194431, "seedNum": 13, "entrant": {"id": 20984581, "name": "4o4 | Yugo", "participants": [{"id": 19304369, "gamerTag": "Yugo", "prefix": "4o4", "user": {"location": {"city": "Sandy springs", "state": "GA", "country": "United States"}}, "player": {"id": 338020, "gamerTag": "Yugo", "prefix": "4o4", "user": {"location": {"city": "Sandy springs", "state": "GA", "country": "United States"}}}}]}}, {"id": 36308113, "seedNum": 18, "entrant": {"id": 21059692, "name": "Bitazeee", "participants": [{"id": 19371927, "gamerTag": "Bitazeee", "prefix": null, "user": {"location": {"city": "Charlotte", "state": "NC", "country": "United States"}}, "player": {"id": 3817099, "gamerTag": "Bitazeee", "prefix": null, "user": {"location": {"city": "Charlotte", "state": "NC", "country": "United States"}}}}]}}, {"id": 36373672, "seedNum": 21, "entrant": {"id": 21101541, "name": "N_W_Alucard", "participants": [{"id": 19409884, "gamerTag": "N_W_Alucard", "prefix": "", "user": {"location": {"city": "Jackson", "state": "MS", "country": "United States"}}, "player": {"id": 1297677, "gamerTag": "N_W_Alucard", "prefix": "", "user": {"location": {"city": "Jackson", "state": "MS", "country": "United States"}}}}]}}, {"id": 36085297, "seedNum": 16, "entrant": {"id": 20919744, "name": "JDG | NoBrainThinker", "participants": [{"id": 19247795, "gamerTag": "NoBrainThinker", "prefix": "JDG", "user": {"location": {"city": "Marietta", "state": "GA", "country": "United States"}}, "player": {"id": 4912998, "gamerTag": "NoBrainer", "prefix": "JDG", "user": {"location": {"city": "Marietta", "state": "GA", "country": "United States"}}}}]}}, {"id": 36343083, "seedNum": 19, "entrant": {"id": 21084462, "name": "MKWH | Paretk", "participants": [{"id": 19394562, "gamerTag": "Paretk", "prefix": "MKWH", "user": {"location": {"city": null, "state": null, "country": "Saudi Arabia"}}, "player": {"id": 4942649, "gamerTag": "Paretk", "prefix": "MKWH", "user": {"location": {"city": null, "state": null, "country": "Saudi Arabia"}}}}]}}, {"id": 36384088, "seedNum": 22, "entrant": {"id": 21108900, "name": "Scottythepreparedartist", "participants": [{"id": 19416558, "gamerTag": "Scottythepreparedartist", "prefix": "", "user": {"location": {"city": "Newnan", "state": "GA", "country": "United States"}}, "player": {"id": 4757730, "gamerTag": "Thepreparedartist", "prefix": "", "user": {"location": {"city": "Newnan", "state": "GA", "country": "United States"}}}}]}}, {"id": 36385514, "seedNum": 23, "entrant": {"id": 21109986, "name": "stonecold913", "participants": [{"id": 19417569, "gamerTag": "stonecold913", "prefix": null, "user": {"location": {"city": "Brick", "state": "NJ", "country": "United States"}}, "player": {"id": 3198373, "gamerTag": "stonecold913", "prefix": null, "user": {"location": {"city": "Brick", "state": "NJ", "country": "United States"}}}}]}}, {"id": 36394856, "seedNum": 25, "entrant": {"id": 21117211, "name": "Risan.The0utsider_36", "participants": [{"id": 19423909, "gamerTag": "Risan.The0utsider_36", "prefix": null, "user": {"location": {"city": "Douglasville", "state": "GA", "country": "United States"}}, "player": {"id": 2584378, "gamerTag": "Risan.The0utsider_36", "prefix": null, "user": {"location": {"city": "Douglasville", "state": "GA", "country": "United States"}}}}]}}, {"id": 36397712, "seedNum": 27, "entrant": {"id": 21118870, "name": "Shadowmerc360", "participants": [{"id": 19425456, "gamerTag": "Shadowmerc360", "prefix": null, "user": {"location": {"city": "Detroit", "state": "MI", "country": "United States"}}, "player": {"id": 4093609, "gamerTag": "Shadowmerc360", "prefix": null, "user": {"location": {"city": "Detroit", "state": "MI", "country": "United States"}}}}]}}, {"id": 36412926, "seedNum": 30, "entrant": {"id": 21130366, "name": "Xylias", "participants": [{"id": 19435967, "gamerTag": "Xylias", "prefix": "", "user": {"location": {"city": "Conyers", "state": "GA", "country": "United States"}}, "player": {"id": 4780181, "gamerTag": "Xyylias", "prefix": "", "user": {"location": {"city": "Conyers", "state": "GA", "country": "United States"}}}}]}}, {"id": 36414734, "seedNum": 33, "entrant": {"id": 21131840, "name": "UTINNI | MontanaY2J", "participants": [{"id": 19437311, "gamerTag": "MontanaY2J", "prefix": "UTINNI", "user": {"location": {"city": "Atlanta", "state": "GA", "country": "United States"}}, "player": {"id": 4091753, "gamerTag": "MontanaY2J", "prefix": "UTINNI", "user": {"location": {"city": "Atlanta", "state": "GA", "country": "United States"}}}}]}}, {"id": 36323760, "seedNum": 14, "entrant": {"id": 21070467, "name": "Oni_Shogi", "participants": [{"id": 19381871, "gamerTag": "Oni_Shogi", "prefix": "", "user": {"location": {"city": "Atlanta", "state": "GA", "country": "United States"}}, "player": {"id": 1400524, "gamerTag": "Oni_Shogi", "prefix": "", "user": {"location": {"city": "Atlanta", "state": "GA", "country": "United States"}}}}]}}, {"id": 36278079, "seedNum": 17, "entrant": {"id": 21038667, "name": "Xangief", "participants": [{"id": 19353145, "gamerTag": "Xangief", "prefix": null, "user": {"location": {"city": "Atlanta", "state": "GA", "country": "United States"}}, "player": {"id": 135082, "gamerTag": "Xangief", "prefix": null, "user": {"location": {"city": "Atlanta", "state": "GA", "country": "United States"}}}}]}}, {"id": 36351183, "seedNum": 20, "entrant": {"id": 21087481, "name": "Polobear | polobear1975", "participants": [{"id": 19397115, "gamerTag": "polobear1975", "prefix": "Polobear", "user": {"location": {"city": null, "state": null, "country": null}}, "player": {"id": 4899772, "gamerTag": "polobear1975", "prefix": null, "user": {"location": {"city": null, "state": null, "country": null}}}}]}}, {"id": 36390708, "seedNum": 24, "entrant": {"id": 21114148, "name": "TIF | | xS1MBA_3", "participants": [{"id": 19421342, "gamerTag": "xS1MBA_3", "prefix": "TIF |", "user": {"location": {"city": "Birmingham", "state": "AL", "country": "United States"}}, "player": {"id": 4500766, "gamerTag": "xS1MBA_3", "prefix": "TIF |", "user": {"location": {"city": "Birmingham", "state": "AL", "country": "United States"}}}}]}}, {"id": 36396811, "seedNum": 26, "entrant": {"id": 21118206, "name": "6thRaikage", "participants": [{"id": 19424815, "gamerTag": "6thRaikage", "prefix": "", "user": {"location": {"city": "Stone mountain", "state": null, "country": "South Korea"}}, "player": {"id": 1290793, "gamerTag": "6thRaikage", "prefix": "", "user": {"location": {"city": "Stone mountain", "state": null, "country": "South Korea"}}}}]}}, {"id": 36397823, "seedNum": 28, "entrant": {"id": 21118963, "name": "Gamestradamous", "participants": [{"id": 19425551, "gamerTag": "Gamestradamous", "prefix": null, "user": {"location": {"city": "Arlington", "state": "TX", "country": "United States"}}, "player": {"id": 2701839, "gamerTag": "Gamestradamous", "prefix": null, "user": {"location": {"city": "Arlington", "state": "TX", "country": "United States"}}}}]}}, {"id": 36413360, "seedNum": 31, "entrant": {"id": 21130689, "name": "Bleachedbagel", "participants": [{"id": 19436156, "gamerTag": "Bleachedbagel", "prefix": null, "user": {"location": {"city": "McDonough", "state": "GA", "country": "United States"}}, "player": {"id": 4951110, "gamerTag": "Bleachedbagel", "prefix": "", "user": {"location": {"city": "McDonough", "state": "GA", "country": "United States"}}}}]}}, {"id": 36413661, "seedNum": 32, "entrant": {"id": 21130951, "name": "Shaggy", "participants": [{"id": 19436549, "gamerTag": "Shaggy", "prefix": "", "user": {"location": {"city": "Atlanta", "state": "GA", "country": "United States"}}, "player": {"id": 4951149, "gamerTag": "Shaggy", "prefix": "", "user": {"location": {"city": "Atlanta", "state": "GA", "country": "United States"}}}}]}}, {"id": 36376982, "seedNum": 11, "entrant": {"id": 21104105, "name": "Momokins", "participants": [{"id": 19412269, "gamerTag": "Momokins", "prefix": "", "user": {"location": {"city": "Atlanta", "state": "GA", "country": "United States"}}, "player": {"id": 612216, "gamerTag": "Momokins", "prefix": "", "user": {"location": {"city": "Atlanta", "state": "GA", "country": "United States"}}}}]}}, {"id": 36415861, "seedNum": 34, "entrant": {"id": 21132800, "name": "KEY | Klouder", "participants": [{"id": 19438114, "gamerTag": "Klouder", "prefix": "KEY", "user": {"location": {"city": null, "state": null, "country": "South Korea"}}, "player": {"id": 4951811, "gamerTag": "Klouder", "prefix": "KEY", "user": {"location": {"city": null, "state": null, "country": "South Korea"}}}}]}}, {"id": 36417193, "seedNum": 35, "entrant": {"id": 21133681, "name": "Gambit", "participants": [{"id": 19438851, "gamerTag": "Gambit", "prefix": "", "user": null, "player": {"id": 4952158, "gamerTag": "Gambit", "prefix": "", "user": null}}]}}]}}}