{"phase": {"seeds": {"pageInfo": {"totalPages": 1, "total": 11}, "nodes": [{"id": 36583674, "seedNum": 2, "entrant": {"id": 21244316, "name": "DGS | spickles", "participants": [{"id": 19536185, "gamerTag": "spickles", "prefix": "DGS", "user": {"location": {"city": null, "state": null, "country": "United States"}}, "player": {"id": 1154793, "gamerTag": "spickles", "prefix": "DGS", "user": {"location": {"city": null, "state": null, "country": "United States"}}}}]}}, {"id": 36591941, "seedNum": 1, "entrant": {"id": 21250606, "name": "omega", "participants": [{"id": 19541807, "gamerTag": "omega", "prefix": "", "user": {"location": {"city": "Suwanee", "state": "GA", "country": "United States"}}, "player": {"id": 24638, "gamerTag": "omega", "prefix": "", "user": {"location": {"city": "Suwanee", "state": "GA", "country": "United States"}}}}]}}, {"id": 36597465, "seedNum": 6, "entrant": {"id": 21253932, "name": "RM | GUMP2 | Kr!stal:0", "participants": [{"id": 19544476, "gamerTag": "Kr!stal:0", "prefix": "RM | GUMP2", "user": {"location": {"city": "Lawrenceville", "state": "GA", "country": "United States"}}, "player": {"id": 2409815, "gamerTag": "AO ASHI SEASON 2 2026", "prefix": "RM | GUMP2", "user": {"location": {"city": "Lawrenceville", "state": "GA", "country": "United States"}}}}]}}, {"id": 36601376, "seedNum": 5, "entrant": {"id": 21256060, "name": "GUMP2 | Spider", "participants": [{"id": 19546462, "gamerTag": "Spider", "prefix": "GUMP2", "user": {"location": {"city": "Atlanta", "state": "GA", "country": "United States"}}, "player": {"id": 691176, "gamerTag": "Spider", "prefix": "GUMP2", "user": {"location": {"city": "Atlanta", "state": "GA", "country": "United States"}}}}]}}, {"id": 36604801, "seedNum": 3, "entrant": {"id": 21258461, "name": "Sonido", "participants": [{"id": 19548417, "gamerTag": "Sonido", "prefix": "", "user": {"location": {"city": null, "state": null, "country": null}}, "player": {"id": 6905, "gamerTag": "Sonido", "prefix": "", "user": {"location": {"city": null, "state": null, "country": null}}}}]}}, {"id": 36603194, "seedNum": 4, "entrant": {"id": 21257533, "name": "GUMP2 | ToxiC", "participants": [{"id": 19547629, "gamerTag": "ToxiC", "prefix": "GUMP2", "user": {"location": {"city": "Marietta", "state": "GA", "country": "United States"}}, "player": {"id": 2585804, "gamerTag": "ToxiC", "prefix": "GUMP2", "user": {"location": {"city": "Marietta", "state": "GA", "country": "United States"}}}}]}}, {"id": 36589879, "seedNum": 7, "entrant": {"id": 21248764, "name": "pristinetao", "participants": [{"id": 19540169, "gamerTag": "pristinetao", "prefix": "", "user": {"location": {"city": null, "state": null, "country": null}}, "player": {"id": 2721225, "gamerTag": "pristinetao", "prefix": "", "user": {"location": {"city": null, "state": null, "country": null}}}}]}}, {"id": 36584652, "seedNum": 9, "entrant": {"id": 21245188, "name": "Rain~", "participants": [{"id": 19536910, "gamerTag": "Rain~", "prefix": null, "user": {"location": {"city": "Atlanta", "state": "GA", "country": "United States"}}, "player": {"id": 4240164, "gamerTag": "Rain~", "prefix": null, "user": {"location": {"city": "Atlanta", "state": "GA", "country": "United States"}}}}]}}, {"id": 36591232, "seedNum": 8, "entrant": {"id": 21250003, "name": "Havoc", "participants": [{"id": 19541292, "gamerTag": "Havoc", "prefix": null, "user": {"location": {"city": "Orlando", "state": "FL", "country": "United States"}}, "player": {"id": 376942, "gamerTag": "Havoc", "prefix": null, "user": {"location": {"city": "Orlando", "state": "FL", "country": "United States"}}}}]}}, {"id": 36604662, "seedNum": 10, "entrant": {"id": 21258377, "name": "4o4 | Sh33rZ", "participants": [{"id": 19548343, "gamerTag": "Sh33rZ", "prefix": "4o4", "user": {"location": {"city": "alpharetta", "state": "GA", "country": "United States"}}, "player": {"id": 3640465, "gamerTag": "Sh33rZ", "prefix": "4o4", "user": {"location": {"city": "alpharetta", "state": "GA", "country": "United States"}}}}]}}, {"id": 36604241, "seedNum": 11, "entrant": {"id": 21258161, "name": "MTM | X", "participants": [{"id": 19548139, "gamerTag": "X", "prefix": "MTM", "user": {"location": {"city": "Sandy Springs", "state": "GA", "country": "United States"}}, "player": {"id": 2650387, "gamerTag": "X", "prefix": "MTM", "user": {"location": {"city": "Sandy Springs", "state": "GA", "country": "United States"}}}}]}}]}}}