{"event": {"sets": {"pageInfo": {"totalPages": 2, "total": 30}, "nodes": [{"id": 93620313, "state": 3, "round": -4, "fullRoundText": "Losers Round 2", "completedAt": 1757268349, "winnerId": 21193555, "slots": [{"id": "93620313-0", "entrant": {"id": 21193555, "name": "SweatOnly", "participants": [{"id": 19491103, "gamerTag": "SweatOnly", "prefix": "", "user": {"location": {"city": "Lilburn", "state": "GA", "country": "United States"}}, "player": {"id": 1406711, "gamerTag": "SweatOnly", "prefix": "", "user": {"location": {"city": "Lilburn", "state": "GA", "country": "United States"}}}}]}, "standing": {"placement": 1, "stats": {"score": {"value": 2}}}}, {"id": "93620313-1", "entrant": {"id": 21141135, "name": "Omar", "participants": [{"id": 19445695, "gamerTag": "Omar", "prefix": "", "user": {"location": {"city": null, "state": "GA", "country": "United States"}}, "player": {"id": 4300029, "gamerTag": "Omar", "prefix": "", "user": {"location": {"city": null, "state": "GA", "country": "United States"}}}}]}, "standing": {"placement": 2, "stats": {"score": {"value": 1}}}}], "games": null}, {"id": 93620314, "state": 3, "round": -4, "fullRoundText": "Losers Round 2", "completedAt": 1757269433, "winnerId": 21193710, "slots": [{"id": "93620314-0", "entrant": {"id": 21193710, "name": "Dubz", "participants": [{"id": 19491258, "gamerTag": "Dubz", "prefix": "", "user": {"location": {"city": "Grayson", "state": "GA", "country": "United States"}}, "player": {"id": 22583, "gamerTag": "Dubz", "prefix": "", "user": {"location": {"city": "Grayson", "state": "GA", "country": "United States"}}}}]}, "standing": {"placement": 1, "stats": {"score": {"value": 2}}}}, {"id": "93620314-1", "entrant": {"id": 21141190, "name": "Vertebrae", "participants": [{"id": 19445742, "gamerTag": "Vertebrae", "prefix": "", "user": {"location": {"city": "Athens", "state": "GA", "country": "United States"}}, "player": {"id": 1583946, "gamerTag": "Vertebrae", "prefix": "CC", "user": {"location": {"city": "Athens", "state": "GA", "country": "United States"}}}}]}, "standing": {"placement": 2, "stats": {"score": {"value": 0}}}}], "games": null}, {"id": 93620315, "state": 3, "round": -4, "fullRoundText": "Losers Round 2", "completedAt": 1757269667, "winnerId": 21141122, "slots": [{"id": "93620315-0", "entrant": {"id": 21141122, "name": "417 | Krishna", "participants": [{"id": 19445685, "gamerTag": "Krishna", "prefix": "417", "user": {"location": {"city": null, "state": null, "country": "United States"}}, "player": {"id": 2282949, "gamerTag": "Krishna", "prefix": "417", "user": {"location": {"city": null, "state": null, "country": "United States"}}}}]}, "standing": {"placement": 1, "stats": {"score": {"value": 2}}}}, {"id": "93620315-1", "entrant": {"id": 21141196, "name": "UGA | LaJohn", "participants": [{"id": 19445746, "gamerTag": "LaJohn", "prefix": "UGA", "user": {"location": {"city": "Suwanee", "state": "GA", "country": "United States"}}, "player": {"id": 1742867, "gamerTag": "LaJohn", "prefix": "UGA", "user": {"location": {"city": "Suwanee", "state": "GA", "country": "United States"}}}}]}, "standing": {"placement": 2, "stats": {"score": {"value": 0}}}}], "games": null}, {"id": 93620308, "state": 3, "round": -3, "fullRoundText": "Losers Round 1", "completedAt": 1757267550, "winnerId": 21162569, "slots": [{"id": "93620308-0", "entrant": {"id": 21193838, "name": "UGA | pattyoats", "participants": [{"id": 19491392, "gamerTag": "pattyoats", "prefix": "UGA", "user": {"location": {"city": "Atlanta", "state": "GA", "country": "United States"}}, "player": {"id": 2269670, "gamerTag": "pattyoats", "prefix": "UGA", "user": {"location": {"city": "Atlanta", "state": "GA", "country": "United States"}}}}]}, "standing": {"placement": 2, "stats": {"score": {"value": 0}}}}, {"id": "93620308-1", "entrant": {"id": 21162569, "name": "ThatSoopGuy", "participants": [{"id": 19464320, "gamerTag": "ThatSoopGuy", "prefix": null, "user": {"location": {"city": "Lawrenceville", "state": "GA", "country": "United States"}}, "player": {"id": 2253726, "gamerTag": "ThatSoopGuy", "prefix": null, "user": {"location": {"city": "Lawrenceville", "state": "GA", "country": "United States"}}}}]}, "standing": {"placement": 1, "stats": {"score": {"value": 2}}}}], "games": null}, {"id": 93620309, "state": 3, "round": -3, "fullRoundText": "Losers Round 1", "completedAt": 1757267201, "winnerId": 21141135, "slots": [{"id": "93620309-0", "entrant": {"id": 21141135, "name": "Omar", "participants": [{"id": 19445695, "gamerTag": "Omar", "prefix": "", "user": {"location": {"city": null, "state": "GA", "country": "United States"}}, "player": {"id": 4300029, "gamerTag": "Omar", "prefix": "", "user": {"location": {"city": null, "state": "GA", "country": "United States"}}}}]}, "standing": {"placement": 1, "stats": {"score": {"value": 2}}}}, {"id": "93620309-1", "entrant": {"id": 21141155, "name": "DeDeDeadly", "participants": [{"id": 19445711, "gamerTag": "DeDeDeadly", "prefix": "", "user": {"location": {"city": null, "state": null, "country": "United States"}}, "player": {"id": 2267772, "gamerTag": "DeDeDeadly", "prefix": "", "user": {"location": {"city": null, "state": null, "country": "United States"}}}}]}, "standing": {"placement": 2, "stats": {"score": {"value": 0}}}}], "games": null}, {"id": 93620310, "state": 3, "round": -3, "fullRoundText": "Losers Round 1", "completedAt": 1757267354, "winnerId": 21141190, "slots": [{"id": "93620310-0", "entrant": {"id": 21141190, "name": "Vertebrae", "participants": [{"id": 19445742, "gamerTag": "Vertebrae", "prefix": "", "user": {"location": {"city": "Athens", "state": "GA", "country": "United States"}}, "player": {"id": 1583946, "gamerTag": "Vertebrae", "prefix": "CC", "user": {"location": {"city": "Athens", "state": "GA", "country": "United States"}}}}]}, "standing": {"placement": 1, "stats": {"score": {"value": 2}}}}, {"id": "93620310-1", "entrant": {"id": 21168571, "name": "Impluvio", "participants": [{"id": 19469493, "gamerTag": "Impluvio", "prefix": "", "user": {"location": {"city": null, "state": null, "country": null}}, "player": {"id": 2175953, "gamerTag": "Impluvio", "prefix": "417", "user": {"location": {"city": null, "state": null, "country": null}}}}]}, "standing": {"placement": 2, "stats": {"score": {"value": 0}}}}], "games": null}, {"id": 93620311, "state": 3, "round": -3, "fullRoundText": "Losers Round 1", "completedAt": 1757268032, "winnerId": 21141196, "slots": [{"id": "93620311-0", "entrant": {"id": 21141196, "name": "UGA | LaJohn", "participants": [{"id": 19445746, "gamerTag": "LaJohn", "prefix": "UGA", "user": {"location": {"city": "Suwanee", "state": "GA", "country": "United States"}}, "player": {"id": 1742867, "gamerTag": "LaJohn", "prefix": "UGA", "user": {"location": {"city": "Suwanee", "state": "GA", "country": "United States"}}}}]}, "standing": {"placement": 1, "stats": {"score": {"value": 2}}}}, {"id": "93620311-1", "entrant": {"id": 21148308, "name": "UGA | JD-DK", "participants": [{"id": 19451902, "gamerTag": "JD-DK", "prefix": "UGA", "user": {"location": {"city": null, "state": null, "country": null}}, "player": {"id": 1319951, "gamerTag": "JD-DK", "prefix": "UGA", "user": {"location": {"city": null, "state": null, "country": null}}}}]}, "standing": {"placement": 2, "stats": {"score": {"value": 1}}}}], "games": null}, {"id": 93620275, "state": 3, "round": 1, "fullRoundText": "Winners Round 1", "completedAt": 1757266022, "winnerId": 21189583, "slots": [{"id": "93620275-0", "entrant": {"id": 21189583, "name": "SS | DDee", "participants": [{"id": 19487591, "gamerTag": "DDee", "prefix": "SS", "user": {"location": {"city": "Dacula", "state": "GA", "country": "United States"}}, "player": {"id": 1480393, "gamerTag": "DDee", "prefix": "SS", "user": {"location": {"city": "Dacula", "state": "GA", "country": "United States"}}}}]}, "standing": {"placement": 1, "stats": {"score": {"value": 2}}}}, {"id": "93620275-1", "entrant": {"id": 21193838, "name": "UGA | pattyoats", "participants": [{"id": 19491392, "gamerTag": "pattyoats", "prefix": "UGA", "user": {"location": {"city": "Atlanta", "state": "GA", "country": "United States"}}, "player": {"id": 2269670, "gamerTag": "pattyoats", "prefix": "UGA", "user": {"location": {"city": "Atlanta", "state": "GA", "country": "United States"}}}}]}, "standing": {"placement": 2, "stats": {"score": {"value": 0}}}}], "games": null}, {"id": 93620276, "state": 3, "round": 1, "fullRoundText": "Winners Round 1", "completedAt": 1757266874, "winnerId": 21141122, "slots": [{"id": "93620276-0", "entrant": {"id": 21141122, "name": "417 | Krishna", "participants": [{"id": 19445685, "gamerTag": "Krishna", "prefix": "417", "user": {"location": {"city": null, "state": null, "country": "United States"}}, "player": {"id": 2282949, "gamerTag": "Krishna", "prefix": "417", "user": {"location": {"city": null, "state": null, "country": "United States"}}}}]}, "standing": {"placement": 1, "stats": {"score": {"value": 2}}}}, {"id": "93620276-1", "entrant": {"id": 21162569, "name": "ThatSoopGuy", "participants": [{"id": 19464320, "gamerTag": "ThatSoopGuy", "prefix": null, "user": {"location": {"city": "Lawrenceville", "state": "GA", "country": "United States"}}, "player": {"id": 2253726, "gamerTag": "ThatSoopGuy", "prefix": null, "user": {"location": {"city": "Lawrenceville", "state": "GA", "country": "United States"}}}}]}, "standing": {"placement": 2, "stats": {"score": {"value": 0}}}}], "games": null}, {"id": 93620277, "state": 3, "round": 1, "fullRoundText": "Winners Round 1", "completedAt": 1757265870, "winnerId": 21169337, "slots": [{"id": "93620277-0", "entrant": {"id": 21169337, "name": "417 | OneHundred", "participants": [{"id": 19470161, "gamerTag": "OneHundred", "prefix": "417", "user": {"location": {"city": null, "state": null, "country": "United States"}}, "player": {"id": 2266676, "gamerTag": "OneHundred", "prefix": "417", "user": {"location": {"city": null, "state": null, "country": "United States"}}}}]}, "standing": {"placement": 1, "stats": {"score": {"value": 2}}}}, {"id": "93620277-1", "entrant": {"id": 21141135, "name": "Omar", "participants": [{"id": 19445695, "gamerTag": "Omar", "prefix": "", "user": {"location": {"city": null, "state": "GA", "country": "United States"}}, "player": {"id": 4300029, "gamerTag": "Omar", "prefix": "", "user": {"location": {"city": null, "state": "GA", "country": "United States"}}}}]}, "standing": {"placement": 2, "stats": {"score": {"value": 0}}}}], "games": null}, {"id": 93620278, "state": 3, "round": 1, "fullRoundText": "Winners Round 1", "completedAt": 1757266225, "winnerId": 21193710, "slots": [{"id": "93620278-0", "entrant": {"id": 21193710, "name": "Dubz", "participants": [{"id": 19491258, "gamerTag": "Dubz", "prefix": "", "user": {"location": {"city": "Grayson", "state": "GA", "country": "United States"}}, "player": {"id": 22583, "gamerTag": "Dubz", "prefix": "", "user": {"location": {"city": "Grayson", "state": "GA", "country": "United States"}}}}]}, "standing": {"placement": 1, "stats": {"score": {"value": 2}}}}, {"id": "93620278-1", "entrant": {"id": 21141155, "name": "DeDeDeadly", "participants": [{"id": 19445711, "gamerTag": "DeDeDeadly", "prefix": "", "user": {"location": {"city": null, "state": null, "country": "United States"}}, "player": {"id": 2267772, "gamerTag": "DeDeDeadly", "prefix": "", "user": {"location": {"city": null, "state": null, "country": "United States"}}}}]}, "standing": {"placement": 2, "stats": {"score": {"value": 0}}}}], "games": null}, {"id": 93620279, "state": 3, "round": 1, "fullRoundText": "Winners Round 1", "completedAt": 1757266696, "winnerId": 21141081, "slots": [{"id": "93620279-0", "entrant": {"id": 21141081, "name": "UGA | Akamos", "participants": [{"id": 19445645, "gamerTag": "Akamos", "prefix": "UGA", "user": {"location": {"city": "Kennesaw", "state": "GA", "country": "United States"}}, "player": {"id": 2233683, "gamerTag": "Akamos", "prefix": "UGA", "user": {"location": {"city": "Kennesaw", "state": "GA", "country": "United States"}}}}]}, "standing": {"placement": 1, "stats": {"score": {"value": 2}}}}, {"id": "93620279-1", "entrant": {"id": 21141190, "name": "Vertebrae", "participants": [{"id": 19445742, "gamerTag": "Vertebrae", "prefix": "", "user": {"location": {"city": "Athens", "state": "GA", "country": "United States"}}, "player": {"id": 1583946, "gamerTag": "Vertebrae", "prefix": "CC", "user": {"location": {"city": "Athens", "state": "GA", "country": "United States"}}}}]}, "standing": {"placement": 2, "stats": {"score": {"value": 1}}}}], "games": null}, {"id": 93620280, "state": 3, "round": 1, "fullRoundText": "Winners Round 1", "completedAt": 1757266310, "winnerId": 21193555, "slots": [{"id": "93620280-0", "entrant": {"id": 21168571, "name": "Impluvio", "participants": [{"id": 19469493, "gamerTag": "Impluvio", "prefix": "", "user": {"location": {"city": null, "state": null, "country": null}}, "player": {"id": 2175953, "gamerTag": "Impluvio", "prefix": "417", "user": {"location": {"city": null, "state": null, "country": null}}}}]}, "standing": {"placement": 2, "stats": {"score": {"value": 1}}}}, {"id": "93620280-1", "entrant": {"id": 21193555, "name": "SweatOnly", "participants": [{"id": 19491103, "gamerTag": "SweatOnly", "prefix": "", "user": {"location": {"city": "Lilburn", "state": "GA", "country": "United States"}}, "player": {"id": 1406711, "gamerTag": "SweatOnly", "prefix": "", "user": {"location": {"city": "Lilburn", "state": "GA", "country": "United States"}}}}]}, "standing": {"placement": 1, "stats": {"score": {"value": 2}}}}], "games": null}, {"id": 93620281, "state": 3, "round": 1, "fullRoundText": "Winners Round 1", "completedAt": 1757266273, "winnerId": 21169484, "slots": [{"id": "93620281-0", "entrant": {"id": 21169484, "name": "Nia", "participants": [{"id": 19470303, "gamerTag": "Nia", "prefix": null, "user": {"location": {"city": "Buford", "state": "GA", "country": "United States"}}, "player": {"id": 428070, "gamerTag": "Nia", "prefix": null, "user": {"location": {"city": "Buford", "state": "GA", "country": "United States"}}}}]}, "standing": {"placement": 1, "stats": {"score": {"value": 2}}}}, {"id": "93620281-1", "entrant": {"id": 21141196, "name": "UGA | LaJohn", "participants": [{"id": 19445746, "gamerTag": "LaJohn", "prefix": "UGA", "user": {"location": {"city": "Suwanee", "state": "GA", "country": "United States"}}, "player": {"id": 1742867, "gamerTag": "LaJohn", "prefix": "UGA", "user": {"location": {"city": "Suwanee", "state": "GA", "country": "United States"}}}}]}, "standing": {"placement": 2, "stats": {"score": {"value": 0}}}}], "games": null}, {"id": 93620282, "state": 3, "round": 1, "fullRoundText": "Winners Round 1", "completedAt": 1757266295, "winnerId": 21194550, "slots": [{"id": "93620282-0", "entrant": {"id": 21148308, "name": "UGA | JD-DK", "participants": [{"id": 19451902, "gamerTag": "JD-DK", "prefix": "UGA", "user": {"location": {"city": null, "state": null, "country": null}}, "player": {"id": 1319951, "gamerTag": "JD-DK", "prefix": "UGA", "user": {"location": {"city": null, "state": null, "country": null}}}}]}, "standing": {"placement": 2, "stats": {"score": {"value": 1}}}}, {"id": "93620282-1", "entrant": {"id": 21194550, "name": "Bany05", "participants": [{"id": 19492046, "gamerTag": "Bany05", "prefix": null, "user": {"location": {"city": null, "state": null, "country": null}}, "player": {"id": 2637493, "gamerTag": "Bany05", "prefix": null, "user": {"location": {"city": null, "state": null, "country": null}}}}]}, "standing": {"placement": 1, "stats": {"score": {"value": 2}}}}], "games": null}]}}}