{"event": {"sets": {"pageInfo": {"totalPages": 1, "total": 14}, "nodes": [{"id": 93468326, "state": 3, "round": 4, "fullRoundText": "Grand Final", "completedAt": 1757035168, "winnerId": 21164675, "slots": [{"id": "93468326-0", "entrant": {"id": 21164675, "name": "swaggerbee", "participants": [{"id": 19465975, "gamerTag": "swaggerbee", "prefix": "", "user": {"location": {"city": "Atlanta", "state": "GA", "country": "United States"}}, "player": {"id": 1687384, "gamerTag": "swaggerbee", "prefix": "", "user": {"location": {"city": "Atlanta", "state": "GA", "country": "United States"}}}}]}, "standing": {"placement": 1, "stats": {"score": {"value": 3}}}}, {"id": "93468326-1", "entrant": {"id": 21167666, "name": "tomguy", "participants": [{"id": 19468640, "gamerTag": "tomguy", "prefix": "", "user": {"location": {"city": "Atlanta", "state": "GA", "country": "United States"}}, "player": {"id": 147458, "gamerTag": "tomguy", "prefix": "", "user": {"location": {"city": "Atlanta", "state": "GA", "country": "United States"}}}}]}, "standing": {"placement": 2, "stats": {"score": {"value": 0}}}}], "games": null}, {"id": 93468325, "state": 3, "round": 3, "fullRoundText": "Winners Final", "completedAt": 1757032914, "winnerId": 21164675, "slots": [{"id": "93468325-0", "entrant": {"id": 21164675, "name": "swaggerbee", "participants": [{"id": 19465975, "gamerTag": "swaggerbee", "prefix": "", "user": {"location": {"city": "Atlanta", "state": "GA", "country": "United States"}}, "player": {"id": 1687384, "gamerTag": "swaggerbee", "prefix": "", "user": {"location": {"city": "Atlanta", "state": "GA", "country": "United States"}}}}]}, "standing": {"placement": 1, "stats": {"score": {"value": 3}}}}, {"id": "93468325-1", "entrant": {"id": 21167666, "name": "tomguy", "participants": [{"id": 19468640, "gamerTag": "tomguy", "prefix": "", "user": {"location": {"city": "Atlanta", "state": "GA", "country": "United States"}}, "player": {"id": 147458, "gamerTag": "tomguy", "prefix": "", "user": {"location": {"city": "Atlanta", "state": "GA", "country": "United States"}}}}]}, "standing": {"placement": 2, "stats": {"score": {"value": 0}}}}], "games": null}, {"id": 93468341, "state": 3, "round": -6, "fullRoundText": "Losers Final", "completedAt": 1757035155, "winnerId": 21167666, "slots": [{"id": "93468341-0", "entrant": {"id": 21167666, "name": "tomguy", "participants": [{"id": 19468640, "gamerTag": "tomguy", "prefix": "", "user": {"location": {"city": "Atlanta", "state": "GA", "country": "United States"}}, "player": {"id": 147458, "gamerTag": "tomguy", "prefix": "", "user": {"location": {"city": "Atlanta", "state": "GA", "country": "United States"}}}}]}, "standing": {"placement": 1, "stats": {"score": {"value": 3}}}}, {"id": "93468341-1", "entrant": {"id": 21153657, "name": "EVIL | Alas", "participants": [{"id": 19456506, "gamerTag": "Alas", "prefix": "EVIL", "user": {"location": {"city": null, "state": null, "country": null}}, "player": {"id": 25946, "gamerTag": "Alas", "prefix": "EVIL", "user": {"location": {"city": null, "state": null, "country": null}}}}]}, "standing": {"placement": 2, "stats": {"score": {"value": 1}}}}], "games": null}, {"id": 93468340, "state": 3, "round": -5, "fullRoundText": "Losers Semi-Final", "completedAt": 1757033422, "winnerId": 21153657, "slots": [{"id": "93468340-0", "entrant": {"id": 21153657, "name": "EVIL | Alas", "participants": [{"id": 19456506, "gamerTag": "Alas", "prefix": "EVIL", "user": {"location": {"city": null, "state": null, "country": null}}, "player": {"id": 25946, "gamerTag": "Alas", "prefix": "EVIL", "user": {"location": {"city": null, "state": null, "country": null}}}}]}, "standing": {"placement": 1, "stats": {"score": {"value": 3}}}}, {"id": "93468340-1", "entrant": {"id": 21153861, "name": "DD | Kingpoyothefirst", "participants": [{"id": 19456662, "gamerTag": "Kingpoyothefirst", "prefix": "DD", "user": {"location": {"city": null, "state": null, "country": null}}, "player": {"id": 2934299, "gamerTag": "Kingpoyothefirst", "prefix": "DD", "user": {"location": {"city": null, "state": null, "country": null}}}}]}, "standing": {"placement": 2, "stats": {"score": {"value": 0}}}}], "games": null}, {"id": 93468323, "state": 3, "round": 2, "fullRoundText": "Winners Semi-Final", "completedAt": 1757031339, "winnerId": 21164675, "slots": [{"id": "93468323-0", "entrant": {"id": 21164675, "name": "swaggerbee", "participants": [{"id": 19465975, "gamerTag": "swaggerbee", "prefix": "", "user": {"location": {"city": "Atlanta", "state": "GA", "country": "United States"}}, "player": {"id": 1687384, "gamerTag": "swaggerbee", "prefix": "", "user": {"location": {"city": "Atlanta", "state": "GA", "country": "United States"}}}}]}, "standing": {"placement": 1, "stats": {"score": {"value": 3}}}}, {"id": "93468323-1", "entrant": {"id": 21153861, "name": "DD | Kingpoyothefirst", "participants": [{"id": 19456662, "gamerTag": "Kingpoyothefirst", "prefix": "DD", "user": {"location": {"city": null, "state": null, "country": null}}, "player": {"id": 2934299, "gamerTag": "Kingpoyothefirst", "prefix": "DD", "user": {"location": {"city": null, "state": null, "country": null}}}}]}, "standing": {"placement": 2, "stats": {"score": {"value": 0}}}}], "games": null}, {"id": 93468324, "state": 3, "round": 2, "fullRoundText": "Winners Semi-Final", "completedAt": 1757031478, "winnerId": 21167666, "slots": [{"id": "93468324-0", "entrant": {"id": 21167666, "name": "tomguy", "participants": [{"id": 19468640, "gamerTag": "tomguy", "prefix": "", "user": {"location": {"city": "Atlanta", "state": "GA", "country": "United States"}}, "player": {"id": 147458, "gamerTag": "tomguy", "prefix": "", "user": {"location": {"city": "Atlanta", "state": "GA", "country": "United States"}}}}]}, "standing": {"placement": 1, "stats": {"score": {"value": 3}}}}, {"id": "93468324-1", "entrant": {"id": 21153657, "name": "EVIL | Alas", "participants": [{"id": 19456506, "gamerTag": "Alas", "prefix": "EVIL", "user": {"location": {"city": null, "state": null, "country": null}}, "player": {"id": 25946, "gamerTag": "Alas", "prefix": "EVIL", "user": {"location": {"city": null, "state": null, "country": null}}}}]}, "standing": {"placement": 2, "stats": {"score": {"value": 0}}}}], "games": null}, {"id": 93468338, "state": 3, "round": -4, "fullRoundText": "Losers Quarter-Final", "completedAt": 1757032385, "winnerId": 21153657, "slots": [{"id": "93468338-0", "entrant": {"id": 21153657, "name": "EVIL | Alas", "participants": [{"id": 19456506, "gamerTag": "Alas", "prefix": "EVIL", "user": {"location": {"city": null, "state": null, "country": null}}, "player": {"id": 25946, "gamerTag": "Alas", "prefix": "EVIL", "user": {"location": {"city": null, "state": null, "country": null}}}}]}, "standing": {"placement": 1, "stats": {"score": {"value": 3}}}}, {"id": "93468338-1", "entrant": {"id": 21155684, "name": "The Hive | braxton", "participants": [{"id": 19458200, "gamerTag": "braxton", "prefix": "The Hive", "user": {"location": {"city": "Atlanta", "state": "GA", "country": "United States"}}, "player": {"id": 1037821, "gamerTag": "braxton", "prefix": "The Hive", "user": {"location": {"city": "Atlanta", "state": "GA", "country": "United States"}}}}]}, "standing": {"placement": 2, "stats": {"score": {"value": 1}}}}], "games": null}, {"id": 93468339, "state": 3, "round": -4, "fullRoundText": "Losers Quarter-Final", "completedAt": 1757032233, "winnerId": 21153861, "slots": [{"id": "93468339-0", "entrant": {"id": 21153861, "name": "DD | Kingpoyothefirst", "participants": [{"id": 19456662, "gamerTag": "Kingpoyothefirst", "prefix": "DD", "user": {"location": {"city": null, "state": null, "country": null}}, "player": {"id": 2934299, "gamerTag": "Kingpoyothefirst", "prefix": "DD", "user": {"location": {"city": null, "state": null, "country": null}}}}]}, "standing": {"placement": 1, "stats": {"score": {"value": 3}}}}, {"id": "93468339-1", "entrant": {"id": 21167205, "name": "blaise", "participants": [{"id": 19468206, "gamerTag": "blaise", "prefix": "", "user": {"location": {"city": "douglasville", "state": "GA", "country": "United States"}}, "player": {"id": 1326121, "gamerTag": "blaise", "prefix": "", "user": {"location": {"city": "douglasville", "state": "GA", "country": "United States"}}}}]}, "standing": {"placement": 2, "stats": {"score": {"value": 0}}}}], "games": null}, {"id": 93468336, "state": 3, "round": -3, "fullRoundText": "Losers Round 1", "completedAt": 1757031329, "winnerId": 21155684, "slots": [{"id": "93468336-0", "entrant": {"id": 21163935, "name": "FtR | Sneak", "participants": [{"id": 19465401, "gamerTag": "Sneak", "prefix": "FtR", "user": {"location": {"city": "Villa Rica", "state": "GA", "country": "United States"}}, "player": {"id": 1902931, "gamerTag": "Sneak", "prefix": null, "user": {"location": {"city": "Villa Rica", "state": "GA", "country": "United States"}}}}]}, "standing": {"placement": 2, "stats": {"score": {"value": 0}}}}, {"id": "93468336-1", "entrant": {"id": 21155684, "name": "The Hive | braxton", "participants": [{"id": 19458200, "gamerTag": "braxton", "prefix": "The Hive", "user": {"location": {"city": "Atlanta", "state": "GA", "country": "United States"}}, "player": {"id": 1037821, "gamerTag": "braxton", "prefix": "The Hive", "user": {"location": {"city": "Atlanta", "state": "GA", "country": "United States"}}}}]}, "standing": {"placement": 1, "stats": {"score": {"value": 3}}}}], "games": null}, {"id": 93468337, "state": 3, "round": -3, "fullRoundText": "Losers Round 1", "completedAt": 1757036462, "winnerId": 21167205, "slots": [{"id": "93468337-0", "entrant": {"id": 21165302, "name": "NMBS | roshi", "participants": [{"id": 19466490, "gamerTag": "roshi", "prefix": "NMBS", "user": {"location": {"city": "Atlanta", "state": "GA", "country": "United States"}}, "player": {"id": 37667, "gamerTag": "roshi", "prefix": "NMBS", "user": {"location": {"city": "Atlanta", "state": "GA", "country": "United States"}}}}]}, "standing": {"placement": 2, "stats": {"score": {"value": 0}}}}, {"id": "93468337-1", "entrant": {"id": 21167205, "name": "blaise", "participants": [{"id": 19468206, "gamerTag": "blaise", "prefix": "", "user": {"location": {"city": "douglasville", "state": "GA", "country": "United States"}}, "player": {"id": 1326121, "gamerTag": "blaise", "prefix": "", "user": {"location": {"city": "douglasville", "state": "GA", "country": "United States"}}}}]}, "standing": {"placement": 1, "stats": {"score": {"value": 4}}}}], "games": null}, {"id": 93468319, "state": 3, "round": 1, "fullRoundText": "Winners Quarter-Final", "completedAt": 1757030465, "winnerId": 21164675, "slots": [{"id": "93468319-0", "entrant": {"id": 21164675, "name": "swaggerbee", "participants": [{"id": 19465975, "gamerTag": "swaggerbee", "prefix": "", "user": {"location": {"city": "Atlanta", "state": "GA", "country": "United States"}}, "player": {"id": 1687384, "gamerTag": "swaggerbee", "prefix": "", "user": {"location": {"city": "Atlanta", "state": "GA", "country": "United States"}}}}]}, "standing": {"placement": 1, "stats": {"score": {"value": 3}}}}, {"id": "93468319-1", "entrant": {"id": 21163935, "name": "FtR | Sneak", "participants": [{"id": 19465401, "gamerTag": "Sneak", "prefix": "FtR", "user": {"location": {"city": "Villa Rica", "state": "GA", "country": "United States"}}, "player": {"id": 1902931, "gamerTag": "Sneak", "prefix": null, "user": {"location": {"city": "Villa Rica", "state": "GA", "country": "United States"}}}}]}, "standing": {"placement": 2, "stats": {"score": {"value": 0}}}}], "games": null}, {"id": 93468320, "state": 3, "round": 1, "fullRoundText": "Winners Quarter-Final", "completedAt": 1757030687, "winnerId": 21153861, "slots": [{"id": "93468320-0", "entrant": {"id": 21153861, "name": "DD | Kingpoyothefirst", "participants": [{"id": 19456662, "gamerTag": "Kingpoyothefirst", "prefix": "DD", "user": {"location": {"city": null, "state": null, "country": null}}, "player": {"id": 2934299, "gamerTag": "Kingpoyothefirst", "prefix": "DD", "user": {"location": {"city": null, "state": null, "country": null}}}}]}, "standing": {"placement": 1, "stats": {"score": {"value": 3}}}}, {"id": "93468320-1", "entrant": {"id": 21155684, "name": "The Hive | braxton", "participants": [{"id": 19458200, "gamerTag": "braxton", "prefix": "The Hive", "user": {"location": {"city": "Atlanta", "state": "GA", "country": "United States"}}, "player": {"id": 1037821, "gamerTag": "braxton", "prefix": "The Hive", "user": {"location": {"city": "Atlanta", "state": "GA", "country": "United States"}}}}]}, "standing": {"placement": 2, "stats": {"score": {"value": 0}}}}], "games": null}, {"id": 93468321, "state": 3, "round": 1, "fullRoundText": "Winners Quarter-Final", "completedAt": 1757036445, "winnerId": 21167666, "slots": [{"id": "93468321-0", "entrant": {"id": 21167666, "name": "tomguy", "participants": [{"id": 19468640, "gamerTag": "tomguy", "prefix": "", "user": {"location": {"city": "Atlanta", "state": "GA", "country": "United States"}}, "player": {"id": 147458, "gamerTag": "tomguy", "prefix": "", "user": {"location": {"city": "Atlanta", "state": "GA", "country": "United States"}}}}]}, "standing": {"placement": 1, "stats": {"score": {"value": 4}}}}, {"id": "93468321-1", "entrant": {"id": 21165302, "name": "NMBS | roshi", "participants": [{"id": 19466490, "gamerTag": "roshi", "prefix": "NMBS", "user": {"location": {"city": "Atlanta", "state": "GA", "country": "United States"}}, "player": {"id": 37667, "gamerTag": "roshi", "prefix": "NMBS", "user": {"location": {"city": "Atlanta", "state": "GA", "country": "United States"}}}}]}, "standing": {"placement": 2, "stats": {"score": {"value": 0}}}}], "games": null}, {"id": 93468322, "state": 3, "round": 1, "fullRoundText": "Winners Quarter-Final", "completedAt": 1757030625, "winnerId": 21153657, "slots": [{"id": "93468322-0", "entrant": {"id": 21153657, "name": "EVIL | Alas", "participants": [{"id": 19456506, "gamerTag": "Alas", "prefix": "EVIL", "user": {"location": {"city": null, "state": null, "country": null}}, "player": {"id": 25946, "gamerTag": "Alas", "prefix": "EVIL", "user": {"location": {"city": null, "state": null, "country": null}}}}]}, "standing": {"placement": 1, "stats": {"score": {"value": 3}}}}, {"id": "93468322-1", "entrant": {"id": 21167205, "name": "blaise", "participants": [{"id": 19468206, "gamerTag": "blaise", "prefix": "", "user": {"location": {"city": "douglasville", "state": "GA", "country": "United States"}}, "player": {"id": 1326121, "gamerTag": "blaise", "prefix": "", "user": {"location": {"city": "douglasville", "state": "GA", "country": "United States"}}}}]}, "standing": {"placement": 2, "stats": {"score": {"value": 0}}}}], "games": null}]}}}