{"phase": {"seeds": {"pageInfo": {"totalPages": 1, "total": 21}, "nodes": [{"id": 36863908, "seedNum": 1, "entrant": {"id": 21438524, "name": "JJBREEZE", "participants": [{"id": 19704015, "gamerTag": "JJBREEZE", "prefix": "", "user": {"location": {"city": "Atlanta", "state": "GA", "country": "United States"}}, "player": {"id": 688460, "gamerTag": "JJBREEZE", "prefix": "", "user": {"location": {"city": "Atlanta", "state": "GA", "country": "United States"}}}}]}}, {"id": 36860331, "seedNum": 2, "entrant": {"id": 21435819, "name": "Genghis D0n", "participants": [{"id": 19701580, "gamerTag": "Genghis D0n", "prefix": "", "user": {"location": {"city": "Atlanta", "state": "GA", "country": "United States"}}, "player": {"id": 724224, "gamerTag": "Genghis D0n", "prefix": "", "user": {"location": {"city": "Atlanta", "state": "GA", "country": "United States"}}}}]}}, {"id": 36861487, "seedNum": 4, "entrant": {"id": 21436681, "name": "O.N.2", "participants": [{"id": 19702330, "gamerTag": "O.N.2", "prefix": "", "user": {"location": {"city": "SNELLVILLE", "state": "GA", "country": "United States"}}, "player": {"id": 1042436, "gamerTag": "O.N.2", "prefix": "", "user": {"location": {"city": "SNELLVILLE", "state": "GA", "country": "United States"}}}}]}}, {"id": 36857421, "seedNum": 5, "entrant": {"id": 21433506, "name": "BOLT | KhalRhaego", "participants": [{"id": 19699988, "gamerTag": "KhalRhaego", "prefix": "BOLT", "user": {"location": {"city": "Jonesboro", "state": "GA", "country": "United States"}}, "player": {"id": 4076327, "gamerTag": "KhalRhaego", "prefix": "BOLT", "user": {"location": {"city": "Jonesboro", "state": "GA", "country": "United States"}}}}]}}, {"id": 36862890, "seedNum": 3, "entrant": {"id": 21437896, "name": "Pokchop", "participants": [{"id": 19703438, "gamerTag": "Pokchop", "prefix": "", "user": {"location": {"city": "Atlanta", "state": "GA", "country": "United States"}}, "player": {"id": 150402, "gamerTag": "Pokchop", "prefix": "", "user": {"location": {"city": "Atlanta", "state": "GA", "country": "United States"}}}}]}}, {"id": 36861406, "seedNum": 12, "entrant": {"id": 21436623, "name": "Aneubys", "participants": [{"id": 19702278, "gamerTag": "Aneubys", "prefix": "", "user": {"location": {"city": "Smyrna", "state": "GA", "country": "United States"}}, "player": {"id": 3901259, "gamerTag": "Aneubys", "prefix": "", "user": {"location": {"city": "Smyrna", "state": "GA", "country": "United States"}}}}]}}, {"id": 36861881, "seedNum": 7, "entrant": {"id": 21436960, "name": "Myk_JUMP", "participants": [{"id": 19702578, "gamerTag": "Myk_JUMP", "prefix": "", "user": {"location": {"city": "Atlanta", "state": "GA", "country": "United States"}}, "player": {"id": 469002, "gamerTag": "Myk_JUMP", "prefix": "", "user": {"location": {"city": "Atlanta", "state": "GA", "country": "United States"}}}}]}}, {"id": 36863973, "seedNum": 18, "entrant": {"id": 21438577, "name": "Smoochie", "participants": [{"id": 19704064, "gamerTag": "Smoochie", "prefix": null, "user": {"location": {"city": null, "state": "GA", "country": "United States"}}, "player": {"id": 2877248, "gamerTag": "Smoochie", "prefix": null, "user": {"location": {"city": null, "state": "GA", "country": "United States"}}}}]}}, {"id": 36863369, "seedNum": 6, "entrant": {"id": 21438218, "name": "Armanisaint", "participants": [{"id": 19703713, "gamerTag": "Armanisaint", "prefix": null, "user": {"location": {"city": "Roswell", "state": "GA", "country": "United States"}}, "player": {"id": 3943806, "gamerTag": "Armanisaint", "prefix": null, "user": {"location": {"city": "Roswell", "state": "GA", "country": "United States"}}}}]}}, {"id": 36862384, "seedNum": 8, "entrant": {"id": 21437447, "name": "PrimeStone", "participants": [{"id": 19703032, "gamerTag": "PrimeStone", "prefix": null, "user": {"location": {"city": "Loganville", "state": "GA", "country": "United States"}}, "player": {"id": 1130909, "gamerTag": "PrimeStone", "prefix": null, "user": {"location": {"city": "Loganville", "state": "GA", "country": "United States"}}}}]}}, {"id": 36863552, "seedNum": 16, "entrant": {"id": 21438342, "name": "C-2", "participants": [{"id": 19703825, "gamerTag": "C-2", "prefix": "", "user": {"location": {"city": "Atlanta", "state": "GA", "country": "United States"}}, "player": {"id": 1228856, "gamerTag": "C-2", "prefix": "", "user": {"location": {"city": "Atlanta", "state": "GA", "country": "United States"}}}}]}}, {"id": 36863830, "seedNum": 17, "entrant": {"id": 21438462, "name": "4o4 | blitz", "participants": [{"id": 19703936, "gamerTag": "blitz", "prefix": "4o4", "user": {"location": {"city": "Lawrenceville", "state": "GA", "country": "United States"}}, "player": {"id": 2228539, "gamerTag": "blitz", "prefix": "4o4", "user": {"location": {"city": "Lawrenceville", "state": "GA", "country": "United States"}}}}]}}, {"id": 36802247, "seedNum": 9, "entrant": {"id": 21396196, "name": "finnickyfinn", "participants": [{"id": 19667467, "gamerTag": "finnickyfinn", "prefix": null, "user": {"location": {"city": null, "state": null, "country": "United States"}}, "player": {"id": 3561899, "gamerTag": "finnickyfinn", "prefix": null, "user": {"location": {"city": null, "state": null, "country": "United States"}}}}]}}, {"id": 36862342, "seedNum": 13, "entrant": {"id": 21437404, "name": "Macho_Franchise", "participants": [{"id": 19702987, "gamerTag": "Macho_Franchise", "prefix": null, "user": {"location": {"city": "Marietta", "state": "GA", "country": "United States"}}, "player": {"id": 874463, "gamerTag": "Macho_Franchise", "prefix": null, "user": {"location": {"city": "Marietta", "state": "GA", "country": "United States"}}}}]}}, {"id": 36862372, "seedNum": 14, "entrant": {"id": 21437435, "name": "Limitless_GuNzZ", "participants": [{"id": 19703020, "gamerTag": "Limitless_GuNzZ", "prefix": "", "user": {"location": {"city": "Atlanta", "state": "GA", "country": "United States"}}, "player": {"id": 1627766, "gamerTag": "Limitless_GuNzZ", "prefix": "", "user": {"location": {"city": "Atlanta", "state": "GA", "country": "United States"}}}}]}}, {"id": 36864811, "seedNum": 20, "entrant": {"id": 21439183, "name": "RD | Beans", "participants": [{"id": 19704593, "gamerTag": "Beans", "prefix": "RD", "user": {"location": {"city": "Lawrenceville", "state": "GA", "country": "United States"}}, "player": {"id": 2899057, "gamerTag": "Beans", "prefix": "RD", "user": {"location": {"city": "Lawrenceville", "state": "GA", "country": "United States"}}}}]}}, {"id": 36844739, "seedNum": 10, "entrant": {"id": 21424434, "name": "ItsManiBro", "participants": [{"id": 19692087, "gamerTag": "ItsManiBro", "prefix": null, "user": {"location": {"city": "Cartersville", "state": "GA", "country": "United States"}}, "player": {"id": 3511353, "gamerTag": "ItsManiBro", "prefix": null, "user": {"location": {"city": "Cartersville", "state": "GA", "country": "United States"}}}}]}}, {"id": 36860702, "seedNum": 11, "entrant": {"id": 21436171, "name": "Azarlith", "participants": [{"id": 19701891, "gamerTag": "Azarlith", "prefix": "", "user": {"location": {"city": "Lawrenceville", "state": null, "country": "United States"}}, "player": {"id": 3444743, "gamerTag": "Azarlith", "prefix": "", "user": {"location": {"city": "Lawrenceville", "state": null, "country": "United States"}}}}]}}, {"id": 36862564, "seedNum": 15, "entrant": {"id": 21437615, "name": "Momokins", "participants": [{"id": 19703179, "gamerTag": "Momokins", "prefix": "", "user": {"location": {"city": "Atlanta", "state": "GA", "country": "United States"}}, "player": {"id": 612216, "gamerTag": "Momokins", "prefix": "", "user": {"location": {"city": "Atlanta", "state": "GA", "country": "United States"}}}}]}}, {"id": 36864790, "seedNum": 19, "entrant": {"id": 21439159, "name": "down4", "participants": [{"id": 19704573, "gamerTag": "down4", "prefix": "", "user": null, "player": {"id": 5002259, "gamerTag": "down4", "prefix": "", "user": null}}]}}, {"id": 36865169, "seedNum": 21, "entrant": {"id": 21439345, "name": "TTMG | IlloriVice", "participants": [{"id": 19704726, "gamerTag": "IlloriVice", "prefix": "TTMG", "user": {"location": {"city": "Atlanta", "state": "GA", "country": "United States"}}, "player": {"id": 4981273, "gamerTag": "IlloriVice", "prefix": "TTMG", "user": {"location": {"city": "Atlanta", "state": "GA", "country": "United States"}}}}]}}]}}}