{"event": {"sets": {"pageInfo": {"totalPages": 3, "total": 32}, "nodes": [{"id": 93912475, "state": 3, "round": -4, "fullRoundText": "Losers Round 1", "completedAt": 1757882664, "winnerId": 20926454, "slots": [{"id": "93912475-0", "entrant": {"id": 20926454, "name": "The Hive | braxton", "participants": [{"id": 19253557, "gamerTag": "braxton", "prefix": "The Hive", "user": {"location": {"city": "Atlanta", "state": "GA", "country": "United States"}}, "player": {"id": 1037821, "gamerTag": "braxton", "prefix": "The Hive", "user": {"location": {"city": "Atlanta", "state": "GA", "country": "United States"}}}}]}, "standing": {"placement": 1, "stats": {"score": {"value": 3}}}}, {"id": "93912475-1", "entrant": {"id": 21258822, "name": "popsicle", "participants": [{"id": 19548725, "gamerTag": "popsicle", "prefix": "", "user": {"location": {"city": "Atlanta", "state": "GA", "country": "United States"}}, "player": {"id": 4435133, "gamerTag": "popsicle", "prefix": "", "user": {"location": {"city": "Atlanta", "state": "GA", "country": "United States"}}}}]}, "standing": {"placement": 2, "stats": {"score": {"value": 0}}}}], "games": null}, {"id": 93912403, "state": 3, "round": 1, "fullRoundText": "Winners Round 1", "completedAt": 1757881849, "winnerId": 21213776, "slots": [{"id": "93912403-0", "entrant": {"id": 21213776, "name": "TPS | $CAITLIN", "participants": [{"id": 19509349, "gamerTag": "$CAITLIN", "prefix": "TPS", "user": {"location": {"city": "Kennesaw", "state": "GA", "country": "United States"}}, "player": {"id": 3422494, "gamerTag": "$CAITLIN", "prefix": "TPS", "user": {"location": {"city": "Kennesaw", "state": "GA", "country": "United States"}}}}]}, "standing": {"placement": 1, "stats": {"score": {"value": 3}}}}, {"id": "93912403-1", "entrant": {"id": 21258822, "name": "popsicle", "participants": [{"id": 19548725, "gamerTag": "popsicle", "prefix": "", "user": {"location": {"city": "Atlanta", "state": "GA", "country": "United States"}}, "player": {"id": 4435133, "gamerTag": "popsicle", "prefix": "", "user": {"location": {"city": "Atlanta", "state": "GA", "country": "United States"}}}}]}, "standing": {"placement": 2, "stats": {"score": {"value": 1}}}}], "games": null}]}}}