{"event": {"sets": {"pageInfo": {"totalPages": 4, "total": 51}, "nodes": [{"id": 92321246, "state": 3, "round": -6, "fullRoundText": "Losers Round 4", "completedAt": 1754445722, "winnerId": 20891102, "slots": [{"id": "92321246-0", "entrant": {"id": 20891102, "name": "GUMP2 | Spider", "participants": [{"id": 19222426, "gamerTag": "Spider", "prefix": "GUMP2", "user": {"location": {"city": "Atlanta", "state": "GA", "country": "United States"}}, "player": {"id": 691176, "gamerTag": "Spider", "prefix": "GUMP2", "user": {"location": {"city": "Atlanta", "state": "GA", "country": "United States"}}}}]}, "standing": {"placement": 1, "stats": {"score": {"value": 2}}}}, {"id": "92321246-1", "entrant": {"id": 20889091, "name": "Jeni", "participants": [{"id": 19220637, "gamerTag": "Jeni", "prefix": "", "user": {"location": {"city": null, "state": null, "country": null}}, "player": {"id": 1499467, "gamerTag": "Jeni", "prefix": "", "user": {"location": {"city": null, "state": null, "country": null}}}}]}, "standing": {"placement": 2, "stats": {"score": {"value": 0}}}}], "games": null}, {"id": 92321247, "state": 3, "round": -6, "fullRoundText": "Losers Round 4", "completedAt": 1754445417, "winnerId": 20889154, "slots": [{"id": "92321247-0", "entrant": {"id": 20888219, "name": "GUMP2 | STiCK", "participants": [{"id": 19219944, "gamerTag": "STiCK", "prefix": "GUMP2", "user": {"location": {"city": "Woodstock", "state": "GA", "country": "United States"}}, "player": {"id": 282674, "gamerTag": "STiCK", "prefix": "GUMP2", "user": {"location": {"city": "Woodstock", "state": "GA", "country": "United States"}}}}]}, "standing": {"placement": 2, "stats": {"score": {"value": 1}}}}, {"id": "92321247-1", "entrant": {"id": 20889154, "name": "Impluvio", "participants": [{"id": 19220684, "gamerTag": "Impluvio", "prefix": "", "user": {"location": {"city": null, "state": null, "country": null}}, "player": {"id": 2175953, "gamerTag": "Impluvio", "prefix": "417", "user": {"location": {"city": null, "state": null, "country": null}}}}]}, "standing": {"placement": 1, "stats": {"score": {"value": 2}}}}], "games": null}, {"id": 92321248, "state": 3, "round": -6, "fullRoundText": "Losers Round 4", "completedAt": 1754445605, "winnerId": 20891751, "slots": [{"id": "92321248-0", "entrant": {"id": 20891751, "name": "RM | GUMP2 | Kr!stal:0", "participants": [{"id": 19222993, "gamerTag": "Kr!stal:0", "prefix": "RM | GUMP2", "user": {"location": {"city": "Lawrenceville", "state": "GA", "country": "United States"}}, "player": {"id": 2409815, "gamerTag": "AO ASHI SEASON 2 2026", "prefix": "RM | GUMP2", "user": {"location": {"city": "Lawrenceville", "state": "GA", "country": "United States"}}}}]}, "standing": {"placement": 1, "stats": {"score": {"value": 2}}}}, {"id": "92321248-1", "entrant": {"id": 20878432, "name": "Billy Jones", "participants": [{"id": 19211214, "gamerTag": "Billy Jones", "prefix": "", "user": {"location": {"city": "Atlanta", "state": "GA", "country": "United States"}}, "player": {"id": 1004383, "gamerTag": "Billy Jones", "prefix": "", "user": {"location": {"city": "Atlanta", "state": "GA", "country": "United States"}}}}]}, "standing": {"placement": 2, "stats": {"score": {"value": 0}}}}], "games": null}, {"id": 92321249, "state": 3, "round": -6, "fullRoundText": "Losers Round 4", "completedAt": 1754444917, "winnerId": 20891821, "slots": [{"id": "92321249-0", "entrant": {"id": 20891821, "name": "Barbashop", "participants": [{"id": 19223054, "gamerTag": "Barbashop", "prefix": "", "user": {"location": {"city": null, "state": null, "country": null}}, "player": {"id": 2537853, "gamerTag": "Barbashop", "prefix": "", "user": {"location": {"city": null, "state": null, "country": null}}}}]}, "standing": {"placement": 1, "stats": {"score": {"value": 2}}}}, {"id": "92321249-1", "entrant": {"id": 20888589, "name": "MilesisBae", "participants": [{"id": 19220237, "gamerTag": "MilesisBae", "prefix": "", "user": {"location": {"city": "Richmond", "state": "VA", "country": "United States"}}, "player": {"id": 1218383, "gamerTag": "MilesisBae", "prefix": "", "user": {"location": {"city": "Richmond", "state": "VA", "country": "United States"}}}}]}, "standing": {"placement": 2, "stats": {"score": {"value": 0}}}}], "games": null}, {"id": 92321242, "state": 3, "round": -5, "fullRoundText": "Losers Round 3", "completedAt": 1754445223, "winnerId": 20889091, "slots": [{"id": "92321242-0", "entrant": {"id": 20887151, "name": "UGA | Krishna", "participants": [{"id": 19218998, "gamerTag": "Krishna", "prefix": "UGA", "user": {"location": {"city": null, "state": null, "country": "United States"}}, "player": {"id": 2282949, "gamerTag": "Krishna", "prefix": "417", "user": {"location": {"city": null, "state": null, "country": "United States"}}}}]}, "standing": {"placement": 2, "stats": {"score": {"value": 1}}}}, {"id": "92321242-1", "entrant": {"id": 20889091, "name": "Jeni", "participants": [{"id": 19220637, "gamerTag": "Jeni", "prefix": "", "user": {"location": {"city": null, "state": null, "country": null}}, "player": {"id": 1499467, "gamerTag": "Jeni", "prefix": "", "user": {"location": {"city": null, "state": null, "country": null}}}}]}, "standing": {"placement": 1, "stats": {"score": {"value": 2}}}}], "games": null}, {"id": 92321243, "state": 3, "round": -5, "fullRoundText": "Losers Round 3", "completedAt": 1754443577, "winnerId": 20889154, "slots": [{"id": "92321243-0", "entrant": {"id": 20889154, "name": "Impluvio", "participants": [{"id": 19220684, "gamerTag": "Impluvio", "prefix": "", "user": {"location": {"city": null, "state": null, "country": null}}, "player": {"id": 2175953, "gamerTag": "Impluvio", "prefix": "417", "user": {"location": {"city": null, "state": null, "country": null}}}}]}, "standing": {"placement": 1, "stats": {"score": {"value": 2}}}}, {"id": "92321243-1", "entrant": {"id": 20890712, "name": "PitchingAce33", "participants": [{"id": 19222064, "gamerTag": "PitchingAce33", "prefix": "", "user": {"location": {"city": null, "state": "GA", "country": "United States"}}, "player": {"id": 1198327, "gamerTag": "PitchingAce33", "prefix": "", "user": {"location": {"city": null, "state": "GA", "country": "United States"}}}}]}, "standing": {"placement": 2, "stats": {"score": {"value": 0}}}}], "games": null}, {"id": 92321244, "state": 3, "round": -5, "fullRoundText": "Losers Round 3", "completedAt": 1754444291, "winnerId": 20878432, "slots": [{"id": "92321244-0", "entrant": {"id": 20882689, "name": "ThatUser183", "participants": [{"id": 19215255, "gamerTag": "ThatUser183", "prefix": null, "user": {"location": {"city": "Suwanee", "state": "GA", "country": "United States"}}, "player": {"id": 2807415, "gamerTag": "ThatUser183", "prefix": null, "user": {"location": {"city": "Suwanee", "state": "GA", "country": "United States"}}}}]}, "standing": {"placement": 2, "stats": {"score": {"value": 0}}}}, {"id": "92321244-1", "entrant": {"id": 20878432, "name": "Billy Jones", "participants": [{"id": 19211214, "gamerTag": "Billy Jones", "prefix": "", "user": {"location": {"city": "Atlanta", "state": "GA", "country": "United States"}}, "player": {"id": 1004383, "gamerTag": "Billy Jones", "prefix": "", "user": {"location": {"city": "Atlanta", "state": "GA", "country": "United States"}}}}]}, "standing": {"placement": 1, "stats": {"score": {"value": 2}}}}], "games": null}, {"id": 92321245, "state": 3, "round": -5, "fullRoundText": "Losers Round 3", "completedAt": 1754444115, "winnerId": 20888589, "slots": [{"id": "92321245-0", "entrant": {"id": 20888589, "name": "MilesisBae", "participants": [{"id": 19220237, "gamerTag": "MilesisBae", "prefix": "", "user": {"location": {"city": "Richmond", "state": "VA", "country": "United States"}}, "player": {"id": 1218383, "gamerTag": "MilesisBae", "prefix": "", "user": {"location": {"city": "Richmond", "state": "VA", "country": "United States"}}}}]}, "standing": {"placement": 1, "stats": {"score": {"value": 2}}}}, {"id": "92321245-1", "entrant": {"id": 20888274, "name": "Rain~", "participants": [{"id": 19219995, "gamerTag": "Rain~", "prefix": null, "user": {"location": {"city": "Atlanta", "state": "GA", "country": "United States"}}, "player": {"id": 4240164, "gamerTag": "Rain~", "prefix": null, "user": {"location": {"city": "Atlanta", "state": "GA", "country": "United States"}}}}]}, "standing": {"placement": 2, "stats": {"score": {"value": 0}}}}], "games": null}, {"id": 92321177, "state": 3, "round": 2, "fullRoundText": "Winners Round 2", "completedAt": 1754441838, "winnerId": 20888540, "slots": [{"id": "92321177-0", "entrant": {"id": 20888540, "name": "omega", "participants": [{"id": 19220197, "gamerTag": "omega", "prefix": "", "user": {"location": {"city": "Suwanee", "state": "GA", "country": "United States"}}, "player": {"id": 24638, "gamerTag": "omega", "prefix": "", "user": {"location": {"city": "Suwanee", "state": "GA", "country": "United States"}}}}]}, "standing": {"placement": 1, "stats": {"score": {"value": 2}}}}, {"id": "92321177-1", "entrant": {"id": 20888274, "name": "Rain~", "participants": [{"id": 19219995, "gamerTag": "Rain~", "prefix": null, "user": {"location": {"city": "Atlanta", "state": "GA", "country": "United States"}}, "player": {"id": 4240164, "gamerTag": "Rain~", "prefix": null, "user": {"location": {"city": "Atlanta", "state": "GA", "country": "United States"}}}}]}, "standing": {"placement": 2, "stats": {"score": {"value": 0}}}}], "games": null}, {"id": 92321178, "state": 3, "round": 2, "fullRoundText": "Winners Round 2", "completedAt": 1754441990, "winnerId": 20888219, "slots": [{"id": "92321178-0", "entrant": {"id": 20888219, "name": "GUMP2 | STiCK", "participants": [{"id": 19219944, "gamerTag": "STiCK", "prefix": "GUMP2", "user": {"location": {"city": "Woodstock", "state": "GA", "country": "United States"}}, "player": {"id": 282674, "gamerTag": "STiCK", "prefix": "GUMP2", "user": {"location": {"city": "Woodstock", "state": "GA", "country": "United States"}}}}]}, "standing": {"placement": 1, "stats": {"score": {"value": 2}}}}, {"id": "92321178-1", "entrant": {"id": 20888589, "name": "MilesisBae", "participants": [{"id": 19220237, "gamerTag": "MilesisBae", "prefix": "", "user": {"location": {"city": "Richmond", "state": "VA", "country": "United States"}}, "player": {"id": 1218383, "gamerTag": "MilesisBae", "prefix": "", "user": {"location": {"city": "Richmond", "state": "VA", "country": "United States"}}}}]}, "standing": {"placement": 2, "stats": {"score": {"value": 1}}}}], "games": null}, {"id": 92321179, "state": 3, "round": 2, "fullRoundText": "Winners Round 2", "completedAt": 1754442756, "winnerId": 20891935, "slots": [{"id": "92321179-0", "entrant": {"id": 20891935, "name": "MBS | Vivid", "participants": [{"id": 19223162, "gamerTag": "Vivid", "prefix": "MBS", "user": {"location": {"city": "Atl", "state": "GA", "country": "United States"}}, "player": {"id": 499333, "gamerTag": "Vivid", "prefix": "MBS", "user": {"location": {"city": "Atl", "state": "GA", "country": "United States"}}}}]}, "standing": {"placement": 1, "stats": {"score": {"value": 2}}}}, {"id": "92321179-1", "entrant": {"id": 20878432, "name": "Billy Jones", "participants": [{"id": 19211214, "gamerTag": "Billy Jones", "prefix": "", "user": {"location": {"city": "Atlanta", "state": "GA", "country": "United States"}}, "player": {"id": 1004383, "gamerTag": "Billy Jones", "prefix": "", "user": {"location": {"city": "Atlanta", "state": "GA", "country": "United States"}}}}]}, "standing": {"placement": 2, "stats": {"score": {"value": 0}}}}], "games": null}, {"id": 92321180, "state": 3, "round": 2, "fullRoundText": "Winners Round 2", "completedAt": 1754441926, "winnerId": 20891102, "slots": [{"id": "92321180-0", "entrant": {"id": 20891102, "name": "GUMP2 | Spider", "participants": [{"id": 19222426, "gamerTag": "Spider", "prefix": "GUMP2", "user": {"location": {"city": "Atlanta", "state": "GA", "country": "United States"}}, "player": {"id": 691176, "gamerTag": "Spider", "prefix": "GUMP2", "user": {"location": {"city": "Atlanta", "state": "GA", "country": "United States"}}}}]}, "standing": {"placement": 1, "stats": {"score": {"value": 2}}}}, {"id": "92321180-1", "entrant": {"id": 20882689, "name": "ThatUser183", "participants": [{"id": 19215255, "gamerTag": "ThatUser183", "prefix": null, "user": {"location": {"city": "Suwanee", "state": "GA", "country": "United States"}}, "player": {"id": 2807415, "gamerTag": "ThatUser183", "prefix": null, "user": {"location": {"city": "Suwanee", "state": "GA", "country": "United States"}}}}]}, "standing": {"placement": 2, "stats": {"score": {"value": 0}}}}], "games": null}, {"id": 92321181, "state": 3, "round": 2, "fullRoundText": "Winners Round 2", "completedAt": 1754441551, "winnerId": 20889386, "slots": [{"id": "92321181-0", "entrant": {"id": 20889386, "name": "DGS | spickles", "participants": [{"id": 19220871, "gamerTag": "spickles", "prefix": "DGS", "user": {"location": {"city": null, "state": null, "country": "United States"}}, "player": {"id": 1154793, "gamerTag": "spickles", "prefix": "DGS", "user": {"location": {"city": null, "state": null, "country": "United States"}}}}]}, "standing": {"placement": 1, "stats": {"score": {"value": 2}}}}, {"id": "92321181-1", "entrant": {"id": 20890712, "name": "PitchingAce33", "participants": [{"id": 19222064, "gamerTag": "PitchingAce33", "prefix": "", "user": {"location": {"city": null, "state": "GA", "country": "United States"}}, "player": {"id": 1198327, "gamerTag": "PitchingAce33", "prefix": "", "user": {"location": {"city": null, "state": "GA", "country": "United States"}}}}]}, "standing": {"placement": 2, "stats": {"score": {"value": 0}}}}], "games": null}, {"id": 92321182, "state": 3, "round": 2, "fullRoundText": "Winners Round 2", "completedAt": 1754441625, "winnerId": 20891821, "slots": [{"id": "92321182-0", "entrant": {"id": 20891821, "name": "Barbashop", "participants": [{"id": 19223054, "gamerTag": "Barbashop", "prefix": "", "user": {"location": {"city": null, "state": null, "country": null}}, "player": {"id": 2537853, "gamerTag": "Barbashop", "prefix": "", "user": {"location": {"city": null, "state": null, "country": null}}}}]}, "standing": {"placement": 1, "stats": {"score": {"value": 2}}}}, {"id": "92321182-1", "entrant": {"id": 20889154, "name": "Impluvio", "participants": [{"id": 19220684, "gamerTag": "Impluvio", "prefix": "", "user": {"location": {"city": null, "state": null, "country": null}}, "player": {"id": 2175953, "gamerTag": "Impluvio", "prefix": "417", "user": {"location": {"city": null, "state": null, "country": null}}}}]}, "standing": {"placement": 2, "stats": {"score": {"value": 0}}}}], "games": null}, {"id": 92321183, "state": 3, "round": 2, "fullRoundText": "Winners Round 2", "completedAt": 1754456011, "winnerId": 20876323, "slots": [{"id": "92321183-0", "entrant": {"id": 20876323, "name": "Ave~", "participants": [{"id": 19209281, "gamerTag": "Ave~", "prefix": "", "user": {"location": {"city": null, "state": null, "country": null}}, "player": {"id": 38830, "gamerTag": "Ave~", "prefix": "", "user": {"location": {"city": null, "state": null, "country": null}}}}]}, "standing": {"placement": 1, "stats": {"score": {"value": 2}}}}, {"id": "92321183-1", "entrant": {"id": 20889091, "name": "Jeni", "participants": [{"id": 19220637, "gamerTag": "Jeni", "prefix": "", "user": {"location": {"city": null, "state": null, "country": null}}, "player": {"id": 1499467, "gamerTag": "Jeni", "prefix": "", "user": {"location": {"city": null, "state": null, "country": null}}}}]}, "standing": {"placement": 2, "stats": {"score": {"value": 0}}}}], "games": [{"id": 31736165, "orderNum": 1, "winnerId": 20876323, "entrant1Score": null, "entrant2Score": 0, "stage": null, "selections": [{"id": 46742644, "selectionType": "CHARACTER", "selectionValue": 1311, "entrant": {"id": 20876323}, "character": {"id": 1311, "name": "Mii Brawler"}}, {"id": 46742645, "selectionType": "CHARACTER", "selectionValue": 1846, "entrant": {"id": 20889091}, "character": {"id": 1846, "name": "Kazuya"}}]}, {"id": 31736166, "orderNum": 2, "winnerId": 20876323, "entrant1Score": null, "entrant2Score": 0, "stage": null, "selections": [{"id": 46742646, "selectionType": "CHARACTER", "selectionValue": 1311, "entrant": {"id": 20876323}, "character": {"id": 1311, "name": "Mii Brawler"}}, {"id": 46742647, "selectionType": "CHARACTER", "selectionValue": 1846, "entrant": {"id": 20889091}, "character": {"id": 1846, "name": "Kazuya"}}]}]}]}}}