{"phase": {"seeds": {"pageInfo": {"totalPages": 1, "total": 11}, "nodes": [{"id": 36634250, "seedNum": 2, "entrant": {"id": 21279999, "name": "GUMP2 | JankTrees!", "participants": [{"id": 19565198, "gamerTag": "JankTrees!", "prefix": "GUMP2", "user": {"location": {"city": "Cartersville", "state": "GA", "country": "United States"}}, "player": {"id": 35695, "gamerTag": "JankTrees!", "prefix": "GUMP2", "user": {"location": {"city": "Cartersville", "state": "GA", "country": "United States"}}}}]}}, {"id": 36620464, "seedNum": 3, "entrant": {"id": 21270152, "name": "Alting", "participants": [{"id": 19557951, "gamerTag": "Alting", "prefix": "", "user": {"location": {"city": null, "state": "GA", "country": "United States"}}, "player": {"id": 400199, "gamerTag": "Alting", "prefix": "", "user": {"location": {"city": null, "state": "GA", "country": "United States"}}}}]}}, {"id": 36544039, "seedNum": 1, "entrant": {"id": 21215081, "name": "EZ.JV", "participants": [{"id": 19510492, "gamerTag": "EZ.JV", "prefix": "", "user": {"location": {"city": "Los Altos", "state": "CA", "country": "United States"}}, "player": {"id": 674852, "gamerTag": "EZ.JV", "prefix": "", "user": {"location": {"city": "Los Altos", "state": "CA", "country": "United States"}}}}]}}, {"id": 36544138, "seedNum": 5, "entrant": {"id": 21215185, "name": "Arc", "participants": [{"id": 19510580, "gamerTag": "Arc", "prefix": null, "user": {"location": {"city": "East Palo Alto", "state": "GA", "country": "United States"}}, "player": {"id": 2285547, "gamerTag": "Arc", "prefix": null, "user": {"location": {"city": "East Palo Alto", "state": "GA", "country": "United States"}}}}]}}, {"id": 36633681, "seedNum": 4, "entrant": {"id": 21279628, "name": "UTO|WhaLey | Kingwifi", "participants": [{"id": 19564879, "gamerTag": "Kingwifi", "prefix": "UTO|WhaLey", "user": {"location": {"city": "Stone Mountain", "state": "GA", "country": "United States"}}, "player": {"id": 2016149, "gamerTag": "Whaley", "prefix": "KSU|UTO|BLZE", "user": {"location": {"city": "Stone Mountain", "state": "GA", "country": "United States"}}}}]}}, {"id": 36635073, "seedNum": 7, "entrant": {"id": 21280663, "name": "Tuna", "participants": [{"id": 19565798, "gamerTag": "Tuna", "prefix": "", "user": {"location": {"city": null, "state": null, "country": "Japan"}}, "player": {"id": 2701623, "gamerTag": "Tuna", "prefix": "", "user": {"location": {"city": null, "state": null, "country": "Japan"}}}}]}}, {"id": 36544120, "seedNum": 6, "entrant": {"id": 21215166, "name": "Pacil", "participants": [{"id": 19510565, "gamerTag": "Pacil", "prefix": null, "user": {"location": {"city": "Leesburg", "state": "VA", "country": "United States"}}, "player": {"id": 2249009, "gamerTag": "Pacil", "prefix": null, "user": {"location": {"city": "Leesburg", "state": "VA", "country": "United States"}}}}]}}, {"id": 36547095, "seedNum": 8, "entrant": {"id": 21217677, "name": "Kitsch", "participants": [{"id": 19512690, "gamerTag": "Kitsch", "prefix": null, "user": {"location": {"city": "Atlanta", "state": "GA", "country": "United States"}}, "player": {"id": 4575825, "gamerTag": "Kitsch", "prefix": null, "user": {"location": {"city": "Atlanta", "state": "GA", "country": "United States"}}}}]}}, {"id": 36547574, "seedNum": 9, "entrant": {"id": 21218150, "name": "Ford", "participants": [{"id": 19513113, "gamerTag": "Ford", "prefix": null, "user": {"location": {"city": "", "state": "GA", "country": "United States"}}, "player": {"id": 3471629, "gamerTag": "Ford", "prefix": null, "user": {"location": {"city": "", "state": "GA", "country": "United States"}}}}]}}, {"id": 36547590, "seedNum": 10, "entrant": {"id": 21218167, "name": "Jojodoss", "participants": [{"id": 19513128, "gamerTag": "Jojodoss", "prefix": null, "user": {"location": {"city": null, "state": null, "country": "United States"}}, "player": {"id": 3553592, "gamerTag": "Jojodoss", "prefix": null, "user": {"location": {"city": null, "state": null, "country": "United States"}}}}]}}, {"id": 36623657, "seedNum": 11, "entrant": {"id": 21272233, "name": "Surume", "participants": [{"id": 19559706, "gamerTag": "Surume", "prefix": null, "user": {"location": {"city": null, "state": "GA", "country": "United States"}}, "player": {"id": 4938866, "gamerTag": "Surume", "prefix": null, "user": {"location": {"city": null, "state": "GA", "country": "United States"}}}}]}}]}}}