{"phase": {"seeds": {"pageInfo": {"totalPages": 1, "total": 14}, "nodes": [{"id": 36142073, "seedNum": 1, "entrant": {"id": 20958058, "name": "Pokchop", "participants": [{"id": 19281303, "gamerTag": "Pokchop", "prefix": "", "user": {"location": {"city": "Atlanta", "state": "GA", "country": "United States"}}, "player": {"id": 150402, "gamerTag": "Pokchop", "prefix": "", "user": {"location": {"city": "Atlanta", "state": "GA", "country": "United States"}}}}]}}, {"id": 36257809, "seedNum": 5, "entrant": {"id": 21025182, "name": "LogieBear", "participants": [{"id": 19340941, "gamerTag": "LogieBear", "prefix": "", "user": {"location": {"city": "Snellville", "state": "GA", "country": "United States"}}, "player": {"id": 3809706, "gamerTag": "LogieBear", "prefix": "", "user": {"location": {"city": "Snellville", "state": "GA", "country": "United States"}}}}]}}, {"id": 36214292, "seedNum": 2, "entrant": {"id": 20998289, "name": "Buddy3k", "participants": [{"id": 19316125, "gamerTag": "Buddy3k", "prefix": "", "user": {"location": {"city": "Atlanta", "state": "GA", "country": "United States"}}, "player": {"id": 4443794, "gamerTag": "Buddy3k", "prefix": "", "user": {"location": {"city": "Atlanta", "state": "GA", "country": "United States"}}}}]}}, {"id": 35888848, "seedNum": 3, "entrant": {"id": 20799121, "name": "Nurikami", "participants": [{"id": 19141964, "gamerTag": "Nurikami", "prefix": null, "user": {"location": {"city": "Sandy Springs", "state": "GA", "country": "United States"}}, "player": {"id": 2894467, "gamerTag": "Nurikami", "prefix": null, "user": {"location": {"city": "Sandy Springs", "state": "GA", "country": "United States"}}}}]}}, {"id": 36260015, "seedNum": 7, "entrant": {"id": 21026193, "name": "Globberman", "participants": [{"id": 19341764, "gamerTag": "Globberman", "prefix": null, "user": {"location": {"city": "Snellville", "state": "GA", "country": "United States"}}, "player": {"id": 3722235, "gamerTag": "Globberman", "prefix": null, "user": {"location": {"city": "Snellville", "state": "GA", "country": "United States"}}}}]}}, {"id": 36260439, "seedNum": 9, "entrant": {"id": 21026553, "name": "Chris", "participants": [{"id": 19342071, "gamerTag": "Chris", "prefix": "", "user": null, "player": {"id": 4932619, "gamerTag": "Chris", "prefix": "", "user": null}}]}}, {"id": 36260459, "seedNum": 6, "entrant": {"id": 21026572, "name": "Tim", "participants": [{"id": 19342090, "gamerTag": "Tim", "prefix": "", "user": null, "player": {"id": 4932624, "gamerTag": "Tim", "prefix": "", "user": null}}]}}, {"id": 36260238, "seedNum": 10, "entrant": {"id": 21026412, "name": "TFT | BigCheese", "participants": [{"id": 19341943, "gamerTag": "BigCheese", "prefix": "TFT", "user": {"location": {"city": null, "state": null, "country": null}}, "player": {"id": 3991446, "gamerTag": "BigCheese", "prefix": "TFT", "user": {"location": {"city": null, "state": null, "country": null}}}}]}}, {"id": 36260039, "seedNum": 8, "entrant": {"id": 21026215, "name": "Pharrow", "participants": [{"id": 19341786, "gamerTag": "Pharrow", "prefix": "", "user": null, "player": {"id": 1108379, "gamerTag": "Pharrow", "prefix": "", "user": null}}]}}, {"id": 36260425, "seedNum": 11, "entrant": {"id": 21026537, "name": "TnT | Sid", "participants": [{"id": 19342057, "gamerTag": "Sid", "prefix": "TnT", "user": {"location": {"city": "Powder Springs", "state": "GA", "country": "United States"}}, "player": {"id": 1229067, "gamerTag": "Sid", "prefix": "TnT", "user": {"location": {"city": "Powder Springs", "state": "GA", "country": "United States"}}}}]}}, {"id": 36260434, "seedNum": 12, "entrant": {"id": 21026547, "name": "TNT | Sunset", "participants": [{"id": 19342069, "gamerTag": "Sunset", "prefix": "TNT", "user": {"location": {"city": "Forest Park", "state": "GA", "country": "United States"}}, "player": {"id": 544889, "gamerTag": "Sunset", "prefix": "TNT", "user": {"location": {"city": "Forest Park", "state": "GA", "country": "United States"}}}}]}}, {"id": 36260182, "seedNum": 13, "entrant": {"id": 21026364, "name": "Divinity", "participants": [{"id": 19341906, "gamerTag": "Divinity", "prefix": "", "user": null, "player": {"id": 4932597, "gamerTag": "Divinity", "prefix": "", "user": null}}]}}, {"id": 35990755, "seedNum": 4, "entrant": {"id": 20861540, "name": "Monad | Raguza", "participants": [{"id": 19196650, "gamerTag": "Raguza", "prefix": "Monad", "user": {"location": {"city": "Greer", "state": null, "country": "United States"}}, "player": {"id": 4838689, "gamerTag": "Raguza", "prefix": "Monad", "user": {"location": {"city": "Greer", "state": null, "country": "United States"}}}}]}}, {"id": 36260258, "seedNum": 14, "entrant": {"id": 21026432, "name": "buffer 1", "participants": [{"id": 19341964, "gamerTag": "buffer 1", "prefix": "", "user": null, "player": {"id": 4685408, "gamerTag": "buffer 1", "prefix": "", "user": null}}]}}]}}}