{"phase": {"seeds": {"pageInfo": {"totalPages": 1, "total": 6}, "nodes": [{"id": 36561339, "seedNum": 2, "entrant": {"id": 21227738, "name": "KumaDusk", "participants": [{"id": 19521567, "gamerTag": "KumaDusk", "prefix": "", "user": {"location": {"city": "Lawrenceville", "state": "GA", "country": "United States"}}, "player": {"id": 253909, "gamerTag": "KumaDusk", "prefix": "", "user": {"location": {"city": "Lawrenceville", "state": "GA", "country": "United States"}}}}]}}, {"id": 36559512, "seedNum": 3, "entrant": {"id": 21226472, "name": "Imprez", "participants": [{"id": 19520390, "gamerTag": "Imprez", "prefix": "", "user": {"location": {"city": "Duluth", "state": "GA", "country": "United States"}}, "player": {"id": 281830, "gamerTag": "Imprez", "prefix": "", "user": {"location": {"city": "Duluth", "state": "GA", "country": "United States"}}}}]}}, {"id": 36539690, "seedNum": 4, "entrant": {"id": 21212006, "name": "promamamia", "participants": [{"id": 19507811, "gamerTag": "promamamia", "prefix": "", "user": {"location": {"city": "Alpharetta", "state": "GA", "country": "United States"}}, "player": {"id": 3548468, "gamerTag": "promamamia", "prefix": "", "user": {"location": {"city": "Alpharetta", "state": "GA", "country": "United States"}}}}]}}, {"id": 36516323, "seedNum": 1, "entrant": {"id": 21198533, "name": "Tobe", "participants": [{"id": 19495592, "gamerTag": "Tobe", "prefix": "", "user": {"location": {"city": "Buford", "state": "GA", "country": "United States"}}, "player": {"id": 1646132, "gamerTag": "Tobe", "prefix": "", "user": {"location": {"city": "Buford", "state": "GA", "country": "United States"}}}}]}}, {"id": 36559682, "seedNum": 5, "entrant": {"id": 21226645, "name": "Hq", "participants": [{"id": 19520554, "gamerTag": "Hq", "prefix": "", "user": {"location": {"city": "Suwanee", "state": "GA", "country": "United States"}}, "player": {"id": 4680916, "gamerTag": "Hq", "prefix": "", "user": {"location": {"city": "Suwanee", "state": "GA", "country": "United States"}}}}]}}, {"id": 36559653, "seedNum": 6, "entrant": {"id": 21226616, "name": "Moopisegg", "participants": [{"id": 19520527, "gamerTag": "Moopisegg", "prefix": "", "user": {"location": {"city": null, "state": null, "country": "United States"}}, "player": {"id": 4680890, "gamerTag": "Moopisegg", "prefix": "", "user": {"location": {"city": null, "state": null, "country": "United States"}}}}]}}]}}}