{"event": {"sets": {"pageInfo": {"totalPages": 1, "total": 10}, "nodes": [{"id": 91786443, "state": 3, "round": 5, "fullRoundText": "Round 5", "completedAt": 1753404693, "winnerId": 20767366, "slots": [{"id": "91786443-0", "entrant": {"id": 20790640, "name": "cardd", "participants": [{"id": 19134055, "gamerTag": "cardd", "prefix": "", "user": {"location": {"city": "ATL", "state": "GA", "country": "United States"}}, "player": {"id": 34781, "gamerTag": "cardd", "prefix": "", "user": {"location": {"city": "ATL", "state": "GA", "country": "United States"}}}}]}, "standing": {"placement": 2, "stats": {"score": {"value": 1}}}}, {"id": "91786443-1", "entrant": {"id": 20767366, "name": "sanrio enjoyer", "participants": [{"id": 19112588, "gamerTag": "sanrio enjoyer", "prefix": "", "user": {"location": {"city": "Atlanta", "state": "GA", "country": "United States"}}, "player": {"id": 3792585, "gamerTag": "sanrio enjoyer", "prefix": "", "user": {"location": {"city": "Atlanta", "state": "GA", "country": "United States"}}}}]}, "standing": {"placement": 1, "stats": {"score": {"value": 3}}}}], "games": null}, {"id": 91786444, "state": 3, "round": 5, "fullRoundText": "Round 5", "completedAt": 1753406228, "winnerId": 20767124, "slots": [{"id": "91786444-0", "entrant": {"id": 20767124, "name": "Tech Chase | braxton", "participants": [{"id": 19112376, "gamerTag": "braxton", "prefix": "Tech Chase", "user": {"location": {"city": "Atlanta", "state": "GA", "country": "United States"}}, "player": {"id": 1037821, "gamerTag": "braxton", "prefix": "The Hive", "user": {"location": {"city": "Atlanta", "state": "GA", "country": "United States"}}}}]}, "standing": {"placement": 1, "stats": {"score": {"value": 3}}}}, {"id": "91786444-1", "entrant": {"id": 20778196, "name": "NMBS | roshi", "participants": [{"id": 19122308, "gamerTag": "roshi", "prefix": "NMBS", "user": {"location": {"city": "Atlanta", "state": "GA", "country": "United States"}}, "player": {"id": 37667, "gamerTag": "roshi", "prefix": "NMBS", "user": {"location": {"city": "Atlanta", "state": "GA", "country": "United States"}}}}]}, "standing": {"placement": 2, "stats": {"score": {"value": 1}}}}], "games": null}, {"id": 91786441, "state": 3, "round": 4, "fullRoundText": "Round 4", "completedAt": 1753403269, "winnerId": 20788105, "slots": [{"id": "91786441-0", "entrant": {"id": 20790640, "name": "cardd", "participants": [{"id": 19134055, "gamerTag": "cardd", "prefix": "", "user": {"location": {"city": "ATL", "state": "GA", "country": "United States"}}, "player": {"id": 34781, "gamerTag": "cardd", "prefix": "", "user": {"location": {"city": "ATL", "state": "GA", "country": "United States"}}}}]}, "standing": {"placement": 2, "stats": {"score": {"value": 2}}}}, {"id": "91786441-1", "entrant": {"id": 20788105, "name": "noided", "participants": [{"id": 19131634, "gamerTag": "noided", "prefix": "", "user": {"location": {"city": "Atlanta", "state": "GA", "country": "United States"}}, "player": {"id": 2586521, "gamerTag": "noided", "prefix": "", "user": {"location": {"city": "Atlanta", "state": "GA", "country": "United States"}}}}]}, "standing": {"placement": 1, "stats": {"score": {"value": 3}}}}], "games": null}, {"id": 91786442, "state": 3, "round": 4, "fullRoundText": "Round 4", "completedAt": 1753402981, "winnerId": 20767366, "slots": [{"id": "91786442-0", "entrant": {"id": 20767124, "name": "Tech Chase | braxton", "participants": [{"id": 19112376, "gamerTag": "braxton", "prefix": "Tech Chase", "user": {"location": {"city": "Atlanta", "state": "GA", "country": "United States"}}, "player": {"id": 1037821, "gamerTag": "braxton", "prefix": "The Hive", "user": {"location": {"city": "Atlanta", "state": "GA", "country": "United States"}}}}]}, "standing": {"placement": 2, "stats": {"score": {"value": 1}}}}, {"id": "91786442-1", "entrant": {"id": 20767366, "name": "sanrio enjoyer", "participants": [{"id": 19112588, "gamerTag": "sanrio enjoyer", "prefix": "", "user": {"location": {"city": "Atlanta", "state": "GA", "country": "United States"}}, "player": {"id": 3792585, "gamerTag": "sanrio enjoyer", "prefix": "", "user": {"location": {"city": "Atlanta", "state": "GA", "country": "United States"}}}}]}, "standing": {"placement": 1, "stats": {"score": {"value": 3}}}}], "games": null}, {"id": 91786439, "state": 3, "round": 3, "fullRoundText": "Round 3", "completedAt": 1753403924, "winnerId": 20790640, "slots": [{"id": "91786439-0", "entrant": {"id": 20790640, "name": "cardd", "participants": [{"id": 19134055, "gamerTag": "cardd", "prefix": "", "user": {"location": {"city": "ATL", "state": "GA", "country": "United States"}}, "player": {"id": 34781, "gamerTag": "cardd", "prefix": "", "user": {"location": {"city": "ATL", "state": "GA", "country": "United States"}}}}]}, "standing": {"placement": 1, "stats": {"score": {"value": 3}}}}, {"id": "91786439-1", "entrant": {"id": 20767124, "name": "Tech Chase | braxton", "participants": [{"id": 19112376, "gamerTag": "braxton", "prefix": "Tech Chase", "user": {"location": {"city": "Atlanta", "state": "GA", "country": "United States"}}, "player": {"id": 1037821, "gamerTag": "braxton", "prefix": "The Hive", "user": {"location": {"city": "Atlanta", "state": "GA", "country": "United States"}}}}]}, "standing": {"placement": 2, "stats": {"score": {"value": 0}}}}], "games": null}, {"id": 91786440, "state": 3, "round": 3, "fullRoundText": "Round 3", "completedAt": 1753404420, "winnerId": 20788105, "slots": [{"id": "91786440-0", "entrant": {"id": 20778196, "name": "NMBS | roshi", "participants": [{"id": 19122308, "gamerTag": "roshi", "prefix": "NMBS", "user": {"location": {"city": "Atlanta", "state": "GA", "country": "United States"}}, "player": {"id": 37667, "gamerTag": "roshi", "prefix": "NMBS", "user": {"location": {"city": "Atlanta", "state": "GA", "country": "United States"}}}}]}, "standing": {"placement": 2, "stats": {"score": {"value": 2}}}}, {"id": "91786440-1", "entrant": {"id": 20788105, "name": "noided", "participants": [{"id": 19131634, "gamerTag": "noided", "prefix": "", "user": {"location": {"city": "Atlanta", "state": "GA", "country": "United States"}}, "player": {"id": 2586521, "gamerTag": "noided", "prefix": "", "user": {"location": {"city": "Atlanta", "state": "GA", "country": "United States"}}}}]}, "standing": {"placement": 1, "stats": {"score": {"value": 3}}}}], "games": null}, {"id": 91786437, "state": 3, "round": 2, "fullRoundText": "Round 2", "completedAt": 1753402190, "winnerId": 20790640, "slots": [{"id": "91786437-0", "entrant": {"id": 20790640, "name": "cardd", "participants": [{"id": 19134055, "gamerTag": "cardd", "prefix": "", "user": {"location": {"city": "ATL", "state": "GA", "country": "United States"}}, "player": {"id": 34781, "gamerTag": "cardd", "prefix": "", "user": {"location": {"city": "ATL", "state": "GA", "country": "United States"}}}}]}, "standing": {"placement": 1, "stats": {"score": {"value": 3}}}}, {"id": "91786437-1", "entrant": {"id": 20778196, "name": "NMBS | roshi", "participants": [{"id": 19122308, "gamerTag": "roshi", "prefix": "NMBS", "user": {"location": {"city": "Atlanta", "state": "GA", "country": "United States"}}, "player": {"id": 37667, "gamerTag": "roshi", "prefix": "NMBS", "user": {"location": {"city": "Atlanta", "state": "GA", "country": "United States"}}}}]}, "standing": {"placement": 2, "stats": {"score": {"value": 0}}}}], "games": null}, {"id": 91786438, "state": 3, "round": 2, "fullRoundText": "Round 2", "completedAt": 1753402105, "winnerId": 20767366, "slots": [{"id": "91786438-0", "entrant": {"id": 20767366, "name": "sanrio enjoyer", "participants": [{"id": 19112588, "gamerTag": "sanrio enjoyer", "prefix": "", "user": {"location": {"city": "Atlanta", "state": "GA", "country": "United States"}}, "player": {"id": 3792585, "gamerTag": "sanrio enjoyer", "prefix": "", "user": {"location": {"city": "Atlanta", "state": "GA", "country": "United States"}}}}]}, "standing": {"placement": 1, "stats": {"score": {"value": 3}}}}, {"id": "91786438-1", "entrant": {"id": 20788105, "name": "noided", "participants": [{"id": 19131634, "gamerTag": "noided", "prefix": "", "user": {"location": {"city": "Atlanta", "state": "GA", "country": "United States"}}, "player": {"id": 2586521, "gamerTag": "noided", "prefix": "", "user": {"location": {"city": "Atlanta", "state": "GA", "country": "United States"}}}}]}, "standing": {"placement": 2, "stats": {"score": {"value": 0}}}}], "games": null}, {"id": 91786435, "state": 3, "round": 1, "fullRoundText": "Round 1", "completedAt": 1753403529, "winnerId": 20767366, "slots": [{"id": "91786435-0", "entrant": {"id": 20767366, "name": "sanrio enjoyer", "participants": [{"id": 19112588, "gamerTag": "sanrio enjoyer", "prefix": "", "user": {"location": {"city": "Atlanta", "state": "GA", "country": "United States"}}, "player": {"id": 3792585, "gamerTag": "sanrio enjoyer", "prefix": "", "user": {"location": {"city": "Atlanta", "state": "GA", "country": "United States"}}}}]}, "standing": {"placement": 1, "stats": {"score": {"value": 3}}}}, {"id": "91786435-1", "entrant": {"id": 20778196, "name": "NMBS | roshi", "participants": [{"id": 19122308, "gamerTag": "roshi", "prefix": "NMBS", "user": {"location": {"city": "Atlanta", "state": "GA", "country": "United States"}}, "player": {"id": 37667, "gamerTag": "roshi", "prefix": "NMBS", "user": {"location": {"city": "Atlanta", "state": "GA", "country": "United States"}}}}]}, "standing": {"placement": 2, "stats": {"score": {"value": 0}}}}], "games": null}, {"id": 91786436, "state": 3, "round": 1, "fullRoundText": "Round 1", "completedAt": 1753405486, "winnerId": 20767124, "slots": [{"id": "91786436-0", "entrant": {"id": 20788105, "name": "noided", "participants": [{"id": 19131634, "gamerTag": "noided", "prefix": "", "user": {"location": {"city": "Atlanta", "state": "GA", "country": "United States"}}, "player": {"id": 2586521, "gamerTag": "noided", "prefix": "", "user": {"location": {"city": "Atlanta", "state": "GA", "country": "United States"}}}}]}, "standing": {"placement": 2, "stats": {"score": {"value": 2}}}}, {"id": "91786436-1", "entrant": {"id": 20767124, "name": "Tech Chase | braxton", "participants": [{"id": 19112376, "gamerTag": "braxton", "prefix": "Tech Chase", "user": {"location": {"city": "Atlanta", "state": "GA", "country": "United States"}}, "player": {"id": 1037821, "gamerTag": "braxton", "prefix": "The Hive", "user": {"location": {"city": "Atlanta", "state": "GA", "country": "United States"}}}}]}, "standing": {"placement": 1, "stats": {"score": {"value": 3}}}}], "games": null}]}}}