{"event": {"sets": {"pageInfo": {"totalPages": 5, "total": 68}, "nodes": [{"id": 93361689, "state": 3, "round": 2, "fullRoundText": "Winners Round 2", "completedAt": 1756683902, "winnerId": 21126753, "slots": [{"id": "93361689-0", "entrant": {"id": 21126753, "name": "Eternia Corp. | HBKdoza", "participants": [{"id": 19432456, "gamerTag": "HBKdoza", "prefix": "Eternia Corp.", "user": {"location": {"city": "Decatur", "state": "GA", "country": "United States"}}, "player": {"id": 3426567, "gamerTag": "HBKdoza", "prefix": "Eternia Corp.", "user": {"location": {"city": "Decatur", "state": "GA", "country": "United States"}}}}]}, "standing": {"placement": 1, "stats": {"score": {"value": 2}}}}, {"id": "93361689-1", "entrant": {"id": 21118870, "name": "Shadowmerc360", "participants": [{"id": 19425456, "gamerTag": "Shadowmerc360", "prefix": null, "user": {"location": {"city": "Detroit", "state": "MI", "country": "United States"}}, "player": {"id": 4093609, "gamerTag": "Shadowmerc360", "prefix": null, "user": {"location": {"city": "Detroit", "state": "MI", "country": "United States"}}}}]}, "standing": {"placement": 2, "stats": {"score": {"value": 1}}}}], "games": null}, {"id": 93361690, "state": 3, "round": 2, "fullRoundText": "Winners Round 2", "completedAt": 1756683149, "winnerId": 21108900, "slots": [{"id": "93361690-0", "entrant": {"id": 21104105, "name": "Momokins", "participants": [{"id": 19412269, "gamerTag": "Momokins", "prefix": "", "user": {"location": {"city": "Atlanta", "state": "GA", "country": "United States"}}, "player": {"id": 612216, "gamerTag": "Momokins", "prefix": "", "user": {"location": {"city": "Atlanta", "state": "GA", "country": "United States"}}}}]}, "standing": {"placement": 2, "stats": {"score": {"value": -1}}}}, {"id": "93361690-1", "entrant": {"id": 21108900, "name": "Scottythepreparedartist", "participants": [{"id": 19416558, "gamerTag": "Scottythepreparedartist", "prefix": "", "user": {"location": {"city": "Newnan", "state": "GA", "country": "United States"}}, "player": {"id": 4757730, "gamerTag": "Thepreparedartist", "prefix": "", "user": {"location": {"city": "Newnan", "state": "GA", "country": "United States"}}}}]}, "standing": {"placement": 1, "stats": {"score": {"value": null}}}}], "games": null}, {"id": 93361788, "state": 3, "round": -4, "fullRoundText": "Losers Round 1", "completedAt": 1756683726, "winnerId": 21130951, "slots": [{"id": "93361788-0", "entrant": {"id": 21104105, "name": "Momokins", "participants": [{"id": 19412269, "gamerTag": "Momokins", "prefix": "", "user": {"location": {"city": "Atlanta", "state": "GA", "country": "United States"}}, "player": {"id": 612216, "gamerTag": "Momokins", "prefix": "", "user": {"location": {"city": "Atlanta", "state": "GA", "country": "United States"}}}}]}, "standing": {"placement": 2, "stats": {"score": {"value": -1}}}}, {"id": "93361788-1", "entrant": {"id": 21130951, "name": "Shaggy", "participants": [{"id": 19436549, "gamerTag": "Shaggy", "prefix": "", "user": {"location": {"city": "Atlanta", "state": "GA", "country": "United States"}}, "player": {"id": 4951149, "gamerTag": "Shaggy", "prefix": "", "user": {"location": {"city": "Atlanta", "state": "GA", "country": "United States"}}}}]}, "standing": {"placement": 1, "stats": {"score": {"value": null}}}}], "games": null}, {"id": 93361796, "state": 3, "round": -4, "fullRoundText": "Losers Round 1", "completedAt": 1756684709, "winnerId": 21101541, "slots": [{"id": "93361796-0", "entrant": {"id": 21101541, "name": "N_W_Alucard", "participants": [{"id": 19409884, "gamerTag": "N_W_Alucard", "prefix": "", "user": {"location": {"city": "Jackson", "state": "MS", "country": "United States"}}, "player": {"id": 1297677, "gamerTag": "N_W_Alucard", "prefix": "", "user": {"location": {"city": "Jackson", "state": "MS", "country": "United States"}}}}]}, "standing": {"placement": 1, "stats": {"score": {"value": 2}}}}, {"id": "93361796-1", "entrant": {"id": 21132800, "name": "KEY | Klouder", "participants": [{"id": 19438114, "gamerTag": "Klouder", "prefix": "KEY", "user": {"location": {"city": null, "state": null, "country": "South Korea"}}, "player": {"id": 4951811, "gamerTag": "Klouder", "prefix": "KEY", "user": {"location": {"city": null, "state": null, "country": "South Korea"}}}}]}, "standing": {"placement": 2, "stats": {"score": {"value": 0}}}}], "games": null}, {"id": 93361800, "state": 3, "round": -4, "fullRoundText": "Losers Round 1", "completedAt": 1756684153, "winnerId": 21114148, "slots": [{"id": "93361800-0", "entrant": {"id": 21114148, "name": "TIF | | xS1MBA_3", "participants": [{"id": 19421342, "gamerTag": "xS1MBA_3", "prefix": "TIF |", "user": {"location": {"city": "Birmingham", "state": "AL", "country": "United States"}}, "player": {"id": 4500766, "gamerTag": "xS1MBA_3", "prefix": "TIF |", "user": {"location": {"city": "Birmingham", "state": "AL", "country": "United States"}}}}]}, "standing": {"placement": 1, "stats": {"score": {"value": 2}}}}, {"id": "93361800-1", "entrant": {"id": 21133681, "name": "Gambit", "participants": [{"id": 19438851, "gamerTag": "Gambit", "prefix": "", "user": null, "player": {"id": 4952158, "gamerTag": "Gambit", "prefix": "", "user": null}}]}, "standing": {"placement": 2, "stats": {"score": {"value": 0}}}}], "games": null}, {"id": 93361644, "state": 3, "round": 1, "fullRoundText": "Winners Round 1", "completedAt": 1756682704, "winnerId": 21131840, "slots": [{"id": "93361644-0", "entrant": {"id": 21130951, "name": "Shaggy", "participants": [{"id": 19436549, "gamerTag": "Shaggy", "prefix": "", "user": {"location": {"city": "Atlanta", "state": "GA", "country": "United States"}}, "player": {"id": 4951149, "gamerTag": "Shaggy", "prefix": "", "user": {"location": {"city": "Atlanta", "state": "GA", "country": "United States"}}}}]}, "standing": {"placement": 2, "stats": {"score": {"value": 0}}}}, {"id": "93361644-1", "entrant": {"id": 21131840, "name": "UTINNI | MontanaY2J", "participants": [{"id": 19437311, "gamerTag": "MontanaY2J", "prefix": "UTINNI", "user": {"location": {"city": "Atlanta", "state": "GA", "country": "United States"}}, "player": {"id": 4091753, "gamerTag": "MontanaY2J", "prefix": "UTINNI", "user": {"location": {"city": "Atlanta", "state": "GA", "country": "United States"}}}}]}, "standing": {"placement": 1, "stats": {"score": {"value": 2}}}}], "games": null}, {"id": 93361660, "state": 3, "round": 1, "fullRoundText": "Winners Round 1", "completedAt": 1756683093, "winnerId": 21130689, "slots": [{"id": "93361660-0", "entrant": {"id": 21130689, "name": "Bleachedbagel", "participants": [{"id": 19436156, "gamerTag": "Bleachedbagel", "prefix": null, "user": {"location": {"city": "McDonough", "state": "GA", "country": "United States"}}, "player": {"id": 4951110, "gamerTag": "Bleachedbagel", "prefix": "", "user": {"location": {"city": "McDonough", "state": "GA", "country": "United States"}}}}]}, "standing": {"placement": 1, "stats": {"score": {"value": 2}}}}, {"id": "93361660-1", "entrant": {"id": 21132800, "name": "KEY | Klouder", "participants": [{"id": 19438114, "gamerTag": "Klouder", "prefix": "KEY", "user": {"location": {"city": null, "state": null, "country": "South Korea"}}, "player": {"id": 4951811, "gamerTag": "Klouder", "prefix": "KEY", "user": {"location": {"city": null, "state": null, "country": "South Korea"}}}}]}, "standing": {"placement": 2, "stats": {"score": {"value": 0}}}}], "games": null}, {"id": 93361668, "state": 3, "round": 1, "fullRoundText": "Winners Round 1", "completedAt": 1756683203, "winnerId": 21130366, "slots": [{"id": "93361668-0", "entrant": {"id": 21130366, "name": "Xylias", "participants": [{"id": 19435967, "gamerTag": "Xylias", "prefix": "", "user": {"location": {"city": "Conyers", "state": "GA", "country": "United States"}}, "player": {"id": 4780181, "gamerTag": "Xyylias", "prefix": "", "user": {"location": {"city": "Conyers", "state": "GA", "country": "United States"}}}}]}, "standing": {"placement": 1, "stats": {"score": {"value": 2}}}}, {"id": "93361668-1", "entrant": {"id": 21133681, "name": "Gambit", "participants": [{"id": 19438851, "gamerTag": "Gambit", "prefix": "", "user": null, "player": {"id": 4952158, "gamerTag": "Gambit", "prefix": "", "user": null}}]}, "standing": {"placement": 2, "stats": {"score": {"value": 0}}}}], "games": null}]}}}