{"event": {"sets": {"pageInfo": {"totalPages": 22, "total": 318}, "nodes": [{"id": 92227742, "state": 3, "round": -4, "fullRoundText": "Losers Round 1", "completedAt": 1754173710, "winnerId": 20726269, "slots": [{"id": "92227742-0", "entrant": {"id": 20726269, "name": "Sehbai", "participants": [{"id": 19074573, "gamerTag": "Sehbai", "prefix": "", "user": {"location": {"city": "Oxford", "state": "AL", "country": "United States"}}, "player": {"id": 2181360, "gamerTag": "Sehbai", "prefix": "", "user": {"location": {"city": "Oxford", "state": "AL", "country": "United States"}}}}]}, "standing": {"placement": 1, "stats": {"score": {"value": null}}}}, {"id": "92227742-1", "entrant": {"id": 20709744, "name": "417 | zors3y", "participants": [{"id": 19060265, "gamerTag": "zors3y", "prefix": "417", "user": {"location": {"city": "Eatonton", "state": "GA", "country": "United States"}}, "player": {"id": 994539, "gamerTag": "zors3y", "prefix": "417", "user": {"location": {"city": "Eatonton", "state": "GA", "country": "United States"}}}}]}, "standing": {"placement": 2, "stats": {"score": {"value": -1}}}}], "games": null}, {"id": 92227954, "state": 3, "round": -4, "fullRoundText": "Losers Round 1", "completedAt": 1754175528, "winnerId": 20721826, "slots": [{"id": "92227954-0", "entrant": {"id": 20721826, "name": "TCS BTV | Knockoutjoe", "participants": [{"id": 19070831, "gamerTag": "Knockoutjoe", "prefix": "TCS BTV", "user": {"location": {"city": "Antioch", "state": "TN", "country": "United States"}}, "player": {"id": 2741707, "gamerTag": "Knockoutjoe", "prefix": "TCS BTV", "user": {"location": {"city": "Antioch", "state": "TN", "country": "United States"}}}}]}, "standing": {"placement": 1, "stats": {"score": {"value": 2}}}}, {"id": "92227954-1", "entrant": {"id": 20504104, "name": "LBE | Lumin!", "participants": [{"id": 18881355, "gamerTag": "Lumin!", "prefix": "LBE", "user": {"location": {"city": "Athens", "state": "GA", "country": "United States"}}, "player": {"id": 2737569, "gamerTag": "Lumin!", "prefix": "LBE", "user": {"location": {"city": "Athens", "state": "GA", "country": "United States"}}}}]}, "standing": {"placement": 2, "stats": {"score": {"value": 0}}}}], "games": null}, {"id": 92227504, "state": 3, "round": -4, "fullRoundText": "Losers Round 1", "completedAt": 1754168088, "winnerId": 20492179, "slots": [{"id": "92227504-0", "entrant": {"id": 20492179, "name": "Daiyan", "participants": [{"id": 18870720, "gamerTag": "Daiyan", "prefix": "", "user": {"location": {"city": "Lawrenceville", "state": "GA", "country": "United States"}}, "player": {"id": 1059715, "gamerTag": "Daiyan", "prefix": "", "user": {"location": {"city": "Lawrenceville", "state": "GA", "country": "United States"}}}}]}, "standing": {"placement": 1, "stats": {"score": {"value": null}}}}, {"id": "92227504-1", "entrant": {"id": 20731847, "name": "soph", "participants": [{"id": 19079389, "gamerTag": "soph", "prefix": "", "user": {"location": {"city": "Santa Rosa Beach", "state": "FL", "country": "United States"}}, "player": {"id": 1641440, "gamerTag": "soph", "prefix": "", "user": {"location": {"city": "Santa Rosa Beach", "state": "FL", "country": "United States"}}}}]}, "standing": {"placement": 2, "stats": {"score": {"value": -1}}}}], "games": null}, {"id": 92110846, "state": 3, "round": -5, "fullRoundText": "Losers Round 3", "completedAt": 1754184161, "winnerId": 20723478, "slots": [{"id": "92110846-0", "entrant": {"id": 20723478, "name": "ROK | Karu!", "participants": [{"id": 19072257, "gamerTag": "Karu!", "prefix": "ROK", "user": {"location": {"city": null, "state": null, "country": "United States"}}, "player": {"id": 1964751, "gamerTag": "Super Awesome Duck", "prefix": "ROK", "user": {"location": {"city": null, "state": null, "country": "United States"}}}}]}, "standing": {"placement": 1, "stats": {"score": {"value": 2}}}}, {"id": "92110846-1", "entrant": {"id": 20487659, "name": "WIN | KornDog | CJFrozen", "participants": [{"id": 18866879, "gamerTag": "CJFrozen", "prefix": "WIN | KornDog", "user": {"location": {"city": "Rock Hill", "state": "SC", "country": "United States"}}, "player": {"id": 918277, "gamerTag": "CJFrozen", "prefix": "WIN | KornDog", "user": {"location": {"city": "Rock Hill", "state": "SC", "country": "United States"}}}}]}, "standing": {"placement": 2, "stats": {"score": {"value": 1}}}}], "games": null}, {"id": 92110847, "state": 3, "round": -5, "fullRoundText": "Losers Round 3", "completedAt": 1754183354, "winnerId": 20730596, "slots": [{"id": "92110847-0", "entrant": {"id": 20721570, "name": "SmU5h | Vendetta", "participants": [{"id": 19070584, "gamerTag": "Vendetta", "prefix": "SmU5h", "user": {"location": {"city": "Duluth", "state": "GA", "country": "United States"}}, "player": {"id": 343421, "gamerTag": "Vendetta", "prefix": "SmU5h", "user": {"location": {"city": "Duluth", "state": "GA", "country": "United States"}}}}]}, "standing": {"placement": 2, "stats": {"score": {"value": 1}}}}, {"id": "92110847-1", "entrant": {"id": 20730596, "name": "TTV | aj_waves", "participants": [{"id": 19078266, "gamerTag": "aj_waves", "prefix": "TTV", "user": {"location": {"city": "Statesboro", "state": "GA", "country": "United States"}}, "player": {"id": 3430874, "gamerTag": "aj_waves", "prefix": "TTV", "user": {"location": {"city": "Statesboro", "state": "GA", "country": "United States"}}}}]}, "standing": {"placement": 1, "stats": {"score": {"value": 2}}}}], "games": null}, {"id": 92110848, "state": 3, "round": -5, "fullRoundText": "Losers Round 3", "completedAt": 1754184046, "winnerId": 20720131, "slots": [{"id": "92110848-0", "entrant": {"id": 20494615, "name": "PACDUECE", "participants": [{"id": 18872949, "gamerTag": "PACDUECE", "prefix": "", "user": {"location": {"city": "Valdosta", "state": "GA", "country": "United States"}}, "player": {"id": 35275, "gamerTag": "PACDUECE", "prefix": "", "user": {"location": {"city": "Valdosta", "state": "GA", "country": "United States"}}}}]}, "standing": {"placement": 2, "stats": {"score": {"value": 1}}}}, {"id": "92110848-1", "entrant": {"id": 20720131, "name": "PHNM | Chunky", "participants": [{"id": 19069296, "gamerTag": "Chunky", "prefix": "PHNM", "user": {"location": {"city": "Summerville", "state": "SC", "country": "United States"}}, "player": {"id": 1479891, "gamerTag": "Chunky", "prefix": "PHNM", "user": {"location": {"city": "Summerville", "state": "SC", "country": "United States"}}}}]}, "standing": {"placement": 1, "stats": {"score": {"value": 2}}}}], "games": null}, {"id": 92110849, "state": 3, "round": -5, "fullRoundText": "Losers Round 3", "completedAt": 1754184314, "winnerId": 20699992, "slots": [{"id": "92110849-0", "entrant": {"id": 20699992, "name": "SFS | TCS | Dany", "participants": [{"id": 19051511, "gamerTag": "Dany", "prefix": "SFS | TCS", "user": {"location": {"city": "Nashville", "state": "TN", "country": "United States"}}, "player": {"id": 606386, "gamerTag": "Dany2theny", "prefix": "TCS", "user": {"location": {"city": "Nashville", "state": "TN", "country": "United States"}}}}]}, "standing": {"placement": 1, "stats": {"score": {"value": 2}}}}, {"id": "92110849-1", "entrant": {"id": 20722062, "name": "YBG Don", "participants": [{"id": 19071049, "gamerTag": "YBG Don", "prefix": "", "user": {"location": {"city": "sussy amogus school", "state": "TX", "country": "United States"}}, "player": {"id": 2228357, "gamerTag": "YBG Don", "prefix": "", "user": {"location": {"city": "sussy amogus school", "state": "TX", "country": "United States"}}}}]}, "standing": {"placement": 2, "stats": {"score": {"value": 1}}}}], "games": null}, {"id": 92227155, "state": 3, "round": 1, "fullRoundText": "Winners Round 1", "completedAt": 1754165862, "winnerId": 20827624, "slots": [{"id": "92227155-0", "entrant": {"id": 20490013, "name": "ZB | Sanaito", "participants": [{"id": 18868823, "gamerTag": "Sanaito", "prefix": "ZB", "user": {"location": {"city": "Fayetteville", "state": "GA", "country": "United States"}}, "player": {"id": 12761, "gamerTag": "Sanaito", "prefix": "ZB", "user": {"location": {"city": "Fayetteville", "state": "GA", "country": "United States"}}}}]}, "standing": {"placement": 2, "stats": {"score": {"value": 0}}}}, {"id": "92227155-1", "entrant": {"id": 20827624, "name": "Zarek", "participants": [{"id": 19166290, "gamerTag": "Zarek", "prefix": "", "user": {"location": {"city": "Atlanta", "state": "GA", "country": "United States"}}, "player": {"id": 405682, "gamerTag": "Zarek", "prefix": "", "user": {"location": {"city": "Atlanta", "state": "GA", "country": "United States"}}}}]}, "standing": {"placement": 1, "stats": {"score": {"value": 2}}}}], "games": null}, {"id": 92227796, "state": 3, "round": 1, "fullRoundText": "Winners Round 1", "completedAt": 1754173814, "winnerId": 20487997, "slots": [{"id": "92227796-0", "entrant": {"id": 20487997, "name": "TFT | Handsome Squidward", "participants": [{"id": 18867147, "gamerTag": "Handsome Squidward", "prefix": "TFT", "user": {"location": {"city": "Calhoun", "state": "GA", "country": "United States"}}, "player": {"id": 2241471, "gamerTag": "lil munch", "prefix": "TFT", "user": {"location": {"city": "Calhoun", "state": "GA", "country": "United States"}}}}]}, "standing": {"placement": 1, "stats": {"score": {"value": 2}}}}, {"id": "92227796-1", "entrant": {"id": 20498646, "name": "BNDK | TD | CorNo", "participants": [{"id": 18876567, "gamerTag": "CorNo", "prefix": "BNDK | TD", "user": {"location": {"city": "Birmingham", "state": "AL", "country": "United States"}}, "player": {"id": 2344763, "gamerTag": "CorNo", "prefix": "BNDK | TD", "user": {"location": {"city": "Birmingham", "state": "AL", "country": "United States"}}}}]}, "standing": {"placement": 2, "stats": {"score": {"value": 0}}}}], "games": null}, {"id": 92110781, "state": 3, "round": 1, "fullRoundText": "Winners Round 1", "completedAt": 1754179718, "winnerId": 20666441, "slots": [{"id": "92110781-0", "entrant": {"id": 20666441, "name": "WIN | Peabnut", "participants": [{"id": 19022842, "gamerTag": "Peabnut", "prefix": "WIN", "user": {"location": {"city": "Rock Hill", "state": "SC", "country": "United States"}}, "player": {"id": 49302, "gamerTag": "Peabnut", "prefix": "WIN", "user": {"location": {"city": "Rock Hill", "state": "SC", "country": "United States"}}}}]}, "standing": {"placement": 1, "stats": {"score": {"value": 2}}}}, {"id": "92110781-1", "entrant": {"id": 20488589, "name": "Tobe", "participants": [{"id": 18867548, "gamerTag": "Tobe", "prefix": "", "user": {"location": {"city": "Buford", "state": "GA", "country": "United States"}}, "player": {"id": 1646132, "gamerTag": "Tobe", "prefix": "", "user": {"location": {"city": "Buford", "state": "GA", "country": "United States"}}}}]}, "standing": {"placement": 2, "stats": {"score": {"value": 0}}}}], "games": null}, {"id": 92227346, "state": 3, "round": 1, "fullRoundText": "Winners Round 1", "completedAt": 1754167502, "winnerId": 20774058, "slots": [{"id": "92227346-0", "entrant": {"id": 20488410, "name": "KSU | Subzero", "participants": [{"id": 18867381, "gamerTag": "Subzero", "prefix": "KSU", "user": {"location": {"city": "Acworth", "state": "GA", "country": "United States"}}, "player": {"id": 1808159, "gamerTag": "Subzero", "prefix": "KSU", "user": {"location": {"city": "Acworth", "state": "GA", "country": "United States"}}}}]}, "standing": {"placement": 2, "stats": {"score": {"value": 1}}}}, {"id": "92227346-1", "entrant": {"id": 20774058, "name": "RainTalonX", "participants": [{"id": 19118382, "gamerTag": "RainTalonX", "prefix": "", "user": {"location": {"city": "Huntsville", "state": "AL", "country": "United States"}}, "player": {"id": 1137968, "gamerTag": "RainTalonX", "prefix": "", "user": {"location": {"city": "Huntsville", "state": "AL", "country": "United States"}}}}]}, "standing": {"placement": 1, "stats": {"score": {"value": 2}}}}], "games": null}, {"id": 92227584, "state": 3, "round": 1, "fullRoundText": "Winners Round 1", "completedAt": 1754173314, "winnerId": 20708965, "slots": [{"id": "92227584-0", "entrant": {"id": 20708965, "name": "Nyramyss", "participants": [{"id": 19059603, "gamerTag": "Nyramyss", "prefix": "", "user": {"location": {"city": "Acworth", "state": "GA", "country": "United States"}}, "player": {"id": 2648735, "gamerTag": "Nyramyss", "prefix": "", "user": {"location": {"city": "Acworth", "state": "GA", "country": "United States"}}}}]}, "standing": {"placement": 1, "stats": {"score": {"value": 2}}}}, {"id": "92227584-1", "entrant": {"id": 20488389, "name": "Chrysalis", "participants": [{"id": 18867367, "gamerTag": "Chrysalis", "prefix": "", "user": {"location": {"city": "Cartersville", "state": "GA", "country": "United States"}}, "player": {"id": 1512632, "gamerTag": "Chrysalis", "prefix": "", "user": {"location": {"city": "Cartersville", "state": "GA", "country": "United States"}}}}]}, "standing": {"placement": 2, "stats": {"score": {"value": 1}}}}], "games": null}, {"id": 92227159, "state": 3, "round": 1, "fullRoundText": "Winners Round 1", "completedAt": 1754166106, "winnerId": 20717425, "slots": [{"id": "92227159-0", "entrant": {"id": 20717425, "name": "HOPE | Sung Jinwoo", "participants": [{"id": 19066790, "gamerTag": "Sung Jinwoo", "prefix": "HOPE", "user": {"location": {"city": "Atlanta", "state": "GA", "country": "United States"}}, "player": {"id": 595350, "gamerTag": "Sung Jinwoo", "prefix": "HOPE", "user": {"location": {"city": "Atlanta", "state": "GA", "country": "United States"}}}}]}, "standing": {"placement": 1, "stats": {"score": {"value": 2}}}}, {"id": "92227159-1", "entrant": {"id": 20608728, "name": "Mantra", "participants": [{"id": 18972093, "gamerTag": "Mantra", "prefix": null, "user": {"location": {"city": null, "state": "GA", "country": "United States"}}, "player": {"id": 4733195, "gamerTag": "Mantra", "prefix": null, "user": {"location": {"city": null, "state": "GA", "country": "United States"}}}}]}, "standing": {"placement": 2, "stats": {"score": {"value": 0}}}}], "games": null}, {"id": 92227800, "state": 3, "round": 1, "fullRoundText": "Winners Round 1", "completedAt": 1754172899, "winnerId": 20488255, "slots": [{"id": "92227800-0", "entrant": {"id": 20488255, "name": "Burlum", "participants": [{"id": 18867260, "gamerTag": "Burlum", "prefix": "", "user": {"location": {"city": "Lithia Springs", "state": "GA", "country": "United States"}}, "player": {"id": 397537, "gamerTag": "Burlum", "prefix": "", "user": {"location": {"city": "Lithia Springs", "state": "GA", "country": "United States"}}}}]}, "standing": {"placement": 1, "stats": {"score": {"value": null}}}}, {"id": "92227800-1", "entrant": {"id": 20538182, "name": "nicnamedom", "participants": [{"id": 18911402, "gamerTag": "nicnamedom", "prefix": "", "user": {"location": {"city": null, "state": null, "country": "United States"}}, "player": {"id": 4814071, "gamerTag": "nicnamedom", "prefix": "", "user": {"location": {"city": null, "state": null, "country": "United States"}}}}]}, "standing": {"placement": 2, "stats": {"score": {"value": -1}}}}], "games": null}, {"id": 92110782, "state": 3, "round": 1, "fullRoundText": "Winners Round 1", "completedAt": 1754179691, "winnerId": 20487903, "slots": [{"id": "92110782-0", "entrant": {"id": 20680949, "name": "Ns | Xceed | Xerzal", "participants": [{"id": 19034841, "gamerTag": "Xerzal", "prefix": "Ns | Xceed", "user": {"location": {"city": "Tuscaloosa", "state": "AL", "country": "United States"}}, "player": {"id": 1760924, "gamerTag": "Xerzal", "prefix": "Ns | Xceed", "user": {"location": {"city": "Tuscaloosa", "state": "AL", "country": "United States"}}}}]}, "standing": {"placement": 2, "stats": {"score": {"value": 0}}}}, {"id": "92110782-1", "entrant": {"id": 20487903, "name": "DGS | spickles", "participants": [{"id": 18867085, "gamerTag": "spickles", "prefix": "DGS", "user": {"location": {"city": null, "state": null, "country": "United States"}}, "player": {"id": 1154793, "gamerTag": "spickles", "prefix": "DGS", "user": {"location": {"city": null, "state": null, "country": "United States"}}}}]}, "standing": {"placement": 1, "stats": {"score": {"value": 2}}}}], "games": null}]}}}