{"phase": {"seeds": {"pageInfo": {"totalPages": 1, "total": 15}, "nodes": [{"id": 35811783, "seedNum": 2, "entrant": {"id": 20755491, "name": "4o4 | KhalRhaego", "participants": [{"id": 19101146, "gamerTag": "KhalRhaego", "prefix": "4o4", "user": {"location": {"city": "Jonesboro", "state": "GA", "country": "United States"}}, "player": {"id": 4076327, "gamerTag": "KhalRhaego", "prefix": "BOLT", "user": {"location": {"city": "Jonesboro", "state": "GA", "country": "United States"}}}}]}}, {"id": 35734789, "seedNum": 1, "entrant": {"id": 20704448, "name": "StrataJay", "participants": [{"id": 19055265, "gamerTag": "StrataJay", "prefix": "", "user": {"location": {"city": "Grayson", "state": "GA", "country": "United States"}}, "player": {"id": 1112189, "gamerTag": "StrataJay", "prefix": "", "user": {"location": {"city": "Grayson", "state": "GA", "country": "United States"}}}}]}}, {"id": 35798139, "seedNum": 3, "entrant": {"id": 20747432, "name": "juice", "participants": [{"id": 19093162, "gamerTag": "juice", "prefix": "", "user": {"location": {"city": "atlanta", "state": "GA", "country": "United States"}}, "player": {"id": 146905, "gamerTag": "juice", "prefix": "100%", "user": {"location": {"city": "atlanta", "state": "GA", "country": "United States"}}}}]}}, {"id": 35861660, "seedNum": 10, "entrant": {"id": 20782146, "name": "Free | Sereni", "participants": [{"id": 19126113, "gamerTag": "Sereni", "prefix": "Free", "user": {"location": {"city": null, "state": null, "country": "United States"}}, "player": {"id": 482535, "gamerTag": "Sereni", "prefix": "Free", "user": {"location": {"city": null, "state": null, "country": "United States"}}}}]}}, {"id": 35821934, "seedNum": 5, "entrant": {"id": 20763115, "name": "Buddy3k", "participants": [{"id": 19108661, "gamerTag": "Buddy3k", "prefix": "", "user": {"location": {"city": "Atlanta", "state": "GA", "country": "United States"}}, "player": {"id": 4443794, "gamerTag": "Buddy3k", "prefix": "", "user": {"location": {"city": "Atlanta", "state": "GA", "country": "United States"}}}}]}}, {"id": 35724113, "seedNum": 7, "entrant": {"id": 20696196, "name": "Nurikami", "participants": [{"id": 19048321, "gamerTag": "Nurikami", "prefix": null, "user": {"location": {"city": "Sandy Springs", "state": "GA", "country": "United States"}}, "player": {"id": 2894467, "gamerTag": "Nurikami", "prefix": null, "user": {"location": {"city": "Sandy Springs", "state": "GA", "country": "United States"}}}}]}}, {"id": 35861516, "seedNum": 8, "entrant": {"id": 20782002, "name": "Crunchii", "participants": [{"id": 19126004, "gamerTag": "Crunchii", "prefix": "", "user": null, "player": {"id": 4888190, "gamerTag": "Crunchii", "prefix": "", "user": null}}]}}, {"id": 35838049, "seedNum": 9, "entrant": {"id": 20768136, "name": "KSU | Murasaki Cho", "participants": [{"id": 19113330, "gamerTag": "Murasaki Cho", "prefix": "KSU", "user": {"location": {"city": "Dallas", "state": "GA", "country": "United States"}}, "player": {"id": 1232271, "gamerTag": "Murasaki Cho", "prefix": "KSU", "user": {"location": {"city": "Dallas", "state": "GA", "country": "United States"}}}}]}}, {"id": 35861642, "seedNum": 11, "entrant": {"id": 20782106, "name": "RM | WFF | Sakruoi", "participants": [{"id": 19126085, "gamerTag": "Sakruoi", "prefix": "RM | WFF", "user": {"location": {"city": "atlanta", "state": "GA", "country": "United States"}}, "player": {"id": 1230555, "gamerTag": "Sakruoi", "prefix": "RM | WFF", "user": {"location": {"city": "atlanta", "state": "GA", "country": "United States"}}}}]}}, {"id": 35853003, "seedNum": 12, "entrant": {"id": 20777034, "name": "Sneakem | AK", "participants": [{"id": 19121137, "gamerTag": "AK", "prefix": "Sneakem", "user": {"location": {"city": "Atl", "state": "GA", "country": "United States"}}, "player": {"id": 4887226, "gamerTag": "AK", "prefix": "Sneakem", "user": {"location": {"city": "Atl", "state": "GA", "country": "United States"}}}}]}}, {"id": 35861625, "seedNum": 13, "entrant": {"id": 20782102, "name": "Tim", "participants": [{"id": 19126082, "gamerTag": "Tim", "prefix": "", "user": null, "player": {"id": 4888205, "gamerTag": "Tim", "prefix": "", "user": null}}]}}, {"id": 35862439, "seedNum": 14, "entrant": {"id": 20782379, "name": "assclapFGC", "participants": [{"id": 19126284, "gamerTag": "assclapFGC", "prefix": "", "user": {"location": {"city": "Scottdale", "state": "GA", "country": "United States"}}, "player": {"id": 3481864, "gamerTag": "assclapFGC", "prefix": "", "user": {"location": {"city": "Scottdale", "state": "GA", "country": "United States"}}}}]}}, {"id": 35862320, "seedNum": 4, "entrant": {"id": 20782316, "name": "STVCK", "participants": [{"id": 19126228, "gamerTag": "STVCK", "prefix": null, "user": {"location": {"city": null, "state": "GA", "country": "United States"}}, "player": {"id": 4192470, "gamerTag": "STVCK", "prefix": null, "user": {"location": {"city": null, "state": "GA", "country": "United States"}}}}]}}, {"id": 35831868, "seedNum": 6, "entrant": {"id": 20766373, "name": "Spiral", "participants": [{"id": 19111652, "gamerTag": "Spiral", "prefix": "", "user": {"location": {"city": "LITHONIA", "state": "GA", "country": "United States"}}, "player": {"id": 957192, "gamerTag": "Spiral", "prefix": "", "user": {"location": {"city": "LITHONIA", "state": "GA", "country": "United States"}}}}]}}, {"id": 35862515, "seedNum": 15, "entrant": {"id": 20782445, "name": "DevilofdaDynasty", "participants": [{"id": 19126338, "gamerTag": "DevilofdaDynasty", "prefix": "", "user": null, "player": {"id": 4888320, "gamerTag": "DevilofdaDynasty", "prefix": "", "user": null}}]}}]}}}