{"phase": {"seeds": {"pageInfo": {"totalPages": 1, "total": 10}, "nodes": [{"id": 36208125, "seedNum": 1, "entrant": {"id": 20993821, "name": "CAUP", "participants": [{"id": 19312190, "gamerTag": "CAUP", "prefix": null, "user": {"location": {"city": "Athens", "state": "GA", "country": "United States"}}, "player": {"id": 36662, "gamerTag": "CAUP", "prefix": "Tipped Off", "user": {"location": {"city": "Athens", "state": "GA", "country": "United States"}}}}]}}, {"id": 36209965, "seedNum": 2, "entrant": {"id": 20995148, "name": "Sunrise", "participants": [{"id": 19313305, "gamerTag": "Sunrise", "prefix": "", "user": {"location": {"city": "Athens", "state": "GA", "country": "United States"}}, "player": {"id": 21636, "gamerTag": "Sunrise", "prefix": "", "user": {"location": {"city": "Athens", "state": "GA", "country": "United States"}}}}]}}, {"id": 36095189, "seedNum": 7, "entrant": {"id": 20926531, "name": "Nia", "participants": [{"id": 19253635, "gamerTag": "Nia", "prefix": null, "user": {"location": {"city": "Buford", "state": "GA", "country": "United States"}}, "player": {"id": 428070, "gamerTag": "Nia", "prefix": null, "user": {"location": {"city": "Buford", "state": "GA", "country": "United States"}}}}]}}, {"id": 36098645, "seedNum": 3, "entrant": {"id": 20928696, "name": "tushar!", "participants": [{"id": 19255433, "gamerTag": "tushar!", "prefix": "", "user": {"location": {"city": "Dunwoody", "state": "GA", "country": "United States"}}, "player": {"id": 1549795, "gamerTag": "tushar!", "prefix": "", "user": {"location": {"city": "Dunwoody", "state": "GA", "country": "United States"}}}}]}}, {"id": 36099781, "seedNum": 4, "entrant": {"id": 20929482, "name": "drimys", "participants": [{"id": 19256058, "gamerTag": "drimys", "prefix": null, "user": {"location": {"city": "Cumming", "state": "GA", "country": "United States"}}, "player": {"id": 2436958, "gamerTag": "drimys", "prefix": null, "user": {"location": {"city": "Cumming", "state": "GA", "country": "United States"}}}}]}}, {"id": 36095384, "seedNum": 8, "entrant": {"id": 20926688, "name": "UGA | Stygian", "participants": [{"id": 19253773, "gamerTag": "Stygian", "prefix": "UGA", "user": {"location": {"city": "Dacula", "state": "GA", "country": "United States"}}, "player": {"id": 3012265, "gamerTag": "Stygian", "prefix": "UGA", "user": {"location": {"city": "Dacula", "state": "GA", "country": "United States"}}}}]}}, {"id": 36210291, "seedNum": 6, "entrant": {"id": 20995427, "name": "GOOMBA!", "participants": [{"id": 19298186, "gamerTag": "GOOMBA!", "prefix": null, "user": {"location": {"city": "Johns Creek", "state": "GA", "country": "United States"}}, "player": {"id": 1052642, "gamerTag": "GOOMBA!", "prefix": "EDLN | BWU", "user": {"location": {"city": "Johns Creek", "state": "GA", "country": "United States"}}}}]}}, {"id": 36130158, "seedNum": 10, "entrant": {"id": 20949153, "name": "Hippo", "participants": [{"id": 19273887, "gamerTag": "Hippo", "prefix": "", "user": {"location": {"city": null, "state": null, "country": "United States"}}, "player": {"id": 4869379, "gamerTag": "Hippo", "prefix": "", "user": {"location": {"city": null, "state": null, "country": "United States"}}}}]}}, {"id": 36194902, "seedNum": 5, "entrant": {"id": 20984945, "name": "DGS | spickles", "participants": [{"id": 19304561, "gamerTag": "spickles", "prefix": "DGS", "user": {"location": {"city": null, "state": null, "country": "United States"}}, "player": {"id": 1154793, "gamerTag": "spickles", "prefix": "DGS", "user": {"location": {"city": null, "state": null, "country": "United States"}}}}]}}, {"id": 36095343, "seedNum": 9, "entrant": {"id": 20926644, "name": "Dubz", "participants": [{"id": 19253732, "gamerTag": "Dubz", "prefix": "", "user": {"location": {"city": "Grayson", "state": "GA", "country": "United States"}}, "player": {"id": 22583, "gamerTag": "Dubz", "prefix": "", "user": {"location": {"city": "Grayson", "state": "GA", "country": "United States"}}}}]}}]}}}