{"phase": {"seeds": {"pageInfo": {"totalPages": 1, "total": 15}, "nodes": [{"id": 36116918, "seedNum": 1, "entrant": {"id": 20940672, "name": "PCV305", "participants": [{"id": 19266349, "gamerTag": "PCV305", "prefix": null, "user": {"location": {"city": "Augusta", "state": "GA", "country": "United States"}}, "player": {"id": 4327979, "gamerTag": "PCV305", "prefix": null, "user": {"location": {"city": "Augusta", "state": "GA", "country": "United States"}}}}]}}, {"id": 36130434, "seedNum": 2, "entrant": {"id": 20949372, "name": "JollyPie", "participants": [{"id": 19274084, "gamerTag": "JollyPie", "prefix": "", "user": {"location": {"city": "Oakton", "state": "VA", "country": "United States"}}, "player": {"id": 434421, "gamerTag": "JollyPie", "prefix": "", "user": {"location": {"city": "Oakton", "state": "VA", "country": "United States"}}}}]}}, {"id": 36150647, "seedNum": 3, "entrant": {"id": 20964090, "name": "SBG | pick", "participants": [{"id": 19286380, "gamerTag": "pick", "prefix": "SBG", "user": {"location": {"city": null, "state": null, "country": null}}, "player": {"id": 4151589, "gamerTag": "pick", "prefix": "SBG", "user": {"location": {"city": null, "state": null, "country": null}}}}]}}, {"id": 36213172, "seedNum": 4, "entrant": {"id": 20997364, "name": "HAND$OME", "participants": [{"id": 19315244, "gamerTag": "HAND$OME", "prefix": null, "user": {"location": {"city": null, "state": "GA", "country": "United States"}}, "player": {"id": 813037, "gamerTag": "HAND$OME", "prefix": null, "user": {"location": {"city": null, "state": "GA", "country": "United States"}}}}]}}, {"id": 36215230, "seedNum": 5, "entrant": {"id": 20998869, "name": "CV | NiNE", "participants": [{"id": 19316676, "gamerTag": "NiNE", "prefix": "CV", "user": {"location": {"city": "Augusta", "state": "GA", "country": "United States"}}, "player": {"id": 25337, "gamerTag": "NiNE", "prefix": "CV", "user": {"location": {"city": "Augusta", "state": "GA", "country": "United States"}}}}]}}, {"id": 36225940, "seedNum": 6, "entrant": {"id": 21005670, "name": "Shiki Senpai", "participants": [{"id": 19323302, "gamerTag": "Shiki Senpai", "prefix": null, "user": {"location": {"city": null, "state": "GA", "country": "United States"}}, "player": {"id": 2254075, "gamerTag": "Shiki Senpai", "prefix": "TMNS", "user": {"location": {"city": null, "state": "GA", "country": "United States"}}}}]}}, {"id": 36228900, "seedNum": 7, "entrant": {"id": 21007649, "name": "Amatsumara", "participants": [{"id": 19325063, "gamerTag": "Amatsumara", "prefix": "", "user": {"location": {"city": null, "state": null, "country": "United States"}}, "player": {"id": 3592419, "gamerTag": "Amatsumara", "prefix": "", "user": {"location": {"city": null, "state": null, "country": "United States"}}}}]}}, {"id": 36238987, "seedNum": 8, "entrant": {"id": 21014017, "name": "Shifty", "participants": [{"id": 19330844, "gamerTag": "Shifty", "prefix": "", "user": {"location": {"city": "Evans", "state": "GA", "country": "United States"}}, "player": {"id": 4387897, "gamerTag": "Shifty", "prefix": "", "user": {"location": {"city": "Evans", "state": "GA", "country": "United States"}}}}]}}, {"id": 36295474, "seedNum": 9, "entrant": {"id": 21050082, "name": "Greenbean", "participants": [{"id": 19363503, "gamerTag": "Greenbean", "prefix": null, "user": {"location": {"city": "Augusta", "state": "GA", "country": "United States"}}, "player": {"id": 2249747, "gamerTag": "Greenbean", "prefix": null, "user": {"location": {"city": "Augusta", "state": "GA", "country": "United States"}}}}]}}, {"id": 36302740, "seedNum": 10, "entrant": {"id": 21055752, "name": "cheddarcola", "participants": [{"id": 19368588, "gamerTag": "cheddarcola", "prefix": null, "user": {"location": {"city": null, "state": null, "country": "United States"}}, "player": {"id": 4724537, "gamerTag": "cheddarcola", "prefix": null, "user": {"location": {"city": null, "state": null, "country": "United States"}}}}]}}, {"id": 36308474, "seedNum": 11, "entrant": {"id": 21060006, "name": "Se.T! | GioGiost", "participants": [{"id": 19372185, "gamerTag": "GioGiost", "prefix": "Se.T!", "user": {"location": {"city": null, "state": null, "country": null}}, "player": {"id": 2221369, "gamerTag": "GioGiost", "prefix": "Se.T!", "user": {"location": {"city": null, "state": null, "country": null}}}}]}}, {"id": 36308600, "seedNum": 12, "entrant": {"id": 21060132, "name": "Licorice", "participants": [{"id": 19372323, "gamerTag": "Licorice", "prefix": "", "user": {"location": {"city": null, "state": "GA", "country": "United States"}}, "player": {"id": 3559388, "gamerTag": "Licorice", "prefix": "", "user": {"location": {"city": null, "state": "GA", "country": "United States"}}}}]}}, {"id": 36311857, "seedNum": 13, "entrant": {"id": 21062483, "name": "ATLRiot", "participants": [{"id": 19266092, "gamerTag": "ATLRiot", "prefix": null, "user": {"location": {"city": "Augusta", "state": "GA", "country": "United States"}}, "player": {"id": 2057913, "gamerTag": "ATLRiot", "prefix": "", "user": {"location": {"city": "Augusta", "state": "GA", "country": "United States"}}}}]}}, {"id": 36311860, "seedNum": 14, "entrant": {"id": 21062485, "name": "LTS | Akane", "participants": [{"id": 19374579, "gamerTag": "Akane", "prefix": "LTS", "user": {"location": {"city": "Martinez", "state": "GA", "country": "United States"}}, "player": {"id": 1082873, "gamerTag": "Akane", "prefix": "LTS", "user": {"location": {"city": "Martinez", "state": "GA", "country": "United States"}}}}]}}, {"id": 36311884, "seedNum": 15, "entrant": {"id": 21062510, "name": "Snail", "participants": [{"id": 19369211, "gamerTag": "Snail", "prefix": null, "user": {"location": {"city": "Augusta", "state": "GA", "country": "United States"}}, "player": {"id": 1659733, "gamerTag": "Snail", "prefix": null, "user": {"location": {"city": "Augusta", "state": "GA", "country": "United States"}}}}]}}]}}}