{"event": {"sets": {"pageInfo": {"totalPages": 1, "total": 6}, "nodes": [{"id": 93365292, "state": 3, "round": 3, "fullRoundText": "Final", "completedAt": 1756695855, "winnerId": 21120382, "slots": [{"id": "93365292-0", "entrant": {"id": 21120382, "name": "Chongo", "participants": [{"id": 19426711, "gamerTag": "Chongo", "prefix": null, "user": {"location": {"city": null, "state": "GA", "country": "United States"}}, "player": {"id": 4948173, "gamerTag": "Chongo", "prefix": null, "user": {"location": {"city": null, "state": "GA", "country": "United States"}}}}]}, "standing": {"placement": 1, "stats": {"score": {"value": null}}}}, {"id": "93365292-1", "entrant": {"id": 20882405, "name": "Joyblossom", "participants": [{"id": 19215007, "gamerTag": "Joyblossom", "prefix": null, "user": {"location": {"city": "Macon", "state": "GA", "country": "United States"}}, "player": {"id": 4675246, "gamerTag": "Joyblossom", "prefix": null, "user": {"location": {"city": "Macon", "state": "GA", "country": "United States"}}}}]}, "standing": {"placement": 2, "stats": {"score": {"value": null}}}}], "games": null}, {"id": 93365290, "state": 3, "round": 2, "fullRoundText": "Semi-Final", "completedAt": 1756687956, "winnerId": 21120382, "slots": [{"id": "93365290-0", "entrant": {"id": 20879578, "name": "FNG | S0URCEC0DE", "participants": [{"id": 19212370, "gamerTag": "S0URCEC0DE", "prefix": "FNG", "user": {"location": {"city": "Macon", "state": "GA", "country": "United States"}}, "player": {"id": 2699776, "gamerTag": "S0URCEC0DE", "prefix": "FNG", "user": {"location": {"city": "Macon", "state": "GA", "country": "United States"}}}}]}, "standing": {"placement": 2, "stats": {"score": {"value": null}}}}, {"id": "93365290-1", "entrant": {"id": 21120382, "name": "Chongo", "participants": [{"id": 19426711, "gamerTag": "Chongo", "prefix": null, "user": {"location": {"city": null, "state": "GA", "country": "United States"}}, "player": {"id": 4948173, "gamerTag": "Chongo", "prefix": null, "user": {"location": {"city": null, "state": "GA", "country": "United States"}}}}]}, "standing": {"placement": 1, "stats": {"score": {"value": null}}}}], "games": null}, {"id": 93365291, "state": 3, "round": 2, "fullRoundText": "Semi-Final", "completedAt": 1756689075, "winnerId": 20882405, "slots": [{"id": "93365291-0", "entrant": {"id": 20880871, "name": "FNG | SHB", "participants": [{"id": 19213584, "gamerTag": "SHB", "prefix": "FNG", "user": {"location": {"city": null, "state": null, "country": "United States"}}, "player": {"id": 3194253, "gamerTag": "SHB", "prefix": "FNG", "user": {"location": {"city": null, "state": null, "country": "United States"}}}}]}, "standing": {"placement": 2, "stats": {"score": {"value": null}}}}, {"id": "93365291-1", "entrant": {"id": 20882405, "name": "Joyblossom", "participants": [{"id": 19215007, "gamerTag": "Joyblossom", "prefix": null, "user": {"location": {"city": "Macon", "state": "GA", "country": "United States"}}, "player": {"id": 4675246, "gamerTag": "Joyblossom", "prefix": null, "user": {"location": {"city": "Macon", "state": "GA", "country": "United States"}}}}]}, "standing": {"placement": 1, "stats": {"score": {"value": null}}}}], "games": null}, {"id": 93365287, "state": 3, "round": 1, "fullRoundText": "Quarter-Final", "completedAt": 1756686882, "winnerId": 21120382, "slots": [{"id": "93365287-0", "entrant": {"id": 21120251, "name": "Anamusement", "participants": [{"id": 19426592, "gamerTag": "Anamusement", "prefix": "", "user": {"location": {"city": null, "state": "GA", "country": "United States"}}, "player": {"id": 4412425, "gamerTag": "Anamusement", "prefix": "", "user": {"location": {"city": null, "state": "GA", "country": "United States"}}}}]}, "standing": {"placement": 2, "stats": {"score": {"value": null}}}}, {"id": "93365287-1", "entrant": {"id": 21120382, "name": "Chongo", "participants": [{"id": 19426711, "gamerTag": "Chongo", "prefix": null, "user": {"location": {"city": null, "state": "GA", "country": "United States"}}, "player": {"id": 4948173, "gamerTag": "Chongo", "prefix": null, "user": {"location": {"city": null, "state": "GA", "country": "United States"}}}}]}, "standing": {"placement": 1, "stats": {"score": {"value": null}}}}], "games": null}, {"id": 93365288, "state": 3, "round": 1, "fullRoundText": "Quarter-Final", "completedAt": 1756687948, "winnerId": 20880871, "slots": [{"id": "93365288-0", "entrant": {"id": 20880871, "name": "FNG | SHB", "participants": [{"id": 19213584, "gamerTag": "SHB", "prefix": "FNG", "user": {"location": {"city": null, "state": null, "country": "United States"}}, "player": {"id": 3194253, "gamerTag": "SHB", "prefix": "FNG", "user": {"location": {"city": null, "state": null, "country": "United States"}}}}]}, "standing": {"placement": 1, "stats": {"score": {"value": null}}}}, {"id": "93365288-1", "entrant": {"id": 21133273, "name": "forvr | forevertrent", "participants": [{"id": 19438490, "gamerTag": "forevertrent", "prefix": "forvr", "user": {"location": {"city": "Macon", "state": "GA", "country": "United States"}}, "player": {"id": 4276309, "gamerTag": "forevertrent", "prefix": "forvr", "user": {"location": {"city": "Macon", "state": "GA", "country": "United States"}}}}]}, "standing": {"placement": 2, "stats": {"score": {"value": null}}}}], "games": null}, {"id": 93365289, "state": 3, "round": 1, "fullRoundText": "Quarter-Final", "completedAt": 1756686779, "winnerId": 20882405, "slots": [{"id": "93365289-0", "entrant": {"id": 20882405, "name": "Joyblossom", "participants": [{"id": 19215007, "gamerTag": "Joyblossom", "prefix": null, "user": {"location": {"city": "Macon", "state": "GA", "country": "United States"}}, "player": {"id": 4675246, "gamerTag": "Joyblossom", "prefix": null, "user": {"location": {"city": "Macon", "state": "GA", "country": "United States"}}}}]}, "standing": {"placement": 1, "stats": {"score": {"value": null}}}}, {"id": "93365289-1", "entrant": {"id": 21133060, "name": "SoulTech", "participants": [{"id": 19438344, "gamerTag": "SoulTech", "prefix": "", "user": {"location": {"city": "Warner Robins", "state": "GA", "country": "United States"}}, "player": {"id": 4744118, "gamerTag": "SoulTech", "prefix": "", "user": {"location": {"city": "Warner Robins", "state": "GA", "country": "United States"}}}}]}, "standing": {"placement": 2, "stats": {"score": {"value": null}}}}], "games": null}]}}}