{"event": {"sets": {"pageInfo": {"totalPages": 1, "total": 6}, "nodes": [{"id": 93269115, "state": 3, "round": 3, "fullRoundText": "Round 3", "completedAt": 1756573045, "winnerId": 21100258, "slots": [{"id": "93269115-0", "entrant": {"id": 21100258, "name": "Twuths", "participants": [{"id": 19408707, "gamerTag": "Twuths", "prefix": "", "user": {"location": {"city": "Ooltewah", "state": "TN", "country": "United States"}}, "player": {"id": 1899368, "gamerTag": "Twuths", "prefix": "", "user": {"location": {"city": "Ooltewah", "state": "TN", "country": "United States"}}}}]}, "standing": {"placement": 1, "stats": {"score": {"value": 3}}}}, {"id": "93269115-1", "entrant": {"id": 21118486, "name": "TheShinyShiba", "participants": [{"id": 19425093, "gamerTag": "TheShinyShiba", "prefix": null, "user": {"location": {"city": "Ringgold", "state": "GA", "country": "United States"}}, "player": {"id": 2765413, "gamerTag": "TheShinyShiba", "prefix": null, "user": {"location": {"city": "Ringgold", "state": "GA", "country": "United States"}}}}]}, "standing": {"placement": 2, "stats": {"score": {"value": 2}}}}], "games": null}, {"id": 93269116, "state": 3, "round": 3, "fullRoundText": "Round 3", "completedAt": 1756573092, "winnerId": 21119347, "slots": [{"id": "93269116-0", "entrant": {"id": 21119341, "name": "DARE | RoboCop", "participants": [{"id": 19425859, "gamerTag": "RoboCop", "prefix": "DARE", "user": {"location": {"city": "Chattanooga", "state": "TN", "country": "United States"}}, "player": {"id": 534974, "gamerTag": "RoboCop", "prefix": "DARE", "user": {"location": {"city": "Chattanooga", "state": "TN", "country": "United States"}}}}]}, "standing": {"placement": 2, "stats": {"score": {"value": 0}}}}, {"id": "93269116-1", "entrant": {"id": 21119347, "name": "goop", "participants": [{"id": 19410073, "gamerTag": "goop", "prefix": "", "user": {"location": {"city": "Chattanooga", "state": "TN", "country": "United States"}}, "player": {"id": 3136059, "gamerTag": "goop", "prefix": "", "user": {"location": {"city": "Chattanooga", "state": "TN", "country": "United States"}}}}]}, "standing": {"placement": 1, "stats": {"score": {"value": 3}}}}], "games": null}, {"id": 93269113, "state": 3, "round": 2, "fullRoundText": "Round 2", "completedAt": 1756573801, "winnerId": 21100258, "slots": [{"id": "93269113-0", "entrant": {"id": 21100258, "name": "Twuths", "participants": [{"id": 19408707, "gamerTag": "Twuths", "prefix": "", "user": {"location": {"city": "Ooltewah", "state": "TN", "country": "United States"}}, "player": {"id": 1899368, "gamerTag": "Twuths", "prefix": "", "user": {"location": {"city": "Ooltewah", "state": "TN", "country": "United States"}}}}]}, "standing": {"placement": 1, "stats": {"score": {"value": 3}}}}, {"id": "93269113-1", "entrant": {"id": 21119341, "name": "DARE | RoboCop", "participants": [{"id": 19425859, "gamerTag": "RoboCop", "prefix": "DARE", "user": {"location": {"city": "Chattanooga", "state": "TN", "country": "United States"}}, "player": {"id": 534974, "gamerTag": "RoboCop", "prefix": "DARE", "user": {"location": {"city": "Chattanooga", "state": "TN", "country": "United States"}}}}]}, "standing": {"placement": 2, "stats": {"score": {"value": 0}}}}], "games": null}, {"id": 93269114, "state": 3, "round": 2, "fullRoundText": "Round 2", "completedAt": 1756576278, "winnerId": 21118486, "slots": [{"id": "93269114-0", "entrant": {"id": 21119347, "name": "goop", "participants": [{"id": 19410073, "gamerTag": "goop", "prefix": "", "user": {"location": {"city": "Chattanooga", "state": "TN", "country": "United States"}}, "player": {"id": 3136059, "gamerTag": "goop", "prefix": "", "user": {"location": {"city": "Chattanooga", "state": "TN", "country": "United States"}}}}]}, "standing": {"placement": 2, "stats": {"score": {"value": 2}}}}, {"id": "93269114-1", "entrant": {"id": 21118486, "name": "TheShinyShiba", "participants": [{"id": 19425093, "gamerTag": "TheShinyShiba", "prefix": null, "user": {"location": {"city": "Ringgold", "state": "GA", "country": "United States"}}, "player": {"id": 2765413, "gamerTag": "TheShinyShiba", "prefix": null, "user": {"location": {"city": "Ringgold", "state": "GA", "country": "United States"}}}}]}, "standing": {"placement": 1, "stats": {"score": {"value": 3}}}}], "games": null}, {"id": 93269111, "state": 3, "round": 1, "fullRoundText": "Round 1", "completedAt": 1756575255, "winnerId": 21100258, "slots": [{"id": "93269111-0", "entrant": {"id": 21100258, "name": "Twuths", "participants": [{"id": 19408707, "gamerTag": "Twuths", "prefix": "", "user": {"location": {"city": "Ooltewah", "state": "TN", "country": "United States"}}, "player": {"id": 1899368, "gamerTag": "Twuths", "prefix": "", "user": {"location": {"city": "Ooltewah", "state": "TN", "country": "United States"}}}}]}, "standing": {"placement": 1, "stats": {"score": {"value": 3}}}}, {"id": "93269111-1", "entrant": {"id": 21119347, "name": "goop", "participants": [{"id": 19410073, "gamerTag": "goop", "prefix": "", "user": {"location": {"city": "Chattanooga", "state": "TN", "country": "United States"}}, "player": {"id": 3136059, "gamerTag": "goop", "prefix": "", "user": {"location": {"city": "Chattanooga", "state": "TN", "country": "United States"}}}}]}, "standing": {"placement": 2, "stats": {"score": {"value": 1}}}}], "games": null}, {"id": 93269112, "state": 3, "round": 1, "fullRoundText": "Round 1", "completedAt": 1756574520, "winnerId": 21118486, "slots": [{"id": "93269112-0", "entrant": {"id": 21118486, "name": "TheShinyShiba", "participants": [{"id": 19425093, "gamerTag": "TheShinyShiba", "prefix": null, "user": {"location": {"city": "Ringgold", "state": "GA", "country": "United States"}}, "player": {"id": 2765413, "gamerTag": "TheShinyShiba", "prefix": null, "user": {"location": {"city": "Ringgold", "state": "GA", "country": "United States"}}}}]}, "standing": {"placement": 1, "stats": {"score": {"value": 3}}}}, {"id": "93269112-1", "entrant": {"id": 21119341, "name": "DARE | RoboCop", "participants": [{"id": 19425859, "gamerTag": "RoboCop", "prefix": "DARE", "user": {"location": {"city": "Chattanooga", "state": "TN", "country": "United States"}}, "player": {"id": 534974, "gamerTag": "RoboCop", "prefix": "DARE", "user": {"location": {"city": "Chattanooga", "state": "TN", "country": "United States"}}}}]}, "standing": {"placement": 2, "stats": {"score": {"value": 1}}}}], "games": null}]}}}