{"phase": {"seeds": {"pageInfo": {"totalPages": 1, "total": 11}, "nodes": [{"id": 36940405, "seedNum": 1, "entrant": {"id": 21491480, "name": "KumaDusk", "participants": [{"id": 19750010, "gamerTag": "KumaDusk", "prefix": "", "user": {"location": {"city": "Lawrenceville", "state": "GA", "country": "United States"}}, "player": {"id": 253909, "gamerTag": "KumaDusk", "prefix": "", "user": {"location": {"city": "Lawrenceville", "state": "GA", "country": "United States"}}}}]}}, {"id": 36935240, "seedNum": 5, "entrant": {"id": 21487472, "name": "promamamia", "participants": [{"id": 19746402, "gamerTag": "promamamia", "prefix": "", "user": {"location": {"city": "Alpharetta", "state": "GA", "country": "United States"}}, "player": {"id": 3548468, "gamerTag": "promamamia", "prefix": "", "user": {"location": {"city": "Alpharetta", "state": "GA", "country": "United States"}}}}]}}, {"id": 36940770, "seedNum": 2, "entrant": {"id": 21491824, "name": "Typical!", "participants": [{"id": 19750337, "gamerTag": "Typical!", "prefix": "", "user": {"location": {"city": "Cumming", "state": "GA", "country": "United States"}}, "player": {"id": 1227171, "gamerTag": "Typical!", "prefix": "", "user": {"location": {"city": "Cumming", "state": "GA", "country": "United States"}}}}]}}, {"id": 36935530, "seedNum": 3, "entrant": {"id": 21487648, "name": "Jeni", "participants": [{"id": 19746549, "gamerTag": "Jeni", "prefix": "", "user": {"location": {"city": null, "state": null, "country": null}}, "player": {"id": 1499467, "gamerTag": "Jeni", "prefix": "", "user": {"location": {"city": null, "state": null, "country": null}}}}]}}, {"id": 36935478, "seedNum": 4, "entrant": {"id": 21487598, "name": "Heart", "participants": [{"id": 19746512, "gamerTag": "Heart", "prefix": "", "user": {"location": {"city": "Atlanta", "state": "GA", "country": "United States"}}, "player": {"id": 4287822, "gamerTag": "Heart", "prefix": "", "user": {"location": {"city": "Atlanta", "state": "GA", "country": "United States"}}}}]}}, {"id": 36940486, "seedNum": 6, "entrant": {"id": 21491560, "name": "Envexity", "participants": [{"id": 19750080, "gamerTag": "Envexity", "prefix": null, "user": {"location": {"city": "", "state": "GA", "country": "United States"}}, "player": {"id": 4003882, "gamerTag": "Envexity", "prefix": null, "user": {"location": {"city": "", "state": "GA", "country": "United States"}}}}]}}, {"id": 36918764, "seedNum": 8, "entrant": {"id": 21475865, "name": "Billy Jones", "participants": [{"id": 19735920, "gamerTag": "Billy Jones", "prefix": "", "user": {"location": {"city": "Atlanta", "state": "GA", "country": "United States"}}, "player": {"id": 1004383, "gamerTag": "Billy Jones", "prefix": "", "user": {"location": {"city": "Atlanta", "state": "GA", "country": "United States"}}}}]}}, {"id": 36941120, "seedNum": 10, "entrant": {"id": 21492098, "name": "Moopisegg", "participants": [{"id": 19750595, "gamerTag": "Moopisegg", "prefix": "", "user": {"location": {"city": null, "state": null, "country": "United States"}}, "player": {"id": 4680890, "gamerTag": "Moopisegg", "prefix": "", "user": {"location": {"city": null, "state": null, "country": "United States"}}}}]}}, {"id": 36921780, "seedNum": 7, "entrant": {"id": 21478102, "name": "Mighty Morfin", "participants": [{"id": 19737949, "gamerTag": "Mighty Morfin", "prefix": "", "user": {"location": {"city": "Gainesville", "state": "GA", "country": "United States"}}, "player": {"id": 1630530, "gamerTag": "Mighty Morfin", "prefix": "", "user": {"location": {"city": "Gainesville", "state": "GA", "country": "United States"}}}}]}}, {"id": 36937971, "seedNum": 9, "entrant": {"id": 21489639, "name": "Hq", "participants": [{"id": 19748363, "gamerTag": "Hq", "prefix": "", "user": {"location": {"city": "Suwanee", "state": "GA", "country": "United States"}}, "player": {"id": 4680916, "gamerTag": "Hq", "prefix": "", "user": {"location": {"city": "Suwanee", "state": "GA", "country": "United States"}}}}]}}, {"id": 36941712, "seedNum": 11, "entrant": {"id": 21492642, "name": "Hashim", "participants": [{"id": 19751043, "gamerTag": "Hashim", "prefix": "", "user": null, "player": {"id": 5009569, "gamerTag": "Hashim", "prefix": "", "user": null}}]}}]}}}