{"phase": {"seeds": {"pageInfo": {"totalPages": 1, "total": 9}, "nodes": [{"id": 36511109, "seedNum": 2, "entrant": {"id": 21195221, "name": "LTS | Akane", "participants": [{"id": 19492620, "gamerTag": "Akane", "prefix": "LTS", "user": {"location": {"city": "Martinez", "state": "GA", "country": "United States"}}, "player": {"id": 1082873, "gamerTag": "Akane", "prefix": "LTS", "user": {"location": {"city": "Martinez", "state": "GA", "country": "United States"}}}}]}}, {"id": 36511286, "seedNum": 3, "entrant": {"id": 21195322, "name": "DATA | Dirty Llama", "participants": [{"id": 19489558, "gamerTag": "Dirty Llama", "prefix": "DATA", "user": {"location": {"city": "Atlanta", "state": "GA", "country": "United States"}}, "player": {"id": 157755, "gamerTag": "Dirty Llama", "prefix": "DATA", "user": {"location": {"city": "Atlanta", "state": "GA", "country": "United States"}}}}]}}, {"id": 36511288, "seedNum": 1, "entrant": {"id": 21195324, "name": "Se.T! | GioGiost", "participants": [{"id": 19491501, "gamerTag": "GioGiost", "prefix": "Se.T!", "user": {"location": {"city": null, "state": null, "country": null}}, "player": {"id": 2221369, "gamerTag": "GioGiost", "prefix": "Se.T!", "user": {"location": {"city": null, "state": null, "country": null}}}}]}}, {"id": 36511104, "seedNum": 8, "entrant": {"id": 21195216, "name": "Gorduri Cap", "participants": [{"id": 19387925, "gamerTag": "Gorduri Cap", "prefix": "", "user": {"location": {"city": "", "state": "AK", "country": "United States"}}, "player": {"id": 2068683, "gamerTag": "Spauldo", "prefix": "", "user": {"location": {"city": "", "state": "AK", "country": "United States"}}}}]}}, {"id": 36511135, "seedNum": 5, "entrant": {"id": 21195231, "name": "Licorice", "participants": [{"id": 19484530, "gamerTag": "Licorice", "prefix": "", "user": {"location": {"city": null, "state": "GA", "country": "United States"}}, "player": {"id": 3559388, "gamerTag": "Licorice", "prefix": "", "user": {"location": {"city": null, "state": "GA", "country": "United States"}}}}]}}, {"id": 36511094, "seedNum": 9, "entrant": {"id": 21195206, "name": "Amatsumara", "participants": [{"id": 19456246, "gamerTag": "Amatsumara", "prefix": "", "user": {"location": {"city": null, "state": null, "country": "United States"}}, "player": {"id": 3592419, "gamerTag": "Amatsumara", "prefix": "", "user": {"location": {"city": null, "state": null, "country": "United States"}}}}]}}, {"id": 36509873, "seedNum": 4, "entrant": {"id": 21194581, "name": "CV | NiNE", "participants": [{"id": 19482454, "gamerTag": "NiNE", "prefix": "CV", "user": {"location": {"city": "Augusta", "state": "GA", "country": "United States"}}, "player": {"id": 25337, "gamerTag": "NiNE", "prefix": "CV", "user": {"location": {"city": "Augusta", "state": "GA", "country": "United States"}}}}]}}, {"id": 36509870, "seedNum": 7, "entrant": {"id": 21194578, "name": "ATLRiot", "participants": [{"id": 19399903, "gamerTag": "ATLRiot", "prefix": null, "user": {"location": {"city": "Augusta", "state": "GA", "country": "United States"}}, "player": {"id": 2057913, "gamerTag": "ATLRiot", "prefix": "", "user": {"location": {"city": "Augusta", "state": "GA", "country": "United States"}}}}]}}, {"id": 36511133, "seedNum": 6, "entrant": {"id": 21195230, "name": "cheddarcola", "participants": [{"id": 19488143, "gamerTag": "cheddarcola", "prefix": null, "user": {"location": {"city": null, "state": null, "country": "United States"}}, "player": {"id": 4724537, "gamerTag": "cheddarcola", "prefix": null, "user": {"location": {"city": null, "state": null, "country": "United States"}}}}]}}]}}}