{"phase": {"seeds": {"pageInfo": {"totalPages": 1, "total": 8}, "nodes": [{"id": 35945878, "seedNum": 1, "entrant": {"id": 20796652, "name": "NLP | iNGenius", "participants": [{"id": 19139604, "gamerTag": "iNGenius", "prefix": "NLP", "user": {"location": {"city": null, "state": null, "country": null}}, "player": {"id": 3194293, "gamerTag": "iNGenius", "prefix": "", "user": {"location": {"city": null, "state": null, "country": null}}}}]}}, {"id": 35945879, "seedNum": 2, "entrant": {"id": 20832133, "name": "FAT | Phantomtheif", "participants": [{"id": 19170524, "gamerTag": "Phantomtheif", "prefix": "FAT", "user": {"location": {"city": "Columbus", "state": "AL", "country": "United States"}}, "player": {"id": 469237, "gamerTag": "Phantomtheif", "prefix": "FAT", "user": {"location": {"city": "Columbus", "state": "AL", "country": "United States"}}}}]}}, {"id": 35945882, "seedNum": 5, "entrant": {"id": 20833887, "name": "SPLY-350 | Yeezus", "participants": [{"id": 19172065, "gamerTag": "Yeezus", "prefix": "SPLY-350", "user": {"location": {"city": "Fort Moore", "state": "GA", "country": "United States"}}, "player": {"id": 3988141, "gamerTag": "Yeezus", "prefix": "SPLY-350", "user": {"location": {"city": "Fort Moore", "state": "GA", "country": "United States"}}}}]}}, {"id": 35945881, "seedNum": 4, "entrant": {"id": 20833311, "name": "Andromeda", "participants": [{"id": 19171557, "gamerTag": "Andromeda", "prefix": "", "user": {"location": {"city": "Columbus", "state": "GA", "country": "United States"}}, "player": {"id": 1458791, "gamerTag": "Andromeda", "prefix": "", "user": {"location": {"city": "Columbus", "state": "GA", "country": "United States"}}}}]}}, {"id": 35945880, "seedNum": 3, "entrant": {"id": 20780775, "name": "Cryptonite", "participants": [{"id": 19124743, "gamerTag": "Cryptonite", "prefix": null, "user": {"location": {"city": "Hamilton", "state": "GA", "country": "United States"}}, "player": {"id": 2300323, "gamerTag": "Cryptonite", "prefix": "Ashm", "user": {"location": {"city": "Hamilton", "state": "GA", "country": "United States"}}}}]}}, {"id": 35945883, "seedNum": 6, "entrant": {"id": 20792500, "name": "OGS Dog", "participants": [{"id": 19135681, "gamerTag": "OGS Dog", "prefix": null, "user": {"location": {"city": "Columbus", "state": "GA", "country": "United States"}}, "player": {"id": 2152632, "gamerTag": "OGS Dog", "prefix": "VES", "user": {"location": {"city": "Columbus", "state": "GA", "country": "United States"}}}}]}}, {"id": 35945884, "seedNum": 7, "entrant": {"id": 20827807, "name": "jigglypuff", "participants": [{"id": 19166446, "gamerTag": "jigglypuff", "prefix": null, "user": {"location": {"city": "Columbus", "state": "GA", "country": "United States"}}, "player": {"id": 2592456, "gamerTag": "jigglypuff", "prefix": null, "user": {"location": {"city": "Columbus", "state": "GA", "country": "United States"}}}}]}}, {"id": 35945885, "seedNum": 8, "entrant": {"id": 20792352, "name": "Hurzt", "participants": [{"id": 19135557, "gamerTag": "Hurzt", "prefix": null, "user": {"location": {"city": null, "state": "GA", "country": "United States"}}, "player": {"id": 2717522, "gamerTag": "Hurzt", "prefix": "INHALE", "user": {"location": {"city": null, "state": "GA", "country": "United States"}}}}]}}]}}}