{"event": {"sets": {"pageInfo": {"totalPages": 3, "total": 34}, "nodes": [{"id": 94252063, "state": 3, "round": -4, "fullRoundText": "Losers Round 1", "completedAt": 1758675010, "winnerId": 21359090, "slots": [{"id": "94252063-0", "entrant": {"id": 21332179, "name": "Jonathanos", "participants": [{"id": 19610585, "gamerTag": "Jonathanos", "prefix": "", "user": {"location": {"city": "Gainesville", "state": "GA", "country": "United States"}}, "player": {"id": 4256502, "gamerTag": "Jonathanos", "prefix": "", "user": {"location": {"city": "Gainesville", "state": "GA", "country": "United States"}}}}]}, "standing": {"placement": 2, "stats": {"score": {"value": 1}}}}, {"id": "94252063-1", "entrant": {"id": 21359090, "name": "bradido", "participants": [{"id": 19634952, "gamerTag": "bradido", "prefix": null, "user": {"location": {"city": "Roswell", "state": "GA", "country": "United States"}}, "player": {"id": 459011, "gamerTag": "bradido", "prefix": null, "user": {"location": {"city": "Roswell", "state": "GA", "country": "United States"}}}}]}, "standing": {"placement": 1, "stats": {"score": {"value": 3}}}}], "games": null}, {"id": 94252067, "state": 3, "round": -4, "fullRoundText": "Losers Round 1", "completedAt": 1758674521, "winnerId": 21347710, "slots": [{"id": "94252067-0", "entrant": {"id": 21347710, "name": "bsharkz", "participants": [{"id": 19624546, "gamerTag": "bsharkz", "prefix": "", "user": {"location": {"city": "Atlanta", "state": "FL", "country": "United States"}}, "player": {"id": 4297884, "gamerTag": "bsharkz", "prefix": "", "user": {"location": {"city": "Atlanta", "state": "FL", "country": "United States"}}}}]}, "standing": {"placement": 1, "stats": {"score": {"value": null}}}}, {"id": "94252067-1", "entrant": {"id": 21359723, "name": "Deph", "participants": [{"id": 19635526, "gamerTag": "Deph", "prefix": null, "user": {"location": {"city": "Atlanta", "state": "GA", "country": "United States"}}, "player": {"id": 3498977, "gamerTag": "Deph", "prefix": null, "user": {"location": {"city": "Atlanta", "state": "GA", "country": "United States"}}}}]}, "standing": {"placement": 2, "stats": {"score": {"value": -1}}}}], "games": null}, {"id": 94251991, "state": 3, "round": 1, "fullRoundText": "Winners Round 1", "completedAt": 1758673918, "winnerId": 21360500, "slots": [{"id": "94251991-0", "entrant": {"id": 21360500, "name": "Necro17", "participants": [{"id": 19636202, "gamerTag": "Necro17", "prefix": null, "user": {"location": {"city": "Alpharetta", "state": "GA", "country": "United States"}}, "player": {"id": 4983658, "gamerTag": "Necro17", "prefix": null, "user": {"location": {"city": "Alpharetta", "state": "GA", "country": "United States"}}}}]}, "standing": {"placement": 1, "stats": {"score": {"value": 3}}}}, {"id": "94251991-1", "entrant": {"id": 21359090, "name": "bradido", "participants": [{"id": 19634952, "gamerTag": "bradido", "prefix": null, "user": {"location": {"city": "Roswell", "state": "GA", "country": "United States"}}, "player": {"id": 459011, "gamerTag": "bradido", "prefix": null, "user": {"location": {"city": "Roswell", "state": "GA", "country": "United States"}}}}]}, "standing": {"placement": 2, "stats": {"score": {"value": 0}}}}], "games": null}, {"id": 94251999, "state": 3, "round": 1, "fullRoundText": "Winners Round 1", "completedAt": 1758673966, "winnerId": 21360876, "slots": [{"id": "94251999-0", "entrant": {"id": 21359723, "name": "Deph", "participants": [{"id": 19635526, "gamerTag": "Deph", "prefix": null, "user": {"location": {"city": "Atlanta", "state": "GA", "country": "United States"}}, "player": {"id": 3498977, "gamerTag": "Deph", "prefix": null, "user": {"location": {"city": "Atlanta", "state": "GA", "country": "United States"}}}}]}, "standing": {"placement": 2, "stats": {"score": {"value": 0}}}}, {"id": "94251999-1", "entrant": {"id": 21360876, "name": "Gelsk", "participants": [{"id": 19636547, "gamerTag": "Gelsk", "prefix": "", "user": null, "player": {"id": 4990406, "gamerTag": "Gelsk", "prefix": "", "user": null}}]}, "standing": {"placement": 1, "stats": {"score": {"value": 3}}}}], "games": null}]}}}