{"event": {"sets": {"pageInfo": {"totalPages": 3, "total": 31}, "nodes": [{"id": 91619864, "state": 3, "round": -4, "fullRoundText": "Losers Round 2", "completedAt": 1752970220, "winnerId": 20740800, "slots": [{"id": "91619864-0", "entrant": {"id": 20741493, "name": "TS | Static", "participants": [{"id": 19087466, "gamerTag": "Static", "prefix": "TS", "user": {"location": {"city": null, "state": null, "country": "United States"}}, "player": {"id": 298731, "gamerTag": "Static", "prefix": "TS", "user": {"location": {"city": null, "state": null, "country": "United States"}}}}]}, "standing": {"placement": 2, "stats": {"score": {"value": 1}}}}, {"id": "91619864-1", "entrant": {"id": 20740800, "name": "InIt2WynneIt", "participants": [{"id": 19086800, "gamerTag": "InIt2WynneIt", "prefix": "", "user": {"location": {"city": "LAWRENCEVILLE", "state": "GA", "country": "United States"}}, "player": {"id": 260407, "gamerTag": "InIt2WynneIt", "prefix": "", "user": {"location": {"city": "LAWRENCEVILLE", "state": "GA", "country": "United States"}}}}]}, "standing": {"placement": 1, "stats": {"score": {"value": 2}}}}], "games": null}, {"id": 91619865, "state": 3, "round": -4, "fullRoundText": "Losers Round 2", "completedAt": 1752969110, "winnerId": 20742407, "slots": [{"id": "91619865-0", "entrant": {"id": 20742407, "name": "JJBREEZE", "participants": [{"id": 19088328, "gamerTag": "JJBREEZE", "prefix": "", "user": {"location": {"city": "Atlanta", "state": "GA", "country": "United States"}}, "player": {"id": 688460, "gamerTag": "JJBREEZE", "prefix": "", "user": {"location": {"city": "Atlanta", "state": "GA", "country": "United States"}}}}]}, "standing": {"placement": 1, "stats": {"score": {"value": 2}}}}, {"id": "91619865-1", "entrant": {"id": 20740586, "name": "4o4 | Yugo", "participants": [{"id": 19086573, "gamerTag": "Yugo", "prefix": "4o4", "user": {"location": {"city": "Sandy springs", "state": "GA", "country": "United States"}}, "player": {"id": 338020, "gamerTag": "Yugo", "prefix": "4o4", "user": {"location": {"city": "Sandy springs", "state": "GA", "country": "United States"}}}}]}, "standing": {"placement": 2, "stats": {"score": {"value": 0}}}}], "games": null}, {"id": 91619866, "state": 3, "round": -4, "fullRoundText": "Losers Round 2", "completedAt": 1752969882, "winnerId": 20720200, "slots": [{"id": "91619866-0", "entrant": {"id": 20735956, "name": "4o4 | KhalRhaego", "participants": [{"id": 19082751, "gamerTag": "KhalRhaego", "prefix": "4o4", "user": {"location": {"city": "Jonesboro", "state": "GA", "country": "United States"}}, "player": {"id": 4076327, "gamerTag": "KhalRhaego", "prefix": "BOLT", "user": {"location": {"city": "Jonesboro", "state": "GA", "country": "United States"}}}}]}, "standing": {"placement": 2, "stats": {"score": {"value": 0}}}}, {"id": "91619866-1", "entrant": {"id": 20720200, "name": "GCH | slaughterwall", "participants": [{"id": 19069358, "gamerTag": "slaughterwall", "prefix": "GCH", "user": {"location": {"city": "Atlanta", "state": "GA", "country": "United States"}}, "player": {"id": 1104452, "gamerTag": "slaughterwall", "prefix": "GCH", "user": {"location": {"city": "Atlanta", "state": "GA", "country": "United States"}}}}]}, "standing": {"placement": 1, "stats": {"score": {"value": 2}}}}], "games": null}, {"id": 91619867, "state": 3, "round": -4, "fullRoundText": "Losers Round 2", "completedAt": 1752970160, "winnerId": 20742742, "slots": [{"id": "91619867-0", "entrant": {"id": 20742742, "name": "Iso.Dgaf", "participants": [{"id": 19088630, "gamerTag": "Iso.Dgaf", "prefix": null, "user": {"location": {"city": "Acworth", "state": "GA", "country": "United States"}}, "player": {"id": 4285541, "gamerTag": "Iso.Dgaf", "prefix": null, "user": {"location": {"city": "Acworth", "state": "GA", "country": "United States"}}}}]}, "standing": {"placement": 1, "stats": {"score": {"value": 2}}}}, {"id": "91619867-1", "entrant": {"id": 20716573, "name": "ofito95", "participants": [{"id": 19066179, "gamerTag": "ofito95", "prefix": null, "user": {"location": {"city": "Atlanta", "state": "NJ", "country": "United States"}}, "player": {"id": 490676, "gamerTag": "ofito95", "prefix": null, "user": {"location": {"city": "Atlanta", "state": "NJ", "country": "United States"}}}}]}, "standing": {"placement": 2, "stats": {"score": {"value": 1}}}}], "games": null}, {"id": 91619860, "state": 3, "round": -3, "fullRoundText": "Losers Round 1", "completedAt": 1752968492, "winnerId": 20740800, "slots": [{"id": "91619860-0", "entrant": {"id": 20718885, "name": "4o4 | AShavers21", "participants": [{"id": 19068156, "gamerTag": "AShavers21", "prefix": "4o4", "user": {"location": {"city": "Atlanta", "state": "GA", "country": "United States"}}, "player": {"id": 437583, "gamerTag": "AShavers21", "prefix": "4o4", "user": {"location": {"city": "Atlanta", "state": "GA", "country": "United States"}}}}]}, "standing": {"placement": 2, "stats": {"score": {"value": 0}}}}, {"id": "91619860-1", "entrant": {"id": 20740800, "name": "InIt2WynneIt", "participants": [{"id": 19086800, "gamerTag": "InIt2WynneIt", "prefix": "", "user": {"location": {"city": "LAWRENCEVILLE", "state": "GA", "country": "United States"}}, "player": {"id": 260407, "gamerTag": "InIt2WynneIt", "prefix": "", "user": {"location": {"city": "LAWRENCEVILLE", "state": "GA", "country": "United States"}}}}]}, "standing": {"placement": 1, "stats": {"score": {"value": 2}}}}], "games": null}, {"id": 91619861, "state": 3, "round": -3, "fullRoundText": "Losers Round 1", "completedAt": 1752967933, "winnerId": 20740586, "slots": [{"id": "91619861-0", "entrant": {"id": 20740586, "name": "4o4 | Yugo", "participants": [{"id": 19086573, "gamerTag": "Yugo", "prefix": "4o4", "user": {"location": {"city": "Sandy springs", "state": "GA", "country": "United States"}}, "player": {"id": 338020, "gamerTag": "Yugo", "prefix": "4o4", "user": {"location": {"city": "Sandy springs", "state": "GA", "country": "United States"}}}}]}, "standing": {"placement": 1, "stats": {"score": {"value": null}}}}, {"id": "91619861-1", "entrant": {"id": 20716302, "name": "XEON", "participants": [{"id": 19065982, "gamerTag": "XEON", "prefix": "", "user": {"location": {"city": "Greer", "state": "SC", "country": "United States"}}, "player": {"id": 2626711, "gamerTag": "XEON", "prefix": "", "user": {"location": {"city": "Greer", "state": "SC", "country": "United States"}}}}]}, "standing": {"placement": 2, "stats": {"score": {"value": -1}}}}], "games": null}, {"id": 91619862, "state": 3, "round": -3, "fullRoundText": "Losers Round 1", "completedAt": 1752968720, "winnerId": 20720200, "slots": [{"id": "91619862-0", "entrant": {"id": 20742406, "name": "ZanyZeta", "participants": [{"id": 19088327, "gamerTag": "ZanyZeta", "prefix": null, "user": {"location": {"city": null, "state": null, "country": null}}, "player": {"id": 4500557, "gamerTag": "ZanyZeta", "prefix": null, "user": {"location": {"city": null, "state": null, "country": null}}}}]}, "standing": {"placement": 2, "stats": {"score": {"value": 0}}}}, {"id": "91619862-1", "entrant": {"id": 20720200, "name": "GCH | slaughterwall", "participants": [{"id": 19069358, "gamerTag": "slaughterwall", "prefix": "GCH", "user": {"location": {"city": "Atlanta", "state": "GA", "country": "United States"}}, "player": {"id": 1104452, "gamerTag": "slaughterwall", "prefix": "GCH", "user": {"location": {"city": "Atlanta", "state": "GA", "country": "United States"}}}}]}, "standing": {"placement": 1, "stats": {"score": {"value": 2}}}}], "games": null}, {"id": 91619863, "state": 3, "round": -3, "fullRoundText": "Losers Round 1", "completedAt": 1752969392, "winnerId": 20716573, "slots": [{"id": "91619863-0", "entrant": {"id": 20741655, "name": "Azarlith", "participants": [{"id": 19087626, "gamerTag": "Azarlith", "prefix": "", "user": {"location": {"city": "Lawrenceville", "state": null, "country": "United States"}}, "player": {"id": 3444743, "gamerTag": "Azarlith", "prefix": "", "user": {"location": {"city": "Lawrenceville", "state": null, "country": "United States"}}}}]}, "standing": {"placement": 2, "stats": {"score": {"value": 1}}}}, {"id": "91619863-1", "entrant": {"id": 20716573, "name": "ofito95", "participants": [{"id": 19066179, "gamerTag": "ofito95", "prefix": null, "user": {"location": {"city": "Atlanta", "state": "NJ", "country": "United States"}}, "player": {"id": 490676, "gamerTag": "ofito95", "prefix": null, "user": {"location": {"city": "Atlanta", "state": "NJ", "country": "United States"}}}}]}, "standing": {"placement": 1, "stats": {"score": {"value": 2}}}}], "games": null}, {"id": 91619827, "state": 3, "round": 1, "fullRoundText": "Winners Round 1", "completedAt": 1752967863, "winnerId": 20740092, "slots": [{"id": "91619827-0", "entrant": {"id": 20740092, "name": "Pokchop", "participants": [{"id": 19086126, "gamerTag": "Pokchop", "prefix": "", "user": {"location": {"city": "Atlanta", "state": "GA", "country": "United States"}}, "player": {"id": 150402, "gamerTag": "Pokchop", "prefix": "", "user": {"location": {"city": "Atlanta", "state": "GA", "country": "United States"}}}}]}, "standing": {"placement": 1, "stats": {"score": {"value": 2}}}}, {"id": "91619827-1", "entrant": {"id": 20718885, "name": "4o4 | AShavers21", "participants": [{"id": 19068156, "gamerTag": "AShavers21", "prefix": "4o4", "user": {"location": {"city": "Atlanta", "state": "GA", "country": "United States"}}, "player": {"id": 437583, "gamerTag": "AShavers21", "prefix": "4o4", "user": {"location": {"city": "Atlanta", "state": "GA", "country": "United States"}}}}]}, "standing": {"placement": 2, "stats": {"score": {"value": 0}}}}], "games": null}, {"id": 91619828, "state": 3, "round": 1, "fullRoundText": "Winners Round 1", "completedAt": 1752968023, "winnerId": 20742742, "slots": [{"id": "91619828-0", "entrant": {"id": 20742742, "name": "Iso.Dgaf", "participants": [{"id": 19088630, "gamerTag": "Iso.Dgaf", "prefix": null, "user": {"location": {"city": "Acworth", "state": "GA", "country": "United States"}}, "player": {"id": 4285541, "gamerTag": "Iso.Dgaf", "prefix": null, "user": {"location": {"city": "Acworth", "state": "GA", "country": "United States"}}}}]}, "standing": {"placement": 1, "stats": {"score": {"value": 2}}}}, {"id": "91619828-1", "entrant": {"id": 20740800, "name": "InIt2WynneIt", "participants": [{"id": 19086800, "gamerTag": "InIt2WynneIt", "prefix": "", "user": {"location": {"city": "LAWRENCEVILLE", "state": "GA", "country": "United States"}}, "player": {"id": 260407, "gamerTag": "InIt2WynneIt", "prefix": "", "user": {"location": {"city": "LAWRENCEVILLE", "state": "GA", "country": "United States"}}}}]}, "standing": {"placement": 2, "stats": {"score": {"value": 1}}}}], "games": null}, {"id": 91619829, "state": 3, "round": 1, "fullRoundText": "Winners Round 1", "completedAt": 1752967867, "winnerId": 20740851, "slots": [{"id": "91619829-0", "entrant": {"id": 20740851, "name": "duetosideeffects", "participants": [{"id": 19086845, "gamerTag": "duetosideeffects", "prefix": "", "user": {"location": {"city": "Atlanta", "state": "GA", "country": "United States"}}, "player": {"id": 924041, "gamerTag": "duetosideeffects", "prefix": "", "user": {"location": {"city": "Atlanta", "state": "GA", "country": "United States"}}}}]}, "standing": {"placement": 1, "stats": {"score": {"value": 2}}}}, {"id": "91619829-1", "entrant": {"id": 20740586, "name": "4o4 | Yugo", "participants": [{"id": 19086573, "gamerTag": "Yugo", "prefix": "4o4", "user": {"location": {"city": "Sandy springs", "state": "GA", "country": "United States"}}, "player": {"id": 338020, "gamerTag": "Yugo", "prefix": "4o4", "user": {"location": {"city": "Sandy springs", "state": "GA", "country": "United States"}}}}]}, "standing": {"placement": 2, "stats": {"score": {"value": 0}}}}], "games": null}, {"id": 91619830, "state": 3, "round": 1, "fullRoundText": "Winners Round 1", "completedAt": 1752967669, "winnerId": 20735956, "slots": [{"id": "91619830-0", "entrant": {"id": 20735956, "name": "4o4 | KhalRhaego", "participants": [{"id": 19082751, "gamerTag": "KhalRhaego", "prefix": "4o4", "user": {"location": {"city": "Jonesboro", "state": "GA", "country": "United States"}}, "player": {"id": 4076327, "gamerTag": "KhalRhaego", "prefix": "BOLT", "user": {"location": {"city": "Jonesboro", "state": "GA", "country": "United States"}}}}]}, "standing": {"placement": 1, "stats": {"score": {"value": null}}}}, {"id": "91619830-1", "entrant": {"id": 20716302, "name": "XEON", "participants": [{"id": 19065982, "gamerTag": "XEON", "prefix": "", "user": {"location": {"city": "Greer", "state": "SC", "country": "United States"}}, "player": {"id": 2626711, "gamerTag": "XEON", "prefix": "", "user": {"location": {"city": "Greer", "state": "SC", "country": "United States"}}}}]}, "standing": {"placement": 2, "stats": {"score": {"value": -1}}}}], "games": null}, {"id": 91619831, "state": 3, "round": 1, "fullRoundText": "Winners Round 1", "completedAt": 1752968035, "winnerId": 20742407, "slots": [{"id": "91619831-0", "entrant": {"id": 20742407, "name": "JJBREEZE", "participants": [{"id": 19088328, "gamerTag": "JJBREEZE", "prefix": "", "user": {"location": {"city": "Atlanta", "state": "GA", "country": "United States"}}, "player": {"id": 688460, "gamerTag": "JJBREEZE", "prefix": "", "user": {"location": {"city": "Atlanta", "state": "GA", "country": "United States"}}}}]}, "standing": {"placement": 1, "stats": {"score": {"value": 2}}}}, {"id": "91619831-1", "entrant": {"id": 20742406, "name": "ZanyZeta", "participants": [{"id": 19088327, "gamerTag": "ZanyZeta", "prefix": null, "user": {"location": {"city": null, "state": null, "country": null}}, "player": {"id": 4500557, "gamerTag": "ZanyZeta", "prefix": null, "user": {"location": {"city": null, "state": null, "country": null}}}}]}, "standing": {"placement": 2, "stats": {"score": {"value": 0}}}}], "games": null}, {"id": 91619832, "state": 3, "round": 1, "fullRoundText": "Winners Round 1", "completedAt": 1752968103, "winnerId": 20742929, "slots": [{"id": "91619832-0", "entrant": {"id": 20720200, "name": "GCH | slaughterwall", "participants": [{"id": 19069358, "gamerTag": "slaughterwall", "prefix": "GCH", "user": {"location": {"city": "Atlanta", "state": "GA", "country": "United States"}}, "player": {"id": 1104452, "gamerTag": "slaughterwall", "prefix": "GCH", "user": {"location": {"city": "Atlanta", "state": "GA", "country": "United States"}}}}]}, "standing": {"placement": 2, "stats": {"score": {"value": 1}}}}, {"id": "91619832-1", "entrant": {"id": 20742929, "name": "juice", "participants": [{"id": 19088814, "gamerTag": "juice", "prefix": "", "user": {"location": {"city": "atlanta", "state": "GA", "country": "United States"}}, "player": {"id": 146905, "gamerTag": "juice", "prefix": "100%", "user": {"location": {"city": "atlanta", "state": "GA", "country": "United States"}}}}]}, "standing": {"placement": 1, "stats": {"score": {"value": 2}}}}], "games": null}, {"id": 91619833, "state": 3, "round": 1, "fullRoundText": "Winners Round 1", "completedAt": 1752967926, "winnerId": 20732989, "slots": [{"id": "91619833-0", "entrant": {"id": 20732989, "name": "O.N.2", "participants": [{"id": 19080366, "gamerTag": "O.N.2", "prefix": "", "user": {"location": {"city": "SNELLVILLE", "state": "GA", "country": "United States"}}, "player": {"id": 1042436, "gamerTag": "O.N.2", "prefix": "", "user": {"location": {"city": "SNELLVILLE", "state": "GA", "country": "United States"}}}}]}, "standing": {"placement": 1, "stats": {"score": {"value": 2}}}}, {"id": "91619833-1", "entrant": {"id": 20741655, "name": "Azarlith", "participants": [{"id": 19087626, "gamerTag": "Azarlith", "prefix": "", "user": {"location": {"city": "Lawrenceville", "state": null, "country": "United States"}}, "player": {"id": 3444743, "gamerTag": "Azarlith", "prefix": "", "user": {"location": {"city": "Lawrenceville", "state": null, "country": "United States"}}}}]}, "standing": {"placement": 2, "stats": {"score": {"value": 0}}}}], "games": null}]}}}