{"phase": {"seeds": {"pageInfo": {"totalPages": 1, "total": 14}, "nodes": [{"id": 36191069, "seedNum": 1, "entrant": {"id": 20982615, "name": "Mrbray30", "participants": [{"id": 19297161, "gamerTag": "Mrbray30", "prefix": "", "user": {"location": {"city": "Atlanta", "state": "GA", "country": "United States"}}, "player": {"id": 4664413, "gamerTag": "Mrbray30", "prefix": "", "user": {"location": {"city": "Atlanta", "state": "GA", "country": "United States"}}}}]}}, {"id": 36191111, "seedNum": 2, "entrant": {"id": 20982622, "name": "KUMA| | EL MACHO", "participants": [{"id": 19299140, "gamerTag": "EL MACHO", "prefix": "KUMA|", "user": {"location": {"city": null, "state": null, "country": "United States"}}, "player": {"id": 997285, "gamerTag": "Steamedklams", "prefix": "KUMA|", "user": {"location": {"city": null, "state": null, "country": "United States"}}}}]}}, {"id": 36191130, "seedNum": 3, "entrant": {"id": 20982638, "name": "Nurikami", "participants": [{"id": 19300406, "gamerTag": "Nurikami", "prefix": null, "user": {"location": {"city": "Sandy Springs", "state": "GA", "country": "United States"}}, "player": {"id": 2894467, "gamerTag": "Nurikami", "prefix": null, "user": {"location": {"city": "Sandy Springs", "state": "GA", "country": "United States"}}}}]}}, {"id": 36191144, "seedNum": 4, "entrant": {"id": 20982644, "name": "Tilted", "participants": [{"id": 19301128, "gamerTag": "Tilted", "prefix": null, "user": {"location": {"city": "Norcross", "state": "GA", "country": "United States"}}, "player": {"id": 2377635, "gamerTag": "Tilted", "prefix": null, "user": {"location": {"city": "Norcross", "state": "GA", "country": "United States"}}}}]}}, {"id": 36191168, "seedNum": 5, "entrant": {"id": 20982667, "name": "SamRice", "participants": [{"id": 19296976, "gamerTag": "SamRice", "prefix": "", "user": {"location": {"city": "Norcross", "state": "GA", "country": "United States"}}, "player": {"id": 2387403, "gamerTag": "SamRice", "prefix": "", "user": {"location": {"city": "Norcross", "state": "GA", "country": "United States"}}}}]}}, {"id": 36191243, "seedNum": 6, "entrant": {"id": 20982695, "name": "TFT | TFT - Guillotine", "participants": [{"id": 19299257, "gamerTag": "TFT - Guillotine", "prefix": "TFT", "user": {"location": {"city": "Atlanta", "state": "GA", "country": "United States"}}, "player": {"id": 4263821, "gamerTag": "TFT - Guillotine", "prefix": "TFT", "user": {"location": {"city": "Atlanta", "state": "GA", "country": "United States"}}}}]}}, {"id": 36191247, "seedNum": 7, "entrant": {"id": 20982696, "name": "Psystrike", "participants": [{"id": 19301256, "gamerTag": "Psystrike", "prefix": "", "user": {"location": {"city": null, "state": "SC", "country": "United States"}}, "player": {"id": 2161444, "gamerTag": "Psystrike", "prefix": "", "user": {"location": {"city": null, "state": "SC", "country": "United States"}}}}]}}, {"id": 36191248, "seedNum": 8, "entrant": {"id": 20982697, "name": "Hollybot", "participants": [{"id": 19301024, "gamerTag": "Hollybot", "prefix": null, "user": {"location": {"city": "Atlanta", "state": "GA", "country": "United States"}}, "player": {"id": 4431125, "gamerTag": "Hollybot", "prefix": null, "user": {"location": {"city": "Atlanta", "state": "GA", "country": "United States"}}}}]}}, {"id": 36191249, "seedNum": 9, "entrant": {"id": 20982698, "name": "RAMS | XL Dukie AF", "participants": [{"id": 19302075, "gamerTag": "XL Dukie AF", "prefix": "RAMS", "user": {"location": {"city": "Peachtree Corners", "state": "GA", "country": "United States"}}, "player": {"id": 2374690, "gamerTag": "XL Dukie AF", "prefix": "RAMS", "user": {"location": {"city": "Peachtree Corners", "state": "GA", "country": "United States"}}}}]}}, {"id": 36191250, "seedNum": 10, "entrant": {"id": 20982699, "name": "Skittles", "participants": [{"id": 19299545, "gamerTag": "Skittles", "prefix": "", "user": {"location": {"city": "Kennesaw", "state": "GA", "country": "United States"}}, "player": {"id": 4621888, "gamerTag": "Skittles", "prefix": "", "user": {"location": {"city": "Kennesaw", "state": "GA", "country": "United States"}}}}]}}, {"id": 36191257, "seedNum": 11, "entrant": {"id": 20982706, "name": "Gush", "participants": [{"id": 19300909, "gamerTag": "Gush", "prefix": "", "user": {"location": {"city": "Atlanta", "state": "GA", "country": "United States"}}, "player": {"id": 1246820, "gamerTag": "Gush", "prefix": "", "user": {"location": {"city": "Atlanta", "state": "GA", "country": "United States"}}}}]}}, {"id": 36191258, "seedNum": 12, "entrant": {"id": 20982710, "name": "Spenzobenzo", "participants": [{"id": 19298009, "gamerTag": "Spenzobenzo", "prefix": "", "user": {"location": {"city": "Stone Mountain", "state": "GA", "country": "United States"}}, "player": {"id": 4924927, "gamerTag": "Spenzobenzo", "prefix": "", "user": {"location": {"city": "Stone Mountain", "state": "GA", "country": "United States"}}}}]}}, {"id": 36191263, "seedNum": 13, "entrant": {"id": 20982712, "name": "itsmerashad", "participants": [{"id": 19301227, "gamerTag": "itsmerashad", "prefix": "", "user": null, "player": {"id": 4925484, "gamerTag": "itsmerashad", "prefix": "", "user": null}}]}}, {"id": 36191268, "seedNum": 14, "entrant": {"id": 20982717, "name": "PrivilegeTaker", "participants": [{"id": 19300957, "gamerTag": "PrivilegeTaker", "prefix": null, "user": {"location": {"city": "Stone Mountain", "state": "GA", "country": "United States"}}, "player": {"id": 4925428, "gamerTag": "PrivilegeTaker", "prefix": null, "user": {"location": {"city": "Stone Mountain", "state": "GA", "country": "United States"}}}}]}}]}}}