{"event": {"sets": {"pageInfo": {"totalPages": 4, "total": 48}, "nodes": [{"id": 92036336, "state": 3, "round": 1, "fullRoundText": "Winners Round 1", "completedAt": 1753836045, "winnerId": 20836892, "slots": [{"id": "92036336-0", "entrant": {"id": 20836892, "name": "MBossProductions", "participants": [{"id": 19174585, "gamerTag": "MBossProductions", "prefix": "", "user": {"location": {"city": "Norcross", "state": "GA", "country": "United States"}}, "player": {"id": 1997490, "gamerTag": "MBossProductions", "prefix": "", "user": {"location": {"city": "Norcross", "state": "GA", "country": "United States"}}}}]}, "standing": {"placement": 1, "stats": {"score": {"value": 3}}}}, {"id": "92036336-1", "entrant": {"id": 20836709, "name": "K4", "participants": [{"id": 19174415, "gamerTag": "K4", "prefix": null, "user": {"location": {"city": "Atlanta", "state": "GA", "country": "United States"}}, "player": {"id": 3508179, "gamerTag": "K4", "prefix": null, "user": {"location": {"city": "Atlanta", "state": "GA", "country": "United States"}}}}]}, "standing": {"placement": 2, "stats": {"score": {"value": 1}}}}], "games": null}, {"id": 92036338, "state": 3, "round": 1, "fullRoundText": "Winners Round 1", "completedAt": 1753835379, "winnerId": 20831883, "slots": [{"id": "92036338-0", "entrant": {"id": 20831883, "name": "Pazure", "participants": [{"id": 19170310, "gamerTag": "Pazure", "prefix": null, "user": {"location": {"city": null, "state": null, "country": "United States"}}, "player": {"id": 72218, "gamerTag": "Pazure", "prefix": null, "user": {"location": {"city": null, "state": null, "country": "United States"}}}}]}, "standing": {"placement": 1, "stats": {"score": {"value": 3}}}}, {"id": "92036338-1", "entrant": {"id": 20836573, "name": "Xanadew", "participants": [{"id": 19174314, "gamerTag": "Xanadew", "prefix": "", "user": {"location": {"city": "Milton", "state": null, "country": "United States"}}, "player": {"id": 3477650, "gamerTag": "Xanadew", "prefix": "", "user": {"location": {"city": "Milton", "state": null, "country": "United States"}}}}]}, "standing": {"placement": 2, "stats": {"score": {"value": 0}}}}], "games": null}, {"id": 92036340, "state": 3, "round": 1, "fullRoundText": "Winners Round 1", "completedAt": 1753835601, "winnerId": 20831754, "slots": [{"id": "92036340-0", "entrant": {"id": 20831754, "name": "EDLN | Ultimaleo", "participants": [{"id": 19170192, "gamerTag": "Ultimaleo", "prefix": "EDLN", "user": {"location": {"city": "Norcross", "state": "GA", "country": "United States"}}, "player": {"id": 66886, "gamerTag": "Ultimaleo", "prefix": "EDLN", "user": {"location": {"city": "Norcross", "state": "GA", "country": "United States"}}}}]}, "standing": {"placement": 1, "stats": {"score": {"value": 3}}}}, {"id": "92036340-1", "entrant": {"id": 20836669, "name": "FGCBoomers | PotionSTAT", "participants": [{"id": 19174389, "gamerTag": "PotionSTAT", "prefix": "FGCBoomers", "user": {"location": {"city": "Atlanta", "state": "GA", "country": "United States"}}, "player": {"id": 3280223, "gamerTag": "PotionSTAT", "prefix": "FGCBoomers", "user": {"location": {"city": "Atlanta", "state": "GA", "country": "United States"}}}}]}, "standing": {"placement": 2, "stats": {"score": {"value": 2}}}}], "games": null}]}}}