{"event": {"sets": {"pageInfo": {"totalPages": 22, "total": 318}, "nodes": [{"id": 92227847, "state": 3, "round": 3, "fullRoundText": "Winners Round 3", "completedAt": 1754175888, "winnerId": 20721570, "slots": [{"id": "92227847-0", "entrant": {"id": 20721570, "name": "SmU5h | Vendetta", "participants": [{"id": 19070584, "gamerTag": "Vendetta", "prefix": "SmU5h", "user": {"location": {"city": "Duluth", "state": "GA", "country": "United States"}}, "player": {"id": 343421, "gamerTag": "Vendetta", "prefix": "SmU5h", "user": {"location": {"city": "Duluth", "state": "GA", "country": "United States"}}}}]}, "standing": {"placement": 1, "stats": {"score": {"value": 2}}}}, {"id": "92227847-1", "entrant": {"id": 20488054, "name": "GUMP2 | JankTrees!", "participants": [{"id": 18867197, "gamerTag": "JankTrees!", "prefix": "GUMP2", "user": {"location": {"city": "Cartersville", "state": "GA", "country": "United States"}}, "player": {"id": 35695, "gamerTag": "JankTrees!", "prefix": "GUMP2", "user": {"location": {"city": "Cartersville", "state": "GA", "country": "United States"}}}}]}, "standing": {"placement": 2, "stats": {"score": {"value": 0}}}}], "games": null}, {"id": 92227206, "state": 3, "round": 3, "fullRoundText": "Winners Round 3", "completedAt": 1754170464, "winnerId": 20680949, "slots": [{"id": "92227206-0", "entrant": {"id": 20680949, "name": "Ns | Xceed | Xerzal", "participants": [{"id": 19034841, "gamerTag": "Xerzal", "prefix": "Ns | Xceed", "user": {"location": {"city": "Tuscaloosa", "state": "AL", "country": "United States"}}, "player": {"id": 1760924, "gamerTag": "Xerzal", "prefix": "Ns | Xceed", "user": {"location": {"city": "Tuscaloosa", "state": "AL", "country": "United States"}}}}]}, "standing": {"placement": 1, "stats": {"score": {"value": 2}}}}, {"id": "92227206-1", "entrant": {"id": 20778023, "name": "Barbashop", "participants": [{"id": 19122132, "gamerTag": "Barbashop", "prefix": "", "user": {"location": {"city": null, "state": null, "country": null}}, "player": {"id": 2537853, "gamerTag": "Barbashop", "prefix": "", "user": {"location": {"city": null, "state": null, "country": null}}}}]}, "standing": {"placement": 2, "stats": {"score": {"value": 1}}}}], "games": null}, {"id": 92227397, "state": 3, "round": 3, "fullRoundText": "Winners Round 3", "completedAt": 1754169481, "winnerId": 20699992, "slots": [{"id": "92227397-0", "entrant": {"id": 20699992, "name": "SFS | TCS | Dany", "participants": [{"id": 19051511, "gamerTag": "Dany", "prefix": "SFS | TCS", "user": {"location": {"city": "Nashville", "state": "TN", "country": "United States"}}, "player": {"id": 606386, "gamerTag": "Dany2theny", "prefix": "TCS", "user": {"location": {"city": "Nashville", "state": "TN", "country": "United States"}}}}]}, "standing": {"placement": 1, "stats": {"score": {"value": 2}}}}, {"id": "92227397-1", "entrant": {"id": 20490328, "name": "Nia", "participants": [{"id": 18869058, "gamerTag": "Nia", "prefix": null, "user": {"location": {"city": "Buford", "state": "GA", "country": "United States"}}, "player": {"id": 428070, "gamerTag": "Nia", "prefix": null, "user": {"location": {"city": "Buford", "state": "GA", "country": "United States"}}}}]}, "standing": {"placement": 2, "stats": {"score": {"value": 0}}}}], "games": null}, {"id": 92227635, "state": 3, "round": 3, "fullRoundText": "Winners Round 3", "completedAt": 1754176816, "winnerId": 20718910, "slots": [{"id": "92227635-0", "entrant": {"id": 20718910, "name": "HyperKirby", "participants": [{"id": 19068181, "gamerTag": "HyperKirby", "prefix": null, "user": {"location": {"city": "Lawrenceville", "state": "GA", "country": "United States"}}, "player": {"id": 71079, "gamerTag": "HyperKirby", "prefix": null, "user": {"location": {"city": "Lawrenceville", "state": "GA", "country": "United States"}}}}]}, "standing": {"placement": 1, "stats": {"score": {"value": 2}}}}, {"id": "92227635-1", "entrant": {"id": 20516612, "name": "CoolCactuS", "participants": [{"id": 18892328, "gamerTag": "CoolCactuS", "prefix": null, "user": {"location": {"city": null, "state": null, "country": "United States"}}, "player": {"id": 1885346, "gamerTag": "CoolCactuS", "prefix": "CV", "user": {"location": {"city": null, "state": null, "country": "United States"}}}}]}, "standing": {"placement": 2, "stats": {"score": {"value": 0}}}}], "games": null}, {"id": 92227398, "state": 3, "round": 3, "fullRoundText": "Winners Round 3", "completedAt": 1754169780, "winnerId": 20768144, "slots": [{"id": "92227398-0", "entrant": {"id": 20709932, "name": "MBS | Vivid", "participants": [{"id": 19060437, "gamerTag": "Vivid", "prefix": "MBS", "user": {"location": {"city": "Atl", "state": "GA", "country": "United States"}}, "player": {"id": 499333, "gamerTag": "Vivid", "prefix": "MBS", "user": {"location": {"city": "Atl", "state": "GA", "country": "United States"}}}}]}, "standing": {"placement": 2, "stats": {"score": {"value": 1}}}}, {"id": "92227398-1", "entrant": {"id": 20768144, "name": "UNAG | WOD | Mirage", "participants": [{"id": 19113338, "gamerTag": "Mirage", "prefix": "UNAG | WOD", "user": {"location": {"city": null, "state": "AL", "country": "United States"}}, "player": {"id": 2303717, "gamerTag": "Mirage", "prefix": "UNAG | WOD", "user": {"location": {"city": null, "state": "AL", "country": "United States"}}}}]}, "standing": {"placement": 1, "stats": {"score": {"value": 2}}}}], "games": null}, {"id": 92227207, "state": 3, "round": 3, "fullRoundText": "Winners Round 3", "completedAt": 1754170983, "winnerId": 20768627, "slots": [{"id": "92227207-0", "entrant": {"id": 20768627, "name": "KumaDusk", "participants": [{"id": 19113784, "gamerTag": "KumaDusk", "prefix": "", "user": {"location": {"city": "Lawrenceville", "state": "GA", "country": "United States"}}, "player": {"id": 253909, "gamerTag": "KumaDusk", "prefix": "", "user": {"location": {"city": "Lawrenceville", "state": "GA", "country": "United States"}}}}]}, "standing": {"placement": 1, "stats": {"score": {"value": 2}}}}, {"id": "92227207-1", "entrant": {"id": 20644087, "name": "Coven | REM!!!", "participants": [{"id": 19003323, "gamerTag": "REM!!!", "prefix": "Coven", "user": {"location": {"city": "Norcross", "state": "MS", "country": "United States"}}, "player": {"id": 4726196, "gamerTag": "REM!!!", "prefix": "Coven", "user": {"location": {"city": "Norcross", "state": "MS", "country": "United States"}}}}]}, "standing": {"placement": 2, "stats": {"score": {"value": 1}}}}], "games": null}, {"id": 92227848, "state": 3, "round": 3, "fullRoundText": "Winners Round 3", "completedAt": 1754176185, "winnerId": 20482285, "slots": [{"id": "92227848-0", "entrant": {"id": 20482285, "name": "Ave~", "participants": [{"id": 18862343, "gamerTag": "Ave~", "prefix": "", "user": {"location": {"city": null, "state": null, "country": null}}, "player": {"id": 38830, "gamerTag": "Ave~", "prefix": "", "user": {"location": {"city": null, "state": null, "country": null}}}}]}, "standing": {"placement": 1, "stats": {"score": {"value": 2}}}}, {"id": "92227848-1", "entrant": {"id": 20488065, "name": "Nut Esports | | Geemoney$", "participants": [{"id": 18867205, "gamerTag": "Geemoney$", "prefix": "Nut Esports |", "user": {"location": {"city": "Jacksonville", "state": "FL", "country": "United States"}}, "player": {"id": 252344, "gamerTag": "Geemoney$", "prefix": "", "user": {"location": {"city": "Jacksonville", "state": "FL", "country": "United States"}}}}]}, "standing": {"placement": 2, "stats": {"score": {"value": 0}}}}], "games": null}, {"id": 92227636, "state": 3, "round": 3, "fullRoundText": "Winners Round 3", "completedAt": 1754177210, "winnerId": 20673588, "slots": [{"id": "92227636-0", "entrant": {"id": 20673588, "name": "UTK | DBQ | HammerBro", "participants": [{"id": 19028789, "gamerTag": "HammerBro", "prefix": "UTK | DBQ", "user": {"location": {"city": "Chattanooga", "state": "TN", "country": "United States"}}, "player": {"id": 1080845, "gamerTag": "HammerBro", "prefix": "UTK | DBQ", "user": {"location": {"city": "Chattanooga", "state": "TN", "country": "United States"}}}}]}, "standing": {"placement": 1, "stats": {"score": {"value": 2}}}}, {"id": "92227636-1", "entrant": {"id": 20488160, "name": "GUMP2 | Spider", "participants": [{"id": 18867233, "gamerTag": "Spider", "prefix": "GUMP2", "user": {"location": {"city": "Atlanta", "state": "GA", "country": "United States"}}, "player": {"id": 691176, "gamerTag": "Spider", "prefix": "GUMP2", "user": {"location": {"city": "Atlanta", "state": "GA", "country": "United States"}}}}]}, "standing": {"placement": 2, "stats": {"score": {"value": 1}}}}], "games": null}, {"id": 92227637, "state": 3, "round": 3, "fullRoundText": "Winners Round 3", "completedAt": 1754178493, "winnerId": 20723478, "slots": [{"id": "92227637-0", "entrant": {"id": 20723478, "name": "ROK | Karu!", "participants": [{"id": 19072257, "gamerTag": "Karu!", "prefix": "ROK", "user": {"location": {"city": null, "state": null, "country": "United States"}}, "player": {"id": 1964751, "gamerTag": "Super Awesome Duck", "prefix": "ROK", "user": {"location": {"city": null, "state": null, "country": "United States"}}}}]}, "standing": {"placement": 1, "stats": {"score": {"value": 2}}}}, {"id": "92227637-1", "entrant": {"id": 20615765, "name": "RM | GUMP2 | Kr!stal:0", "participants": [{"id": 18978540, "gamerTag": "Kr!stal:0", "prefix": "RM | GUMP2", "user": {"location": {"city": "Lawrenceville", "state": "GA", "country": "United States"}}, "player": {"id": 2409815, "gamerTag": "AO ASHI SEASON 2 2026", "prefix": "RM | GUMP2", "user": {"location": {"city": "Lawrenceville", "state": "GA", "country": "United States"}}}}]}, "standing": {"placement": 2, "stats": {"score": {"value": 1}}}}], "games": null}, {"id": 92227849, "state": 3, "round": 3, "fullRoundText": "Winners Round 3", "completedAt": 1754176404, "winnerId": 20709705, "slots": [{"id": "92227849-0", "entrant": {"id": 20566667, "name": "UNCG | Chugs", "participants": [{"id": 18935801, "gamerTag": "Chugs", "prefix": "UNCG", "user": {"location": {"city": "Winston-Salem", "state": "NC", "country": "United States"}}, "player": {"id": 1820508, "gamerTag": "Chugs", "prefix": "UNCG", "user": {"location": {"city": "Winston-Salem", "state": "NC", "country": "United States"}}}}]}, "standing": {"placement": 2, "stats": {"score": {"value": 0}}}}, {"id": "92227849-1", "entrant": {"id": 20709705, "name": "Cobalt", "participants": [{"id": 19060234, "gamerTag": "Cobalt", "prefix": null, "user": {"location": {"city": "Gainesville", "state": "GA", "country": "United States"}}, "player": {"id": 181792, "gamerTag": "Cobalt", "prefix": null, "user": {"location": {"city": "Gainesville", "state": "GA", "country": "United States"}}}}]}, "standing": {"placement": 1, "stats": {"score": {"value": 2}}}}], "games": null}, {"id": 92227208, "state": 3, "round": 3, "fullRoundText": "Winners Round 3", "completedAt": 1754170364, "winnerId": 20487903, "slots": [{"id": "92227208-0", "entrant": {"id": 20487903, "name": "DGS | spickles", "participants": [{"id": 18867085, "gamerTag": "spickles", "prefix": "DGS", "user": {"location": {"city": null, "state": null, "country": "United States"}}, "player": {"id": 1154793, "gamerTag": "spickles", "prefix": "DGS", "user": {"location": {"city": null, "state": null, "country": "United States"}}}}]}, "standing": {"placement": 1, "stats": {"score": {"value": 2}}}}, {"id": "92227208-1", "entrant": {"id": 20501806, "name": "GUMP2 | STiCK", "participants": [{"id": 18879245, "gamerTag": "STiCK", "prefix": "GUMP2", "user": {"location": {"city": "Woodstock", "state": "GA", "country": "United States"}}, "player": {"id": 282674, "gamerTag": "STiCK", "prefix": "GUMP2", "user": {"location": {"city": "Woodstock", "state": "GA", "country": "United States"}}}}]}, "standing": {"placement": 2, "stats": {"score": {"value": 0}}}}], "games": null}, {"id": 92227399, "state": 3, "round": 3, "fullRoundText": "Winners Round 3", "completedAt": 1754168963, "winnerId": 20735917, "slots": [{"id": "92227399-0", "entrant": {"id": 20735917, "name": "DTN | Fatality", "participants": [{"id": 19082720, "gamerTag": "Fatality", "prefix": "DTN", "user": {"location": {"city": "Lilburn", "state": "GA", "country": "United States"}}, "player": {"id": 15921, "gamerTag": "Fatality", "prefix": "DTN", "user": {"location": {"city": "Lilburn", "state": "GA", "country": "United States"}}}}]}, "standing": {"placement": 1, "stats": {"score": {"value": 2}}}}, {"id": "92227399-1", "entrant": {"id": 20773742, "name": "Raven!", "participants": [{"id": 19118186, "gamerTag": "Raven!", "prefix": "", "user": {"location": {"city": "Toney", "state": "AL", "country": "United States"}}, "player": {"id": 3698114, "gamerTag": "Raven!", "prefix": "MTSU | MONO", "user": {"location": {"city": "Toney", "state": "AL", "country": "United States"}}}}]}, "standing": {"placement": 2, "stats": {"score": {"value": 0}}}}], "games": null}, {"id": 92227638, "state": 3, "round": 3, "fullRoundText": "Winners Round 3", "completedAt": 1754177021, "winnerId": 20488678, "slots": [{"id": "92227638-0", "entrant": {"id": 20488678, "name": "GUMP2 | Eleven", "participants": [{"id": 18867622, "gamerTag": "Eleven", "prefix": "GUMP2", "user": {"location": {"city": null, "state": null, "country": null}}, "player": {"id": 2348605, "gamerTag": "Ryu from Streets", "prefix": "GUMP2", "user": {"location": {"city": null, "state": null, "country": null}}}}]}, "standing": {"placement": 1, "stats": {"score": {"value": 2}}}}, {"id": "92227638-1", "entrant": {"id": 20488353, "name": "Cromat", "participants": [{"id": 18867338, "gamerTag": "Cromat", "prefix": "", "user": {"location": {"city": "Savannah", "state": "GA", "country": "United States"}}, "player": {"id": 3055798, "gamerTag": "Cromat", "prefix": "", "user": {"location": {"city": "Savannah", "state": "GA", "country": "United States"}}}}]}, "standing": {"placement": 2, "stats": {"score": {"value": 0}}}}], "games": null}, {"id": 92227400, "state": 3, "round": 3, "fullRoundText": "Winners Round 3", "completedAt": 1754169798, "winnerId": 20487847, "slots": [{"id": "92227400-0", "entrant": {"id": 20554478, "name": "Cake", "participants": [{"id": 18925007, "gamerTag": "Cake", "prefix": "", "user": {"location": {"city": "Dallas", "state": "AL", "country": "United States"}}, "player": {"id": 1046075, "gamerTag": "Cake", "prefix": "", "user": {"location": {"city": "Dallas", "state": "AL", "country": "United States"}}}}]}, "standing": {"placement": 2, "stats": {"score": {"value": 0}}}}, {"id": "92227400-1", "entrant": {"id": 20487847, "name": "GUMP2 | ToxiC", "participants": [{"id": 18867033, "gamerTag": "ToxiC", "prefix": "GUMP2", "user": {"location": {"city": "Marietta", "state": "GA", "country": "United States"}}, "player": {"id": 2585804, "gamerTag": "ToxiC", "prefix": "GUMP2", "user": {"location": {"city": "Marietta", "state": "GA", "country": "United States"}}}}]}, "standing": {"placement": 1, "stats": {"score": {"value": 2}}}}], "games": null}, {"id": 92227209, "state": 3, "round": 3, "fullRoundText": "Winners Round 3", "completedAt": 1754170457, "winnerId": 20720131, "slots": [{"id": "92227209-0", "entrant": {"id": 20720131, "name": "PHNM | Chunky", "participants": [{"id": 19069296, "gamerTag": "Chunky", "prefix": "PHNM", "user": {"location": {"city": "Summerville", "state": "SC", "country": "United States"}}, "player": {"id": 1479891, "gamerTag": "Chunky", "prefix": "PHNM", "user": {"location": {"city": "Summerville", "state": "SC", "country": "United States"}}}}]}, "standing": {"placement": 1, "stats": {"score": {"value": 2}}}}, {"id": "92227209-1", "entrant": {"id": 20498466, "name": "Yonko", "participants": [{"id": 18876446, "gamerTag": "Yonko", "prefix": "", "user": {"location": {"city": "Birmingham", "state": "AL", "country": "United States"}}, "player": {"id": 2453334, "gamerTag": "Yonko", "prefix": "", "user": {"location": {"city": "Birmingham", "state": "AL", "country": "United States"}}}}]}, "standing": {"placement": 2, "stats": {"score": {"value": 0}}}}], "games": null}]}}}