{"event": {"sets": {"pageInfo": {"totalPages": 4, "total": 57}, "nodes": [{"id": 94145820, "state": 3, "round": 6, "fullRoundText": "Grand Final", "completedAt": 1758419668, "winnerId": 21296463, "slots": [{"id": "94145820-0", "entrant": {"id": 21332108, "name": "JJBREEZE", "participants": [{"id": 19610529, "gamerTag": "JJBREEZE", "prefix": "", "user": {"location": {"city": "Atlanta", "state": "GA", "country": "United States"}}, "player": {"id": 688460, "gamerTag": "JJBREEZE", "prefix": "", "user": {"location": {"city": "Atlanta", "state": "GA", "country": "United States"}}}}]}, "standing": {"placement": 2, "stats": {"score": {"value": 2}}}}, {"id": "94145820-1", "entrant": {"id": 21296463, "name": "Sativicaa", "participants": [{"id": 19579220, "gamerTag": "Sativicaa", "prefix": "", "user": {"location": {"city": "Atlanta", "state": null, "country": "United States"}}, "player": {"id": 1706244, "gamerTag": "Sativicaa", "prefix": "", "user": {"location": {"city": "Atlanta", "state": null, "country": "United States"}}}}]}, "standing": {"placement": 1, "stats": {"score": {"value": 3}}}}], "games": null}, {"id": 94145821, "state": 3, "round": 6, "fullRoundText": "Grand Final Reset", "completedAt": 1758420381, "winnerId": 21332108, "slots": [{"id": "94145821-0", "entrant": {"id": 21296463, "name": "Sativicaa", "participants": [{"id": 19579220, "gamerTag": "Sativicaa", "prefix": "", "user": {"location": {"city": "Atlanta", "state": null, "country": "United States"}}, "player": {"id": 1706244, "gamerTag": "Sativicaa", "prefix": "", "user": {"location": {"city": "Atlanta", "state": null, "country": "United States"}}}}]}, "standing": {"placement": 2, "stats": {"score": {"value": 0}}}}, {"id": "94145821-1", "entrant": {"id": 21332108, "name": "JJBREEZE", "participants": [{"id": 19610529, "gamerTag": "JJBREEZE", "prefix": "", "user": {"location": {"city": "Atlanta", "state": "GA", "country": "United States"}}, "player": {"id": 688460, "gamerTag": "JJBREEZE", "prefix": "", "user": {"location": {"city": "Atlanta", "state": "GA", "country": "United States"}}}}]}, "standing": {"placement": 1, "stats": {"score": {"value": 3}}}}], "games": null}, {"id": 94145819, "state": 3, "round": 5, "fullRoundText": "Winners Final", "completedAt": 1758416671, "winnerId": 21332108, "slots": [{"id": "94145819-0", "entrant": {"id": 21332108, "name": "JJBREEZE", "participants": [{"id": 19610529, "gamerTag": "JJBREEZE", "prefix": "", "user": {"location": {"city": "Atlanta", "state": "GA", "country": "United States"}}, "player": {"id": 688460, "gamerTag": "JJBREEZE", "prefix": "", "user": {"location": {"city": "Atlanta", "state": "GA", "country": "United States"}}}}]}, "standing": {"placement": 1, "stats": {"score": {"value": 3}}}}, {"id": "94145819-1", "entrant": {"id": 21296463, "name": "Sativicaa", "participants": [{"id": 19579220, "gamerTag": "Sativicaa", "prefix": "", "user": {"location": {"city": "Atlanta", "state": null, "country": "United States"}}, "player": {"id": 1706244, "gamerTag": "Sativicaa", "prefix": "", "user": {"location": {"city": "Atlanta", "state": null, "country": "United States"}}}}]}, "standing": {"placement": 2, "stats": {"score": {"value": 1}}}}], "games": null}, {"id": 94145883, "state": 3, "round": -10, "fullRoundText": "Losers Final", "completedAt": 1758418411, "winnerId": 21296463, "slots": [{"id": "94145883-0", "entrant": {"id": 21296463, "name": "Sativicaa", "participants": [{"id": 19579220, "gamerTag": "Sativicaa", "prefix": "", "user": {"location": {"city": "Atlanta", "state": null, "country": "United States"}}, "player": {"id": 1706244, "gamerTag": "Sativicaa", "prefix": "", "user": {"location": {"city": "Atlanta", "state": null, "country": "United States"}}}}]}, "standing": {"placement": 1, "stats": {"score": {"value": 3}}}}, {"id": "94145883-1", "entrant": {"id": 21332492, "name": "Shvmir", "participants": [{"id": 19610816, "gamerTag": "Shvmir", "prefix": null, "user": {"location": {"city": "Atlanta", "state": "GA", "country": "United States"}}, "player": {"id": 320361, "gamerTag": "Shvmir", "prefix": null, "user": {"location": {"city": "Atlanta", "state": "GA", "country": "United States"}}}}]}, "standing": {"placement": 2, "stats": {"score": {"value": 2}}}}], "games": null}, {"id": 94145882, "state": 3, "round": -9, "fullRoundText": "Losers Semi-Final", "completedAt": 1758417300, "winnerId": 21332492, "slots": [{"id": "94145882-0", "entrant": {"id": 21329189, "name": "BOLT | KhalRhaego", "participants": [{"id": 19607798, "gamerTag": "KhalRhaego", "prefix": "BOLT", "user": {"location": {"city": "Jonesboro", "state": "GA", "country": "United States"}}, "player": {"id": 4076327, "gamerTag": "KhalRhaego", "prefix": "BOLT", "user": {"location": {"city": "Jonesboro", "state": "GA", "country": "United States"}}}}]}, "standing": {"placement": 2, "stats": {"score": {"value": 0}}}}, {"id": "94145882-1", "entrant": {"id": 21332492, "name": "Shvmir", "participants": [{"id": 19610816, "gamerTag": "Shvmir", "prefix": null, "user": {"location": {"city": "Atlanta", "state": "GA", "country": "United States"}}, "player": {"id": 320361, "gamerTag": "Shvmir", "prefix": null, "user": {"location": {"city": "Atlanta", "state": "GA", "country": "United States"}}}}]}, "standing": {"placement": 1, "stats": {"score": {"value": 3}}}}], "games": null}, {"id": 94145818, "state": 3, "round": 4, "fullRoundText": "Winners Semi-Final", "completedAt": 1758413194, "winnerId": 21296463, "slots": [{"id": "94145818-0", "entrant": {"id": 21296463, "name": "Sativicaa", "participants": [{"id": 19579220, "gamerTag": "Sativicaa", "prefix": "", "user": {"location": {"city": "Atlanta", "state": null, "country": "United States"}}, "player": {"id": 1706244, "gamerTag": "Sativicaa", "prefix": "", "user": {"location": {"city": "Atlanta", "state": null, "country": "United States"}}}}]}, "standing": {"placement": 1, "stats": {"score": {"value": 2}}}}, {"id": "94145818-1", "entrant": {"id": 21329189, "name": "BOLT | KhalRhaego", "participants": [{"id": 19607798, "gamerTag": "KhalRhaego", "prefix": "BOLT", "user": {"location": {"city": "Jonesboro", "state": "GA", "country": "United States"}}, "player": {"id": 4076327, "gamerTag": "KhalRhaego", "prefix": "BOLT", "user": {"location": {"city": "Jonesboro", "state": "GA", "country": "United States"}}}}]}, "standing": {"placement": 2, "stats": {"score": {"value": 1}}}}], "games": null}, {"id": 94145817, "state": 3, "round": 4, "fullRoundText": "Winners Semi-Final", "completedAt": 1758412592, "winnerId": 21332108, "slots": [{"id": "94145817-0", "entrant": {"id": 21332108, "name": "JJBREEZE", "participants": [{"id": 19610529, "gamerTag": "JJBREEZE", "prefix": "", "user": {"location": {"city": "Atlanta", "state": "GA", "country": "United States"}}, "player": {"id": 688460, "gamerTag": "JJBREEZE", "prefix": "", "user": {"location": {"city": "Atlanta", "state": "GA", "country": "United States"}}}}]}, "standing": {"placement": 1, "stats": {"score": {"value": 2}}}}, {"id": "94145817-1", "entrant": {"id": 21317048, "name": "UHH | longlivnando", "participants": [{"id": 19597230, "gamerTag": "longlivnando", "prefix": "UHH", "user": {"location": {"city": "Warrenville", "state": "SC", "country": "United States"}}, "player": {"id": 3746165, "gamerTag": "longlivnando", "prefix": "UHH", "user": {"location": {"city": "Warrenville", "state": "SC", "country": "United States"}}}}]}, "standing": {"placement": 2, "stats": {"score": {"value": 1}}}}], "games": null}, {"id": 94145880, "state": 3, "round": -8, "fullRoundText": "Losers Quarter-Final", "completedAt": 1758415211, "winnerId": 21329189, "slots": [{"id": "94145880-0", "entrant": {"id": 21329189, "name": "BOLT | KhalRhaego", "participants": [{"id": 19607798, "gamerTag": "KhalRhaego", "prefix": "BOLT", "user": {"location": {"city": "Jonesboro", "state": "GA", "country": "United States"}}, "player": {"id": 4076327, "gamerTag": "KhalRhaego", "prefix": "BOLT", "user": {"location": {"city": "Jonesboro", "state": "GA", "country": "United States"}}}}]}, "standing": {"placement": 1, "stats": {"score": {"value": 2}}}}, {"id": "94145880-1", "entrant": {"id": 21332235, "name": "4o4 | blitz", "participants": [{"id": 19610633, "gamerTag": "blitz", "prefix": "4o4", "user": {"location": {"city": "Lawrenceville", "state": "GA", "country": "United States"}}, "player": {"id": 2228539, "gamerTag": "blitz", "prefix": "4o4", "user": {"location": {"city": "Lawrenceville", "state": "GA", "country": "United States"}}}}]}, "standing": {"placement": 2, "stats": {"score": {"value": 1}}}}], "games": null}, {"id": 94145881, "state": 3, "round": -8, "fullRoundText": "Losers Quarter-Final", "completedAt": 1758415962, "winnerId": 21332492, "slots": [{"id": "94145881-0", "entrant": {"id": 21317048, "name": "UHH | longlivnando", "participants": [{"id": 19597230, "gamerTag": "longlivnando", "prefix": "UHH", "user": {"location": {"city": "Warrenville", "state": "SC", "country": "United States"}}, "player": {"id": 3746165, "gamerTag": "longlivnando", "prefix": "UHH", "user": {"location": {"city": "Warrenville", "state": "SC", "country": "United States"}}}}]}, "standing": {"placement": 2, "stats": {"score": {"value": 0}}}}, {"id": "94145881-1", "entrant": {"id": 21332492, "name": "Shvmir", "participants": [{"id": 19610816, "gamerTag": "Shvmir", "prefix": null, "user": {"location": {"city": "Atlanta", "state": "GA", "country": "United States"}}, "player": {"id": 320361, "gamerTag": "Shvmir", "prefix": null, "user": {"location": {"city": "Atlanta", "state": "GA", "country": "United States"}}}}]}, "standing": {"placement": 1, "stats": {"score": {"value": 2}}}}], "games": null}, {"id": 94145878, "state": 3, "round": -7, "fullRoundText": "Losers Round 5", "completedAt": 1758414201, "winnerId": 21332235, "slots": [{"id": "94145878-0", "entrant": {"id": 21332235, "name": "4o4 | blitz", "participants": [{"id": 19610633, "gamerTag": "blitz", "prefix": "4o4", "user": {"location": {"city": "Lawrenceville", "state": "GA", "country": "United States"}}, "player": {"id": 2228539, "gamerTag": "blitz", "prefix": "4o4", "user": {"location": {"city": "Lawrenceville", "state": "GA", "country": "United States"}}}}]}, "standing": {"placement": 1, "stats": {"score": {"value": 2}}}}, {"id": "94145878-1", "entrant": {"id": 21302139, "name": "GCH | slaughterwall", "participants": [{"id": 19584154, "gamerTag": "slaughterwall", "prefix": "GCH", "user": {"location": {"city": "Atlanta", "state": "GA", "country": "United States"}}, "player": {"id": 1104452, "gamerTag": "slaughterwall", "prefix": "GCH", "user": {"location": {"city": "Atlanta", "state": "GA", "country": "United States"}}}}]}, "standing": {"placement": 2, "stats": {"score": {"value": 1}}}}], "games": null}, {"id": 94145879, "state": 3, "round": -7, "fullRoundText": "Losers Round 5", "completedAt": 1758414564, "winnerId": 21332492, "slots": [{"id": "94145879-0", "entrant": {"id": 21332678, "name": "Armanisaint", "participants": [{"id": 19610948, "gamerTag": "Armanisaint", "prefix": null, "user": {"location": {"city": "Roswell", "state": "GA", "country": "United States"}}, "player": {"id": 3943806, "gamerTag": "Armanisaint", "prefix": null, "user": {"location": {"city": "Roswell", "state": "GA", "country": "United States"}}}}]}, "standing": {"placement": 2, "stats": {"score": {"value": 0}}}}, {"id": "94145879-1", "entrant": {"id": 21332492, "name": "Shvmir", "participants": [{"id": 19610816, "gamerTag": "Shvmir", "prefix": null, "user": {"location": {"city": "Atlanta", "state": "GA", "country": "United States"}}, "player": {"id": 320361, "gamerTag": "Shvmir", "prefix": null, "user": {"location": {"city": "Atlanta", "state": "GA", "country": "United States"}}}}]}, "standing": {"placement": 1, "stats": {"score": {"value": 2}}}}], "games": null}, {"id": 94145813, "state": 3, "round": 3, "fullRoundText": "Winners Quarter-Final", "completedAt": 1758411157, "winnerId": 21332108, "slots": [{"id": "94145813-0", "entrant": {"id": 21332108, "name": "JJBREEZE", "participants": [{"id": 19610529, "gamerTag": "JJBREEZE", "prefix": "", "user": {"location": {"city": "Atlanta", "state": "GA", "country": "United States"}}, "player": {"id": 688460, "gamerTag": "JJBREEZE", "prefix": "", "user": {"location": {"city": "Atlanta", "state": "GA", "country": "United States"}}}}]}, "standing": {"placement": 1, "stats": {"score": {"value": 2}}}}, {"id": "94145813-1", "entrant": {"id": 21302139, "name": "GCH | slaughterwall", "participants": [{"id": 19584154, "gamerTag": "slaughterwall", "prefix": "GCH", "user": {"location": {"city": "Atlanta", "state": "GA", "country": "United States"}}, "player": {"id": 1104452, "gamerTag": "slaughterwall", "prefix": "GCH", "user": {"location": {"city": "Atlanta", "state": "GA", "country": "United States"}}}}]}, "standing": {"placement": 2, "stats": {"score": {"value": 0}}}}], "games": null}, {"id": 94145814, "state": 3, "round": 3, "fullRoundText": "Winners Quarter-Final", "completedAt": 1758410696, "winnerId": 21317048, "slots": [{"id": "94145814-0", "entrant": {"id": 21318768, "name": "Hands", "participants": [{"id": 19598832, "gamerTag": "Hands", "prefix": "", "user": {"location": {"city": "Ellenwood", "state": "GA", "country": "United States"}}, "player": {"id": 625905, "gamerTag": "Hands", "prefix": "", "user": {"location": {"city": "Ellenwood", "state": "GA", "country": "United States"}}}}]}, "standing": {"placement": 2, "stats": {"score": {"value": 0}}}}, {"id": "94145814-1", "entrant": {"id": 21317048, "name": "UHH | longlivnando", "participants": [{"id": 19597230, "gamerTag": "longlivnando", "prefix": "UHH", "user": {"location": {"city": "Warrenville", "state": "SC", "country": "United States"}}, "player": {"id": 3746165, "gamerTag": "longlivnando", "prefix": "UHH", "user": {"location": {"city": "Warrenville", "state": "SC", "country": "United States"}}}}]}, "standing": {"placement": 1, "stats": {"score": {"value": 2}}}}], "games": null}, {"id": 94145815, "state": 3, "round": 3, "fullRoundText": "Winners Quarter-Final", "completedAt": 1758411789, "winnerId": 21296463, "slots": [{"id": "94145815-0", "entrant": {"id": 21296463, "name": "Sativicaa", "participants": [{"id": 19579220, "gamerTag": "Sativicaa", "prefix": "", "user": {"location": {"city": "Atlanta", "state": null, "country": "United States"}}, "player": {"id": 1706244, "gamerTag": "Sativicaa", "prefix": "", "user": {"location": {"city": "Atlanta", "state": null, "country": "United States"}}}}]}, "standing": {"placement": 1, "stats": {"score": {"value": 2}}}}, {"id": "94145815-1", "entrant": {"id": 21332492, "name": "Shvmir", "participants": [{"id": 19610816, "gamerTag": "Shvmir", "prefix": null, "user": {"location": {"city": "Atlanta", "state": "GA", "country": "United States"}}, "player": {"id": 320361, "gamerTag": "Shvmir", "prefix": null, "user": {"location": {"city": "Atlanta", "state": "GA", "country": "United States"}}}}]}, "standing": {"placement": 2, "stats": {"score": {"value": 1}}}}], "games": null}, {"id": 94145816, "state": 3, "round": 3, "fullRoundText": "Winners Quarter-Final", "completedAt": 1758411289, "winnerId": 21329189, "slots": [{"id": "94145816-0", "entrant": {"id": 21329189, "name": "BOLT | KhalRhaego", "participants": [{"id": 19607798, "gamerTag": "KhalRhaego", "prefix": "BOLT", "user": {"location": {"city": "Jonesboro", "state": "GA", "country": "United States"}}, "player": {"id": 4076327, "gamerTag": "KhalRhaego", "prefix": "BOLT", "user": {"location": {"city": "Jonesboro", "state": "GA", "country": "United States"}}}}]}, "standing": {"placement": 1, "stats": {"score": {"value": 2}}}}, {"id": "94145816-1", "entrant": {"id": 21332678, "name": "Armanisaint", "participants": [{"id": 19610948, "gamerTag": "Armanisaint", "prefix": null, "user": {"location": {"city": "Roswell", "state": "GA", "country": "United States"}}, "player": {"id": 3943806, "gamerTag": "Armanisaint", "prefix": null, "user": {"location": {"city": "Roswell", "state": "GA", "country": "United States"}}}}]}, "standing": {"placement": 2, "stats": {"score": {"value": 0}}}}], "games": null}]}}}