{"event": {"sets": {"pageInfo": {"totalPages": 2, "total": 19}, "nodes": [{"id": 94019110, "state": 3, "round": -4, "fullRoundText": "Losers Round 1", "completedAt": 1758237003, "winnerId": 21312127, "slots": [{"id": "94019110-0", "entrant": {"id": 21309755, "name": "MoniKrow", "participants": [{"id": 19590839, "gamerTag": "MoniKrow", "prefix": null, "user": {"location": {"city": "Savannah", "state": "GA", "country": "United States"}}, "player": {"id": 4982588, "gamerTag": "MoniKrow", "prefix": null, "user": {"location": {"city": "Savannah", "state": "GA", "country": "United States"}}}}]}, "standing": {"placement": 2, "stats": {"score": {"value": 0}}}}, {"id": "94019110-1", "entrant": {"id": 21312127, "name": "Aloe", "participants": [{"id": 19592685, "gamerTag": "Aloe", "prefix": null, "user": {"location": {"city": "Savannah", "state": "WI", "country": "United States"}}, "player": {"id": 2656903, "gamerTag": "Aloe", "prefix": null, "user": {"location": {"city": "Savannah", "state": "WI", "country": "United States"}}}}]}, "standing": {"placement": 1, "stats": {"score": {"value": 3}}}}], "games": null}, {"id": 94019112, "state": 3, "round": -4, "fullRoundText": "Losers Round 1", "completedAt": 1758237330, "winnerId": 21312210, "slots": [{"id": "94019112-0", "entrant": {"id": 21305513, "name": "Armor Jeff", "participants": [{"id": 19587002, "gamerTag": "Armor Jeff", "prefix": "", "user": {"location": {"city": "Savannah", "state": "GA", "country": "United States"}}, "player": {"id": 3937751, "gamerTag": "Armor Jeff", "prefix": "", "user": {"location": {"city": "Savannah", "state": "GA", "country": "United States"}}}}]}, "standing": {"placement": 2, "stats": {"score": {"value": 1}}}}, {"id": "94019112-1", "entrant": {"id": 21312210, "name": "SQ1 | Luff", "participants": [{"id": 19592758, "gamerTag": "Luff", "prefix": "SQ1", "user": {"location": {"city": "Savannah", "state": "GA", "country": "United States"}}, "player": {"id": 4102348, "gamerTag": "Luff", "prefix": "SQ1", "user": {"location": {"city": "Savannah", "state": "GA", "country": "United States"}}}}]}, "standing": {"placement": 1, "stats": {"score": {"value": 3}}}}], "games": null}, {"id": 94019074, "state": 3, "round": 1, "fullRoundText": "Winners Round 1", "completedAt": 1758235200, "winnerId": 21312145, "slots": [{"id": "94019074-0", "entrant": {"id": 21312127, "name": "Aloe", "participants": [{"id": 19592685, "gamerTag": "Aloe", "prefix": null, "user": {"location": {"city": "Savannah", "state": "WI", "country": "United States"}}, "player": {"id": 2656903, "gamerTag": "Aloe", "prefix": null, "user": {"location": {"city": "Savannah", "state": "WI", "country": "United States"}}}}]}, "standing": {"placement": 2, "stats": {"score": {"value": 1}}}}, {"id": "94019074-1", "entrant": {"id": 21312145, "name": "Follow me pls | Ttv.Snoozy040", "participants": [{"id": 19592697, "gamerTag": "Ttv.Snoozy040", "prefix": "Follow me pls", "user": {"location": {"city": null, "state": null, "country": "United States"}}, "player": {"id": 3190984, "gamerTag": "Ttv.Snoozy040", "prefix": "Follow me pls", "user": {"location": {"city": null, "state": null, "country": "United States"}}}}]}, "standing": {"placement": 1, "stats": {"score": {"value": 3}}}}], "games": null}, {"id": 94019078, "state": 3, "round": 1, "fullRoundText": "Winners Round 1", "completedAt": 1758235331, "winnerId": 21312100, "slots": [{"id": "94019078-0", "entrant": {"id": 21312100, "name": "SQ1 | Drokifam", "participants": [{"id": 19592661, "gamerTag": "Drokifam", "prefix": "SQ1", "user": {"location": {"city": "Hardeeville", "state": "SC", "country": "United States"}}, "player": {"id": 2801389, "gamerTag": "Drokifam", "prefix": "SQ1", "user": {"location": {"city": "Hardeeville", "state": "SC", "country": "United States"}}}}]}, "standing": {"placement": 1, "stats": {"score": {"value": 3}}}}, {"id": "94019078-1", "entrant": {"id": 21312210, "name": "SQ1 | Luff", "participants": [{"id": 19592758, "gamerTag": "Luff", "prefix": "SQ1", "user": {"location": {"city": "Savannah", "state": "GA", "country": "United States"}}, "player": {"id": 4102348, "gamerTag": "Luff", "prefix": "SQ1", "user": {"location": {"city": "Savannah", "state": "GA", "country": "United States"}}}}]}, "standing": {"placement": 2, "stats": {"score": {"value": 1}}}}], "games": null}]}}}