{"phase": {"seeds": {"pageInfo": {"totalPages": 1, "total": 7}, "nodes": [{"id": 36324038, "seedNum": 2, "entrant": {"id": 21070709, "name": "DBQ | Kami", "participants": [{"id": 19382069, "gamerTag": "Kami", "prefix": "DBQ", "user": {"location": {"city": "Fayetteville", "state": "GA", "country": "United States"}}, "player": {"id": 1183115, "gamerTag": "Kami", "prefix": "DBQ", "user": {"location": {"city": "Fayetteville", "state": "GA", "country": "United States"}}}}]}}, {"id": 36324397, "seedNum": 1, "entrant": {"id": 21071051, "name": "Nut Esports | | Geemoney$", "participants": [{"id": 19382365, "gamerTag": "Geemoney$", "prefix": "Nut Esports |", "user": {"location": {"city": "Jacksonville", "state": "FL", "country": "United States"}}, "player": {"id": 252344, "gamerTag": "Geemoney$", "prefix": "", "user": {"location": {"city": "Jacksonville", "state": "FL", "country": "United States"}}}}]}}, {"id": 36310283, "seedNum": 7, "entrant": {"id": 21061288, "name": "ZB | Sanaito", "participants": [{"id": 19373475, "gamerTag": "Sanaito", "prefix": "ZB", "user": {"location": {"city": "Fayetteville", "state": "GA", "country": "United States"}}, "player": {"id": 12761, "gamerTag": "Sanaito", "prefix": "ZB", "user": {"location": {"city": "Fayetteville", "state": "GA", "country": "United States"}}}}]}}, {"id": 36321938, "seedNum": 4, "entrant": {"id": 21069043, "name": "Real | Division", "participants": [{"id": 19380538, "gamerTag": "Division", "prefix": "Real", "user": {"location": {"city": null, "state": null, "country": "United States"}}, "player": {"id": 4723636, "gamerTag": "Division", "prefix": "Real", "user": {"location": {"city": null, "state": null, "country": "United States"}}}}]}}, {"id": 36310502, "seedNum": 3, "entrant": {"id": 21061491, "name": "ZB | Juniper", "participants": [{"id": 19373663, "gamerTag": "Juniper", "prefix": "ZB", "user": {"location": {"city": "Morrow", "state": "GA", "country": "United States"}}, "player": {"id": 46895, "gamerTag": "Juniper", "prefix": "ZB", "user": {"location": {"city": "Morrow", "state": "GA", "country": "United States"}}}}]}}, {"id": 36328089, "seedNum": 5, "entrant": {"id": 21073978, "name": "ZB | wolfy", "participants": [{"id": 19385051, "gamerTag": "wolfy", "prefix": "ZB", "user": {"location": {"city": "Tyrone", "state": "GA", "country": "United States"}}, "player": {"id": 295981, "gamerTag": "wolfy", "prefix": "ZB", "user": {"location": {"city": "Tyrone", "state": "GA", "country": "United States"}}}}]}}, {"id": 36328130, "seedNum": 6, "entrant": {"id": 21074012, "name": "ZB | Gerard", "participants": [{"id": 19380921, "gamerTag": "Gerard", "prefix": "ZB", "user": {"location": {"city": "Atlanta", "state": "GA", "country": "United States"}}, "player": {"id": 325542, "gamerTag": "Gerard", "prefix": "ZB", "user": {"location": {"city": "Atlanta", "state": "GA", "country": "United States"}}}}]}}]}}}