{"phase": {"seeds": {"pageInfo": {"totalPages": 1, "total": 6}, "nodes": [{"id": 36530476, "seedNum": 2, "entrant": {"id": 21208517, "name": "16 Galindo Ledgedashes", "participants": [{"id": 19502824, "gamerTag": "16 Galindo Ledgedashes", "prefix": null, "user": {"location": {"city": null, "state": null, "country": null}}, "player": {"id": 4964787, "gamerTag": "16 Galindo Ledgedashes", "prefix": null, "user": {"location": {"city": null, "state": null, "country": null}}}}]}}, {"id": 36530742, "seedNum": 1, "entrant": {"id": 21208739, "name": "noided", "participants": [{"id": 19504063, "gamerTag": "noided", "prefix": "", "user": {"location": {"city": "Atlanta", "state": "GA", "country": "United States"}}, "player": {"id": 2586521, "gamerTag": "noided", "prefix": "", "user": {"location": {"city": "Atlanta", "state": "GA", "country": "United States"}}}}]}}, {"id": 36530492, "seedNum": 4, "entrant": {"id": 21208532, "name": "Permafrost", "participants": [{"id": 19497647, "gamerTag": "Permafrost", "prefix": "", "user": {"location": {"city": "Atlanta", "state": "GA", "country": "United States"}}, "player": {"id": 1256898, "gamerTag": "Permafrost", "prefix": "", "user": {"location": {"city": "Atlanta", "state": "GA", "country": "United States"}}}}]}}, {"id": 36530841, "seedNum": 3, "entrant": {"id": 21208807, "name": "Kain Dewey", "participants": [{"id": 19466549, "gamerTag": "Kain Dewey", "prefix": "", "user": {"location": {"city": "", "state": "MD", "country": "United States"}}, "player": {"id": 281086, "gamerTag": "Kain Dewey", "prefix": "", "user": {"location": {"city": "", "state": "MD", "country": "United States"}}}}]}}, {"id": 36530420, "seedNum": 6, "entrant": {"id": 21208460, "name": "TPS | $CAIT", "participants": [{"id": 19497918, "gamerTag": "$CAIT", "prefix": "TPS", "user": {"location": {"city": "Acworth", "state": "GA", "country": "United States"}}, "player": {"id": 3422494, "gamerTag": "$CAITLIN", "prefix": "TPS", "user": {"location": {"city": "Acworth", "state": "GA", "country": "United States"}}}}]}}, {"id": 36530573, "seedNum": 5, "entrant": {"id": 21208587, "name": "OU | Wiza", "participants": [{"id": 19502424, "gamerTag": "Wiza", "prefix": "OU", "user": {"location": {"city": "Atlanta", "state": "GA", "country": "United States"}}, "player": {"id": 71442, "gamerTag": "Wiza", "prefix": "OU", "user": {"location": {"city": "Atlanta", "state": "GA", "country": "United States"}}}}]}}]}}}