{"event": {"sets": {"pageInfo": {"totalPages": 3, "total": 40}, "nodes": [{"id": 92855839, "state": 3, "round": -6, "fullRoundText": "Losers Round 3", "completedAt": 1755652939, "winnerId": 21015066, "slots": [{"id": "92855839-0", "entrant": {"id": 21015066, "name": "4o4 | MessatsuIM", "participants": [{"id": 19331788, "gamerTag": "MessatsuIM", "prefix": "4o4", "user": {"location": {"city": "Kennesaw", "state": "GA", "country": "United States"}}, "player": {"id": 3564235, "gamerTag": "MessatsuIM", "prefix": "4o4", "user": {"location": {"city": "Kennesaw", "state": "GA", "country": "United States"}}}}]}, "standing": {"placement": 1, "stats": {"score": {"value": 3}}}}, {"id": "92855839-1", "entrant": {"id": 21015354, "name": "MBossProductions", "participants": [{"id": 19332048, "gamerTag": "MBossProductions", "prefix": "", "user": {"location": {"city": "Norcross", "state": "GA", "country": "United States"}}, "player": {"id": 1997490, "gamerTag": "MBossProductions", "prefix": "", "user": {"location": {"city": "Norcross", "state": "GA", "country": "United States"}}}}]}, "standing": {"placement": 2, "stats": {"score": {"value": 0}}}}], "games": null}, {"id": 92855840, "state": 3, "round": -6, "fullRoundText": "Losers Round 3", "completedAt": 1755653091, "winnerId": 21015808, "slots": [{"id": "92855840-0", "entrant": {"id": 21015808, "name": "4o4 | byronic zero", "participants": [{"id": 19332463, "gamerTag": "byronic zero", "prefix": "4o4", "user": {"location": {"city": "Atlanta", "state": "GA", "country": "United States"}}, "player": {"id": 3577590, "gamerTag": "byronic zero", "prefix": "4o4", "user": {"location": {"city": "Atlanta", "state": "GA", "country": "United States"}}}}]}, "standing": {"placement": 1, "stats": {"score": {"value": 3}}}}, {"id": "92855840-1", "entrant": {"id": 21014660, "name": "4o4 | KhalRhaego", "participants": [{"id": 19331416, "gamerTag": "KhalRhaego", "prefix": "4o4", "user": {"location": {"city": "Jonesboro", "state": "GA", "country": "United States"}}, "player": {"id": 4076327, "gamerTag": "KhalRhaego", "prefix": "BOLT", "user": {"location": {"city": "Jonesboro", "state": "GA", "country": "United States"}}}}]}, "standing": {"placement": 2, "stats": {"score": {"value": 2}}}}], "games": null}, {"id": 92855841, "state": 3, "round": -6, "fullRoundText": "Losers Round 3", "completedAt": 1755651803, "winnerId": 21012367, "slots": [{"id": "92855841-0", "entrant": {"id": 21014067, "name": "4o4 | CoNavySeal", "participants": [{"id": 19330886, "gamerTag": "CoNavySeal", "prefix": "4o4", "user": {"location": {"city": "Alpharetta", "state": "GA", "country": "United States"}}, "player": {"id": 3818891, "gamerTag": "CoNavySeal", "prefix": "4o4", "user": {"location": {"city": "Alpharetta", "state": "GA", "country": "United States"}}}}]}, "standing": {"placement": 2, "stats": {"score": {"value": 0}}}}, {"id": "92855841-1", "entrant": {"id": 21012367, "name": "Noodle", "participants": [{"id": 19329386, "gamerTag": "Noodle", "prefix": null, "user": {"location": {"city": "McDonough", "state": "GA", "country": "United States"}}, "player": {"id": 3029288, "gamerTag": "Noodle", "prefix": "", "user": {"location": {"city": "McDonough", "state": "GA", "country": "United States"}}}}]}, "standing": {"placement": 1, "stats": {"score": {"value": 3}}}}], "games": null}, {"id": 92855834, "state": 3, "round": -5, "fullRoundText": "Losers Round 2", "completedAt": 1755651753, "winnerId": 21015175, "slots": [{"id": "92855834-0", "entrant": {"id": 21015175, "name": "4o4 | Yugo", "participants": [{"id": 19331889, "gamerTag": "Yugo", "prefix": "4o4", "user": {"location": {"city": "Sandy springs", "state": "GA", "country": "United States"}}, "player": {"id": 338020, "gamerTag": "Yugo", "prefix": "4o4", "user": {"location": {"city": "Sandy springs", "state": "GA", "country": "United States"}}}}]}, "standing": {"placement": 1, "stats": {"score": {"value": 3}}}}, {"id": "92855834-1", "entrant": {"id": 21015020, "name": "CptSilverRaider", "participants": [{"id": 19331742, "gamerTag": "CptSilverRaider", "prefix": "", "user": {"location": {"city": "Atlanta", "state": "GA", "country": "United States"}}, "player": {"id": 4931134, "gamerTag": "CptSilverRaider", "prefix": "", "user": {"location": {"city": "Atlanta", "state": "GA", "country": "United States"}}}}]}, "standing": {"placement": 2, "stats": {"score": {"value": 1}}}}], "games": null}, {"id": 92855835, "state": 3, "round": -5, "fullRoundText": "Losers Round 2", "completedAt": 1755651722, "winnerId": 21015354, "slots": [{"id": "92855835-0", "entrant": {"id": 21015354, "name": "MBossProductions", "participants": [{"id": 19332048, "gamerTag": "MBossProductions", "prefix": "", "user": {"location": {"city": "Norcross", "state": "GA", "country": "United States"}}, "player": {"id": 1997490, "gamerTag": "MBossProductions", "prefix": "", "user": {"location": {"city": "Norcross", "state": "GA", "country": "United States"}}}}]}, "standing": {"placement": 1, "stats": {"score": {"value": 3}}}}, {"id": "92855835-1", "entrant": {"id": 21015890, "name": "Barky", "participants": [{"id": 19332539, "gamerTag": "Barky", "prefix": null, "user": {"location": {"city": "Orlando", "state": "FL", "country": "United States"}}, "player": {"id": 1460695, "gamerTag": "Barky", "prefix": null, "user": {"location": {"city": "Orlando", "state": "FL", "country": "United States"}}}}]}, "standing": {"placement": 2, "stats": {"score": {"value": 1}}}}], "games": null}, {"id": 92855836, "state": 3, "round": -5, "fullRoundText": "Losers Round 2", "completedAt": 1755651420, "winnerId": 21014660, "slots": [{"id": "92855836-0", "entrant": {"id": 21014660, "name": "4o4 | KhalRhaego", "participants": [{"id": 19331416, "gamerTag": "KhalRhaego", "prefix": "4o4", "user": {"location": {"city": "Jonesboro", "state": "GA", "country": "United States"}}, "player": {"id": 4076327, "gamerTag": "KhalRhaego", "prefix": "BOLT", "user": {"location": {"city": "Jonesboro", "state": "GA", "country": "United States"}}}}]}, "standing": {"placement": 1, "stats": {"score": {"value": 3}}}}, {"id": "92855836-1", "entrant": {"id": 21015833, "name": "Leon Nights", "participants": [{"id": 19332486, "gamerTag": "Leon Nights", "prefix": null, "user": {"location": {"city": "Atlanta", "state": "GA", "country": "United States"}}, "player": {"id": 4752335, "gamerTag": "Leon Nights", "prefix": null, "user": {"location": {"city": "Atlanta", "state": "GA", "country": "United States"}}}}]}, "standing": {"placement": 2, "stats": {"score": {"value": 1}}}}], "games": null}, {"id": 92855837, "state": 3, "round": -5, "fullRoundText": "Losers Round 2", "completedAt": 1755651142, "winnerId": 21012367, "slots": [{"id": "92855837-0", "entrant": {"id": 21012367, "name": "Noodle", "participants": [{"id": 19329386, "gamerTag": "Noodle", "prefix": null, "user": {"location": {"city": "McDonough", "state": "GA", "country": "United States"}}, "player": {"id": 3029288, "gamerTag": "Noodle", "prefix": "", "user": {"location": {"city": "McDonough", "state": "GA", "country": "United States"}}}}]}, "standing": {"placement": 1, "stats": {"score": {"value": 3}}}}, {"id": "92855837-1", "entrant": {"id": 21015205, "name": "stylesK", "participants": [{"id": 19331916, "gamerTag": "stylesK", "prefix": "", "user": {"location": {"city": "Sandy Springs", "state": "GA", "country": "United States"}}, "player": {"id": 3475419, "gamerTag": "stylesK", "prefix": "", "user": {"location": {"city": "Sandy Springs", "state": "GA", "country": "United States"}}}}]}, "standing": {"placement": 2, "stats": {"score": {"value": 0}}}}], "games": null}, {"id": 92855769, "state": 3, "round": 2, "fullRoundText": "Winners Round 2", "completedAt": 1755650439, "winnerId": 21015066, "slots": [{"id": "92855769-0", "entrant": {"id": 21015066, "name": "4o4 | MessatsuIM", "participants": [{"id": 19331788, "gamerTag": "MessatsuIM", "prefix": "4o4", "user": {"location": {"city": "Kennesaw", "state": "GA", "country": "United States"}}, "player": {"id": 3564235, "gamerTag": "MessatsuIM", "prefix": "4o4", "user": {"location": {"city": "Kennesaw", "state": "GA", "country": "United States"}}}}]}, "standing": {"placement": 1, "stats": {"score": {"value": 3}}}}, {"id": "92855769-1", "entrant": {"id": 21015205, "name": "stylesK", "participants": [{"id": 19331916, "gamerTag": "stylesK", "prefix": "", "user": {"location": {"city": "Sandy Springs", "state": "GA", "country": "United States"}}, "player": {"id": 3475419, "gamerTag": "stylesK", "prefix": "", "user": {"location": {"city": "Sandy Springs", "state": "GA", "country": "United States"}}}}]}, "standing": {"placement": 2, "stats": {"score": {"value": 0}}}}], "games": null}, {"id": 92855770, "state": 3, "round": 2, "fullRoundText": "Winners Round 2", "completedAt": 1755649915, "winnerId": 21016044, "slots": [{"id": "92855770-0", "entrant": {"id": 21012367, "name": "Noodle", "participants": [{"id": 19329386, "gamerTag": "Noodle", "prefix": null, "user": {"location": {"city": "McDonough", "state": "GA", "country": "United States"}}, "player": {"id": 3029288, "gamerTag": "Noodle", "prefix": "", "user": {"location": {"city": "McDonough", "state": "GA", "country": "United States"}}}}]}, "standing": {"placement": 2, "stats": {"score": {"value": 1}}}}, {"id": "92855770-1", "entrant": {"id": 21016044, "name": "JD | Crescendo", "participants": [{"id": 19332654, "gamerTag": "Crescendo", "prefix": "JD", "user": {"location": {"city": null, "state": null, "country": "United States"}}, "player": {"id": 1286264, "gamerTag": "Crescendo", "prefix": "JD", "user": {"location": {"city": null, "state": null, "country": "United States"}}}}]}, "standing": {"placement": 1, "stats": {"score": {"value": 3}}}}], "games": null}, {"id": 92855771, "state": 3, "round": 2, "fullRoundText": "Winners Round 2", "completedAt": 1755650573, "winnerId": 21015708, "slots": [{"id": "92855771-0", "entrant": {"id": 21015708, "name": "4o4 | chrisymandias", "participants": [{"id": 19332373, "gamerTag": "chrisymandias", "prefix": "4o4", "user": {"location": {"city": "Dacula", "state": "GA", "country": "United States"}}, "player": {"id": 258173, "gamerTag": "chrisymandias", "prefix": "4o4", "user": {"location": {"city": "Dacula", "state": "GA", "country": "United States"}}}}]}, "standing": {"placement": 1, "stats": {"score": {"value": 3}}}}, {"id": "92855771-1", "entrant": {"id": 21015833, "name": "Leon Nights", "participants": [{"id": 19332486, "gamerTag": "Leon Nights", "prefix": null, "user": {"location": {"city": "Atlanta", "state": "GA", "country": "United States"}}, "player": {"id": 4752335, "gamerTag": "Leon Nights", "prefix": null, "user": {"location": {"city": "Atlanta", "state": "GA", "country": "United States"}}}}]}, "standing": {"placement": 2, "stats": {"score": {"value": 0}}}}], "games": null}, {"id": 92855772, "state": 3, "round": 2, "fullRoundText": "Winners Round 2", "completedAt": 1755650613, "winnerId": 21015382, "slots": [{"id": "92855772-0", "entrant": {"id": 21015382, "name": "JKong", "participants": [{"id": 19332073, "gamerTag": "JKong", "prefix": null, "user": {"location": {"city": "Riverdale", "state": "GA", "country": "United States"}}, "player": {"id": 3515833, "gamerTag": "JKong", "prefix": null, "user": {"location": {"city": "Riverdale", "state": "GA", "country": "United States"}}}}]}, "standing": {"placement": 1, "stats": {"score": {"value": 3}}}}, {"id": "92855772-1", "entrant": {"id": 21014660, "name": "4o4 | KhalRhaego", "participants": [{"id": 19331416, "gamerTag": "KhalRhaego", "prefix": "4o4", "user": {"location": {"city": "Jonesboro", "state": "GA", "country": "United States"}}, "player": {"id": 4076327, "gamerTag": "KhalRhaego", "prefix": "BOLT", "user": {"location": {"city": "Jonesboro", "state": "GA", "country": "United States"}}}}]}, "standing": {"placement": 2, "stats": {"score": {"value": 1}}}}], "games": null}, {"id": 92855773, "state": 3, "round": 2, "fullRoundText": "Winners Round 2", "completedAt": 1755649738, "winnerId": 21014067, "slots": [{"id": "92855773-0", "entrant": {"id": 21015043, "name": "Buddylikefriend", "participants": [{"id": 19331765, "gamerTag": "Buddylikefriend", "prefix": null, "user": {"location": {"city": "Atlanta", "state": "GA", "country": "United States"}}, "player": {"id": 785557, "gamerTag": "Buddylikefriend", "prefix": null, "user": {"location": {"city": "Atlanta", "state": "GA", "country": "United States"}}}}]}, "standing": {"placement": 2, "stats": {"score": {"value": -1}}}}, {"id": "92855773-1", "entrant": {"id": 21014067, "name": "4o4 | CoNavySeal", "participants": [{"id": 19330886, "gamerTag": "CoNavySeal", "prefix": "4o4", "user": {"location": {"city": "Alpharetta", "state": "GA", "country": "United States"}}, "player": {"id": 3818891, "gamerTag": "CoNavySeal", "prefix": "4o4", "user": {"location": {"city": "Alpharetta", "state": "GA", "country": "United States"}}}}]}, "standing": {"placement": 1, "stats": {"score": {"value": null}}}}], "games": null}, {"id": 92855774, "state": 3, "round": 2, "fullRoundText": "Winners Round 2", "completedAt": 1755649795, "winnerId": 21015033, "slots": [{"id": "92855774-0", "entrant": {"id": 21015033, "name": "Burboovas", "participants": [{"id": 19331754, "gamerTag": "Burboovas", "prefix": null, "user": {"location": {"city": null, "state": null, "country": null}}, "player": {"id": 3927191, "gamerTag": "Burboovas", "prefix": null, "user": {"location": {"city": null, "state": null, "country": null}}}}]}, "standing": {"placement": 1, "stats": {"score": {"value": 3}}}}, {"id": "92855774-1", "entrant": {"id": 21014610, "name": "Archway", "participants": [{"id": 19331370, "gamerTag": "Archway", "prefix": "", "user": {"location": {"city": "Sandy Springs", "state": "GA", "country": "United States"}}, "player": {"id": 1435251, "gamerTag": "Archway", "prefix": "", "user": {"location": {"city": "Sandy Springs", "state": "GA", "country": "United States"}}}}]}, "standing": {"placement": 2, "stats": {"score": {"value": 0}}}}], "games": null}, {"id": 92855775, "state": 3, "round": 2, "fullRoundText": "Winners Round 2", "completedAt": 1755650726, "winnerId": 21015808, "slots": [{"id": "92855775-0", "entrant": {"id": 21015808, "name": "4o4 | byronic zero", "participants": [{"id": 19332463, "gamerTag": "byronic zero", "prefix": "4o4", "user": {"location": {"city": "Atlanta", "state": "GA", "country": "United States"}}, "player": {"id": 3577590, "gamerTag": "byronic zero", "prefix": "4o4", "user": {"location": {"city": "Atlanta", "state": "GA", "country": "United States"}}}}]}, "standing": {"placement": 1, "stats": {"score": {"value": 3}}}}, {"id": "92855775-1", "entrant": {"id": 21015020, "name": "CptSilverRaider", "participants": [{"id": 19331742, "gamerTag": "CptSilverRaider", "prefix": "", "user": {"location": {"city": "Atlanta", "state": "GA", "country": "United States"}}, "player": {"id": 4931134, "gamerTag": "CptSilverRaider", "prefix": "", "user": {"location": {"city": "Atlanta", "state": "GA", "country": "United States"}}}}]}, "standing": {"placement": 2, "stats": {"score": {"value": 1}}}}], "games": null}, {"id": 92855776, "state": 3, "round": 2, "fullRoundText": "Winners Round 2", "completedAt": 1755650480, "winnerId": 21014263, "slots": [{"id": "92855776-0", "entrant": {"id": 21014263, "name": "Trophi", "participants": [{"id": 19331073, "gamerTag": "Trophi", "prefix": null, "user": {"location": {"city": "Sugar Hill", "state": "GA", "country": "United States"}}, "player": {"id": 35637, "gamerTag": "Trophi", "prefix": null, "user": {"location": {"city": "Sugar Hill", "state": "GA", "country": "United States"}}}}]}, "standing": {"placement": 1, "stats": {"score": {"value": 3}}}}, {"id": "92855776-1", "entrant": {"id": 21015175, "name": "4o4 | Yugo", "participants": [{"id": 19331889, "gamerTag": "Yugo", "prefix": "4o4", "user": {"location": {"city": "Sandy springs", "state": "GA", "country": "United States"}}, "player": {"id": 338020, "gamerTag": "Yugo", "prefix": "4o4", "user": {"location": {"city": "Sandy springs", "state": "GA", "country": "United States"}}}}]}, "standing": {"placement": 2, "stats": {"score": {"value": 0}}}}], "games": null}]}}}