{"phase": {"seeds": {"pageInfo": {"totalPages": 1, "total": 26}, "nodes": [{"id": 36766594, "seedNum": 1, "entrant": {"id": 21371009, "name": "The Simpsons | Ryu from Streets", "participants": [{"id": 19645686, "gamerTag": "Ryu from Streets", "prefix": "The Simpsons", "user": {"location": {"city": null, "state": null, "country": null}}, "player": {"id": 2348605, "gamerTag": "Ryu from Streets", "prefix": "GUMP2", "user": {"location": {"city": null, "state": null, "country": null}}}}]}}, {"id": 36738693, "seedNum": 2, "entrant": {"id": 21351724, "name": "GUMP2 | JankTrees!", "participants": [{"id": 19628260, "gamerTag": "JankTrees!", "prefix": "GUMP2", "user": {"location": {"city": "Cartersville", "state": "GA", "country": "United States"}}, "player": {"id": 35695, "gamerTag": "JankTrees!", "prefix": "GUMP2", "user": {"location": {"city": "Cartersville", "state": "GA", "country": "United States"}}}}]}}, {"id": 36760966, "seedNum": 5, "entrant": {"id": 21366396, "name": "Rain~", "participants": [{"id": 19641378, "gamerTag": "Rain~", "prefix": null, "user": {"location": {"city": "Atlanta", "state": "GA", "country": "United States"}}, "player": {"id": 4240164, "gamerTag": "Rain~", "prefix": null, "user": {"location": {"city": "Atlanta", "state": "GA", "country": "United States"}}}}]}}, {"id": 36764517, "seedNum": 3, "entrant": {"id": 21369436, "name": "EVC | squirtleB", "participants": [{"id": 19644171, "gamerTag": "squirtleB", "prefix": "EVC", "user": {"location": {"city": null, "state": null, "country": null}}, "player": {"id": 264290, "gamerTag": "squirtleB", "prefix": "EVC", "user": {"location": {"city": null, "state": null, "country": null}}}}]}}, {"id": 36764882, "seedNum": 8, "entrant": {"id": 21369670, "name": "BGA | KSU | WhopperFloppers", "participants": [{"id": 19644396, "gamerTag": "WhopperFloppers", "prefix": "BGA | KSU", "user": {"location": {"city": null, "state": null, "country": "United States"}}, "player": {"id": 2564706, "gamerTag": "WhopperFloppers", "prefix": "BGA | KSU", "user": {"location": {"city": null, "state": null, "country": "United States"}}}}]}}, {"id": 36763891, "seedNum": 9, "entrant": {"id": 21368896, "name": "Boo", "participants": [{"id": 19643659, "gamerTag": "Boo", "prefix": "", "user": {"location": {"city": "Cumming", "state": "GA", "country": "United States"}}, "player": {"id": 2647915, "gamerTag": "Boo", "prefix": "", "user": {"location": {"city": "Cumming", "state": "GA", "country": "United States"}}}}]}}, {"id": 36760957, "seedNum": 6, "entrant": {"id": 21366387, "name": "red dot", "participants": [{"id": 19641370, "gamerTag": "red dot", "prefix": "", "user": {"location": {"city": "Milton", "state": "GA", "country": "United States"}}, "player": {"id": 1812177, "gamerTag": "red dot", "prefix": "", "user": {"location": {"city": "Milton", "state": "GA", "country": "United States"}}}}]}}, {"id": 36764452, "seedNum": 17, "entrant": {"id": 21369376, "name": "WDKL MTM | D*ron", "participants": [{"id": 19644111, "gamerTag": "D*ron", "prefix": "WDKL MTM", "user": {"location": {"city": "Smyrna", "state": "GA", "country": "United States"}}, "player": {"id": 516047, "gamerTag": "D*ron", "prefix": "WDKL MTM", "user": {"location": {"city": "Smyrna", "state": "GA", "country": "United States"}}}}]}}, {"id": 36765299, "seedNum": 4, "entrant": {"id": 21370021, "name": "Grey", "participants": [{"id": 19644718, "gamerTag": "Grey", "prefix": null, "user": {"location": {"city": "mableton", "state": "GA", "country": "United States"}}, "player": {"id": 2634169, "gamerTag": "Grey", "prefix": null, "user": {"location": {"city": "mableton", "state": "GA", "country": "United States"}}}}]}}, {"id": 36760551, "seedNum": 7, "entrant": {"id": 21366071, "name": "KSU|UTO | Whaley", "participants": [{"id": 19641100, "gamerTag": "Whaley", "prefix": "KSU|UTO", "user": {"location": {"city": "Stone Mountain", "state": "GA", "country": "United States"}}, "player": {"id": 2016149, "gamerTag": "Whaley", "prefix": "KSU|UTO|BLZE", "user": {"location": {"city": "Stone Mountain", "state": "GA", "country": "United States"}}}}]}}, {"id": 36761580, "seedNum": 10, "entrant": {"id": 21366911, "name": "KSU | colorful\u029a\u025e", "participants": [{"id": 19641839, "gamerTag": "colorful\u029a\u025e", "prefix": "KSU", "user": {"location": {"city": "Kennesaw", "state": "GA", "country": "United States"}}, "player": {"id": 1783074, "gamerTag": "colorful\u029a\u025e", "prefix": "KSU | RM", "user": {"location": {"city": "Kennesaw", "state": "GA", "country": "United States"}}}}]}}, {"id": 36764113, "seedNum": 18, "entrant": {"id": 21369091, "name": "LvL? | Yharon", "participants": [{"id": 19643837, "gamerTag": "Yharon", "prefix": "LvL?", "user": {"location": {"city": "Carrollton", "state": "GA", "country": "United States"}}, "player": {"id": 3862975, "gamerTag": "Yharon", "prefix": "LvL?", "user": {"location": {"city": "Carrollton", "state": "GA", "country": "United States"}}}}]}}, {"id": 36762996, "seedNum": 15, "entrant": {"id": 21368114, "name": "WeepAngel", "participants": [{"id": 19642931, "gamerTag": "WeepAngel", "prefix": "", "user": {"location": {"city": "Atlanta", "state": "GA", "country": "United States"}}, "player": {"id": 1570829, "gamerTag": "WeepAngel", "prefix": "", "user": {"location": {"city": "Atlanta", "state": "GA", "country": "United States"}}}}]}}, {"id": 36763795, "seedNum": 16, "entrant": {"id": 21368844, "name": "RM | Prince Peach", "participants": [{"id": 19643611, "gamerTag": "Prince Peach", "prefix": "RM", "user": {"location": {"city": "Stone Mountain", "state": "GA", "country": "United States"}}, "player": {"id": 3003562, "gamerTag": "Prince Peach", "prefix": "RM", "user": {"location": {"city": "Stone Mountain", "state": "GA", "country": "United States"}}}}]}}, {"id": 36765566, "seedNum": 19, "entrant": {"id": 21370130, "name": "Arthr0pod", "participants": [{"id": 19644817, "gamerTag": "Arthr0pod", "prefix": null, "user": {"location": {"city": null, "state": null, "country": null}}, "player": {"id": 1723681, "gamerTag": "Arthr0pod", "prefix": null, "user": {"location": {"city": null, "state": null, "country": null}}}}]}}, {"id": 36764853, "seedNum": 26, "entrant": {"id": 21369641, "name": "mada0", "participants": [{"id": 19644366, "gamerTag": "mada0", "prefix": null, "user": {"location": {"city": "Villa Rica", "state": "GA", "country": "United States"}}, "player": {"id": 4991791, "gamerTag": "mada0", "prefix": null, "user": {"location": {"city": "Villa Rica", "state": "GA", "country": "United States"}}}}]}}, {"id": 36759978, "seedNum": 11, "entrant": {"id": 21365738, "name": "KSU | Subzero", "participants": [{"id": 19640804, "gamerTag": "Subzero", "prefix": "KSU", "user": {"location": {"city": "Acworth", "state": "GA", "country": "United States"}}, "player": {"id": 1808159, "gamerTag": "Subzero", "prefix": "KSU", "user": {"location": {"city": "Acworth", "state": "GA", "country": "United States"}}}}]}}, {"id": 36764077, "seedNum": 12, "entrant": {"id": 21369072, "name": "promamamia", "participants": [{"id": 19643818, "gamerTag": "promamamia", "prefix": "", "user": {"location": {"city": "Alpharetta", "state": "GA", "country": "United States"}}, "player": {"id": 3548468, "gamerTag": "promamamia", "prefix": "", "user": {"location": {"city": "Alpharetta", "state": "GA", "country": "United States"}}}}]}}, {"id": 36766331, "seedNum": 13, "entrant": {"id": 21370779, "name": "SaggyMilkJug", "participants": [{"id": 19645413, "gamerTag": "SaggyMilkJug", "prefix": "", "user": {"location": {"city": "Atlanta", "state": "GA", "country": "United States"}}, "player": {"id": 4651404, "gamerTag": "SaggyMilkJug", "prefix": "", "user": {"location": {"city": "Atlanta", "state": "GA", "country": "United States"}}}}]}}, {"id": 36759958, "seedNum": 14, "entrant": {"id": 21365718, "name": "Scootch", "participants": [{"id": 19640788, "gamerTag": "Scootch", "prefix": "", "user": {"location": {"city": "", "state": "GA", "country": "United States"}}, "player": {"id": 33426, "gamerTag": "Scootch", "prefix": "", "user": {"location": {"city": "", "state": "GA", "country": "United States"}}}}]}}, {"id": 36763720, "seedNum": 20, "entrant": {"id": 21368769, "name": "Zarek", "participants": [{"id": 19643544, "gamerTag": "Zarek", "prefix": "", "user": {"location": {"city": "Atlanta", "state": "GA", "country": "United States"}}, "player": {"id": 405682, "gamerTag": "Zarek", "prefix": "", "user": {"location": {"city": "Atlanta", "state": "GA", "country": "United States"}}}}]}}, {"id": 36763057, "seedNum": 21, "entrant": {"id": 21368162, "name": "Q", "participants": [{"id": 19642969, "gamerTag": "Q", "prefix": null, "user": {"location": {"city": null, "state": null, "country": null}}, "player": {"id": 3131876, "gamerTag": "Q", "prefix": null, "user": {"location": {"city": null, "state": null, "country": null}}}}]}}, {"id": 36763508, "seedNum": 22, "entrant": {"id": 21368578, "name": "Shusui", "participants": [{"id": 19643375, "gamerTag": "Shusui", "prefix": "", "user": {"location": {"city": "Suwanee", "state": "GA", "country": "United States"}}, "player": {"id": 3465710, "gamerTag": "Shusui", "prefix": "", "user": {"location": {"city": "Suwanee", "state": "GA", "country": "United States"}}}}]}}, {"id": 36756975, "seedNum": 24, "entrant": {"id": 21363790, "name": "IceWave4", "participants": [{"id": 19639069, "gamerTag": "IceWave4", "prefix": null, "user": {"location": {"city": "Dallas", "state": "GA", "country": "United States"}}, "player": {"id": 4191196, "gamerTag": "IceWave4", "prefix": null, "user": {"location": {"city": "Dallas", "state": "GA", "country": "United States"}}}}]}}, {"id": 36759944, "seedNum": 23, "entrant": {"id": 21365712, "name": "Stock Stealers | T.K.O", "participants": [{"id": 19640782, "gamerTag": "T.K.O", "prefix": "Stock Stealers", "user": {"location": {"city": "Smyrna", "state": "GA", "country": "United States"}}, "player": {"id": 4933114, "gamerTag": "T.K.O", "prefix": "Stock Stealer", "user": {"location": {"city": "Smyrna", "state": "GA", "country": "United States"}}}}]}}, {"id": 36766487, "seedNum": 25, "entrant": {"id": 21370915, "name": "CRAZYTAXI | FlyingSaucer", "participants": [{"id": 19645598, "gamerTag": "FlyingSaucer", "prefix": "CRAZYTAXI", "user": {"location": {"city": "Atlanta", "state": "GA", "country": "United States"}}, "player": {"id": 3116904, "gamerTag": "FlyingSaucer", "prefix": "CRAZYTAXI", "user": {"location": {"city": "Atlanta", "state": "GA", "country": "United States"}}}}]}}]}}}