{"phase": {"seeds": {"pageInfo": {"totalPages": 1, "total": 10}, "nodes": [{"id": 36708595, "seedNum": 1, "entrant": {"id": 21329863, "name": "4o4 | Musa", "participants": [{"id": 19608600, "gamerTag": "Musa", "prefix": "4o4", "user": {"location": {"city": null, "state": null, "country": "United States"}}, "player": {"id": 131537, "gamerTag": "Musa", "prefix": "4o4", "user": {"location": {"city": null, "state": null, "country": "United States"}}}}]}}, {"id": 36703162, "seedNum": 2, "entrant": {"id": 21328407, "name": "JKong", "participants": [{"id": 19607154, "gamerTag": "JKong", "prefix": null, "user": {"location": {"city": "Riverdale", "state": "GA", "country": "United States"}}, "player": {"id": 3515833, "gamerTag": "JKong", "prefix": null, "user": {"location": {"city": "Riverdale", "state": "GA", "country": "United States"}}}}]}}, {"id": 36709180, "seedNum": 4, "entrant": {"id": 21330378, "name": "4o4 | Yugo", "participants": [{"id": 19609057, "gamerTag": "Yugo", "prefix": "4o4", "user": {"location": {"city": "Sandy springs", "state": "GA", "country": "United States"}}, "player": {"id": 338020, "gamerTag": "Yugo", "prefix": "4o4", "user": {"location": {"city": "Sandy springs", "state": "GA", "country": "United States"}}}}]}}, {"id": 36693147, "seedNum": 3, "entrant": {"id": 21321645, "name": "Noodle", "participants": [{"id": 19601539, "gamerTag": "Noodle", "prefix": "", "user": {"location": {"city": "McDonough", "state": "GA", "country": "United States"}}, "player": {"id": 3029288, "gamerTag": "Noodle", "prefix": "", "user": {"location": {"city": "McDonough", "state": "GA", "country": "United States"}}}}]}}, {"id": 36709290, "seedNum": 5, "entrant": {"id": 21330480, "name": "ToBeFrank | FF | SLAYlor Moon", "participants": [{"id": 19609169, "gamerTag": "SLAYlor Moon", "prefix": "ToBeFrank | FF", "user": {"location": {"city": "Atlanta", "state": "GA", "country": "United States"}}, "player": {"id": 267007, "gamerTag": "SLAYlor Moon", "prefix": "ToBeFrank | FF", "user": {"location": {"city": "Atlanta", "state": "GA", "country": "United States"}}}}]}}, {"id": 36710026, "seedNum": 10, "entrant": {"id": 21331027, "name": "Jabberwock", "participants": [{"id": 19609708, "gamerTag": "Jabberwock", "prefix": "", "user": null, "player": {"id": 4986176, "gamerTag": "Jabberwock", "prefix": "", "user": null}}]}}, {"id": 36447977, "seedNum": 6, "entrant": {"id": 21153564, "name": "Doctor.Doom", "participants": [{"id": 19456409, "gamerTag": "Doctor.Doom", "prefix": "", "user": {"location": {"city": null, "state": "GA", "country": "United States"}}, "player": {"id": 4919900, "gamerTag": "Doctor.Doom", "prefix": "", "user": {"location": {"city": null, "state": "GA", "country": "United States"}}}}]}}, {"id": 36708561, "seedNum": 9, "entrant": {"id": 21329832, "name": "Pazure", "participants": [{"id": 19608578, "gamerTag": "Pazure", "prefix": null, "user": {"location": {"city": null, "state": null, "country": "United States"}}, "player": {"id": 72218, "gamerTag": "Pazure", "prefix": null, "user": {"location": {"city": null, "state": null, "country": "United States"}}}}]}}, {"id": 36696892, "seedNum": 7, "entrant": {"id": 21324662, "name": "Dinkus", "participants": [{"id": 19604066, "gamerTag": "Dinkus", "prefix": null, "user": {"location": {"city": "Woodstock", "state": "GA", "country": "United States"}}, "player": {"id": 1595062, "gamerTag": "Dinkus", "prefix": null, "user": {"location": {"city": "Woodstock", "state": "GA", "country": "United States"}}}}]}}, {"id": 36708501, "seedNum": 8, "entrant": {"id": 21329774, "name": "GoldxxBarrage", "participants": [{"id": 19608539, "gamerTag": "GoldxxBarrage", "prefix": null, "user": {"location": {"city": null, "state": "GA", "country": "United States"}}, "player": {"id": 4985918, "gamerTag": "GoldxxBarrage", "prefix": null, "user": {"location": {"city": null, "state": "GA", "country": "United States"}}}}]}}]}}}