{"phase": {"seeds": {"pageInfo": {"totalPages": 1, "total": 9}, "nodes": [{"id": 36029010, "seedNum": 1, "entrant": {"id": 20883905, "name": "citizendog", "participants": [{"id": 19214433, "gamerTag": "citizendog", "prefix": "", "user": {"location": {"city": "Monroe", "state": "GA", "country": "United States"}}, "player": {"id": 176325, "gamerTag": "citizendog", "prefix": "", "user": {"location": {"city": "Monroe", "state": "GA", "country": "United States"}}}}]}}, {"id": 36029018, "seedNum": 4, "entrant": {"id": 20883913, "name": "Tyme", "participants": [{"id": 19215054, "gamerTag": "Tyme", "prefix": null, "user": {"location": {"city": null, "state": null, "country": null}}, "player": {"id": 325589, "gamerTag": "Tyme", "prefix": null, "user": {"location": {"city": null, "state": null, "country": null}}}}]}}, {"id": 36029017, "seedNum": 2, "entrant": {"id": 20883912, "name": "blaise", "participants": [{"id": 19186191, "gamerTag": "blaise", "prefix": "", "user": {"location": {"city": "douglasville", "state": "GA", "country": "United States"}}, "player": {"id": 1326121, "gamerTag": "blaise", "prefix": "", "user": {"location": {"city": "douglasville", "state": "GA", "country": "United States"}}}}]}}, {"id": 36029199, "seedNum": 3, "entrant": {"id": 20884060, "name": "noided", "participants": [{"id": 19190945, "gamerTag": "noided", "prefix": "", "user": {"location": {"city": "Atlanta", "state": "GA", "country": "United States"}}, "player": {"id": 2586521, "gamerTag": "noided", "prefix": "", "user": {"location": {"city": "Atlanta", "state": "GA", "country": "United States"}}}}]}}, {"id": 36029001, "seedNum": 5, "entrant": {"id": 20883898, "name": "Newt Man", "participants": [{"id": 19215208, "gamerTag": "Newt Man", "prefix": "", "user": {"location": {"city": null, "state": null, "country": "United States"}}, "player": {"id": 4726806, "gamerTag": "Newt Man", "prefix": "", "user": {"location": {"city": null, "state": null, "country": "United States"}}}}]}}, {"id": 36028995, "seedNum": 6, "entrant": {"id": 20883895, "name": "STEEZY", "participants": [{"id": 19215553, "gamerTag": "STEEZY", "prefix": null, "user": {"location": {"city": "HELL", "state": "GA", "country": "United States"}}, "player": {"id": 2496238, "gamerTag": "STEEZY", "prefix": null, "user": {"location": {"city": "HELL", "state": "GA", "country": "United States"}}}}]}}, {"id": 36029052, "seedNum": 7, "entrant": {"id": 20883942, "name": "iamxenongas", "participants": [{"id": 19213634, "gamerTag": "iamxenongas", "prefix": null, "user": {"location": {"city": null, "state": "GA", "country": "United States"}}, "player": {"id": 4722621, "gamerTag": "iamxenongas", "prefix": null, "user": {"location": {"city": null, "state": "GA", "country": "United States"}}}}]}}, {"id": 36029200, "seedNum": 8, "entrant": {"id": 20884061, "name": "TPS | cryptonic", "participants": [{"id": 19209421, "gamerTag": "cryptonic", "prefix": "TPS", "user": {"location": {"city": "Acworth", "state": "GA", "country": "United States"}}, "player": {"id": 3422494, "gamerTag": "$CAITLIN", "prefix": "TPS", "user": {"location": {"city": "Acworth", "state": "GA", "country": "United States"}}}}]}}, {"id": 36028973, "seedNum": 9, "entrant": {"id": 20883870, "name": "afterimage", "participants": [{"id": 19186722, "gamerTag": "afterimage", "prefix": "", "user": {"location": {"city": "Atlanta", "state": "GA", "country": "United States"}}, "player": {"id": 4435133, "gamerTag": "popsicle", "prefix": "", "user": {"location": {"city": "Atlanta", "state": "GA", "country": "United States"}}}}]}}]}}}