{"event": {"sets": {"pageInfo": {"totalPages": 2, "total": 24}, "nodes": [{"id": 93192357, "state": 3, "round": 5, "fullRoundText": "Grand Final", "completedAt": 1756433887, "winnerId": 21100623, "slots": [{"id": "93192357-0", "entrant": {"id": 21100623, "name": "vivesthesia", "participants": [{"id": 19409022, "gamerTag": "vivesthesia", "prefix": null, "user": {"location": {"city": "Atlanta", "state": "GA", "country": "United States"}}, "player": {"id": 4395171, "gamerTag": "vivesthesia", "prefix": null, "user": {"location": {"city": "Atlanta", "state": "GA", "country": "United States"}}}}]}, "standing": {"placement": 1, "stats": {"score": {"value": 3}}}}, {"id": "93192357-1", "entrant": {"id": 21084457, "name": "swaggerbee", "participants": [{"id": 19394558, "gamerTag": "swaggerbee", "prefix": "", "user": {"location": {"city": "Atlanta", "state": "GA", "country": "United States"}}, "player": {"id": 1687384, "gamerTag": "swaggerbee", "prefix": "", "user": {"location": {"city": "Atlanta", "state": "GA", "country": "United States"}}}}]}, "standing": {"placement": 2, "stats": {"score": {"value": 1}}}}], "games": null}, {"id": 93192356, "state": 3, "round": 4, "fullRoundText": "Winners Final", "completedAt": 1756430401, "winnerId": 21100623, "slots": [{"id": "93192356-0", "entrant": {"id": 21084457, "name": "swaggerbee", "participants": [{"id": 19394558, "gamerTag": "swaggerbee", "prefix": "", "user": {"location": {"city": "Atlanta", "state": "GA", "country": "United States"}}, "player": {"id": 1687384, "gamerTag": "swaggerbee", "prefix": "", "user": {"location": {"city": "Atlanta", "state": "GA", "country": "United States"}}}}]}, "standing": {"placement": 2, "stats": {"score": {"value": 2}}}}, {"id": "93192356-1", "entrant": {"id": 21100623, "name": "vivesthesia", "participants": [{"id": 19409022, "gamerTag": "vivesthesia", "prefix": null, "user": {"location": {"city": "Atlanta", "state": "GA", "country": "United States"}}, "player": {"id": 4395171, "gamerTag": "vivesthesia", "prefix": null, "user": {"location": {"city": "Atlanta", "state": "GA", "country": "United States"}}}}]}, "standing": {"placement": 1, "stats": {"score": {"value": 3}}}}], "games": null}, {"id": 93192388, "state": 3, "round": -8, "fullRoundText": "Losers Final", "completedAt": 1756432948, "winnerId": 21084457, "slots": [{"id": "93192388-0", "entrant": {"id": 21084457, "name": "swaggerbee", "participants": [{"id": 19394558, "gamerTag": "swaggerbee", "prefix": "", "user": {"location": {"city": "Atlanta", "state": "GA", "country": "United States"}}, "player": {"id": 1687384, "gamerTag": "swaggerbee", "prefix": "", "user": {"location": {"city": "Atlanta", "state": "GA", "country": "United States"}}}}]}, "standing": {"placement": 1, "stats": {"score": {"value": 3}}}}, {"id": "93192388-1", "entrant": {"id": 21102997, "name": "sanrio enjoyer", "participants": [{"id": 19411270, "gamerTag": "sanrio enjoyer", "prefix": null, "user": {"location": {"city": "Atlanta", "state": "GA", "country": "United States"}}, "player": {"id": 4933308, "gamerTag": "sanrio enjoyer", "prefix": null, "user": {"location": {"city": "Atlanta", "state": "GA", "country": "United States"}}}}]}, "standing": {"placement": 2, "stats": {"score": {"value": 0}}}}], "games": null}, {"id": 93192387, "state": 3, "round": -7, "fullRoundText": "Losers Semi-Final", "completedAt": 1756431989, "winnerId": 21102997, "slots": [{"id": "93192387-0", "entrant": {"id": 21102997, "name": "sanrio enjoyer", "participants": [{"id": 19411270, "gamerTag": "sanrio enjoyer", "prefix": null, "user": {"location": {"city": "Atlanta", "state": "GA", "country": "United States"}}, "player": {"id": 4933308, "gamerTag": "sanrio enjoyer", "prefix": null, "user": {"location": {"city": "Atlanta", "state": "GA", "country": "United States"}}}}]}, "standing": {"placement": 1, "stats": {"score": {"value": 3}}}}, {"id": "93192387-1", "entrant": {"id": 21104228, "name": "2ndary | Errant", "participants": [{"id": 19412393, "gamerTag": "Errant", "prefix": "2ndary", "user": {"location": {"city": "Atlanta", "state": "GA", "country": "United States"}}, "player": {"id": 2823413, "gamerTag": "Errant", "prefix": "2ndary", "user": {"location": {"city": "Atlanta", "state": "GA", "country": "United States"}}}}]}, "standing": {"placement": 2, "stats": {"score": {"value": 1}}}}], "games": null}, {"id": 93192354, "state": 3, "round": 3, "fullRoundText": "Winners Semi-Final", "completedAt": 1756428577, "winnerId": 21084457, "slots": [{"id": "93192354-0", "entrant": {"id": 21084457, "name": "swaggerbee", "participants": [{"id": 19394558, "gamerTag": "swaggerbee", "prefix": "", "user": {"location": {"city": "Atlanta", "state": "GA", "country": "United States"}}, "player": {"id": 1687384, "gamerTag": "swaggerbee", "prefix": "", "user": {"location": {"city": "Atlanta", "state": "GA", "country": "United States"}}}}]}, "standing": {"placement": 1, "stats": {"score": {"value": 3}}}}, {"id": "93192354-1", "entrant": {"id": 21102997, "name": "sanrio enjoyer", "participants": [{"id": 19411270, "gamerTag": "sanrio enjoyer", "prefix": null, "user": {"location": {"city": "Atlanta", "state": "GA", "country": "United States"}}, "player": {"id": 4933308, "gamerTag": "sanrio enjoyer", "prefix": null, "user": {"location": {"city": "Atlanta", "state": "GA", "country": "United States"}}}}]}, "standing": {"placement": 2, "stats": {"score": {"value": 0}}}}], "games": null}, {"id": 93192355, "state": 3, "round": 3, "fullRoundText": "Winners Semi-Final", "completedAt": 1756429137, "winnerId": 21100623, "slots": [{"id": "93192355-0", "entrant": {"id": 21100623, "name": "vivesthesia", "participants": [{"id": 19409022, "gamerTag": "vivesthesia", "prefix": null, "user": {"location": {"city": "Atlanta", "state": "GA", "country": "United States"}}, "player": {"id": 4395171, "gamerTag": "vivesthesia", "prefix": null, "user": {"location": {"city": "Atlanta", "state": "GA", "country": "United States"}}}}]}, "standing": {"placement": 1, "stats": {"score": {"value": 3}}}}, {"id": "93192355-1", "entrant": {"id": 21100566, "name": "Joseph", "participants": [{"id": 19408962, "gamerTag": "Joseph", "prefix": "", "user": {"location": {"city": "", "state": "AL", "country": "United States"}}, "player": {"id": 22422, "gamerTag": "Joseph", "prefix": "", "user": {"location": {"city": "", "state": "AL", "country": "United States"}}}}]}, "standing": {"placement": 2, "stats": {"score": {"value": 0}}}}], "games": null}, {"id": 93192385, "state": 3, "round": -6, "fullRoundText": "Losers Quarter-Final", "completedAt": 1756430887, "winnerId": 21102997, "slots": [{"id": "93192385-0", "entrant": {"id": 21102997, "name": "sanrio enjoyer", "participants": [{"id": 19411270, "gamerTag": "sanrio enjoyer", "prefix": null, "user": {"location": {"city": "Atlanta", "state": "GA", "country": "United States"}}, "player": {"id": 4933308, "gamerTag": "sanrio enjoyer", "prefix": null, "user": {"location": {"city": "Atlanta", "state": "GA", "country": "United States"}}}}]}, "standing": {"placement": 1, "stats": {"score": {"value": 3}}}}, {"id": "93192385-1", "entrant": {"id": 21083657, "name": "EVIL | Alas", "participants": [{"id": 19393868, "gamerTag": "Alas", "prefix": "EVIL", "user": {"location": {"city": null, "state": null, "country": null}}, "player": {"id": 25946, "gamerTag": "Alas", "prefix": "EVIL", "user": {"location": {"city": null, "state": null, "country": null}}}}]}, "standing": {"placement": 2, "stats": {"score": {"value": 1}}}}], "games": null}, {"id": 93192386, "state": 3, "round": -6, "fullRoundText": "Losers Quarter-Final", "completedAt": 1756431024, "winnerId": 21104228, "slots": [{"id": "93192386-0", "entrant": {"id": 21100566, "name": "Joseph", "participants": [{"id": 19408962, "gamerTag": "Joseph", "prefix": "", "user": {"location": {"city": "", "state": "AL", "country": "United States"}}, "player": {"id": 22422, "gamerTag": "Joseph", "prefix": "", "user": {"location": {"city": "", "state": "AL", "country": "United States"}}}}]}, "standing": {"placement": 2, "stats": {"score": {"value": 1}}}}, {"id": "93192386-1", "entrant": {"id": 21104228, "name": "2ndary | Errant", "participants": [{"id": 19412393, "gamerTag": "Errant", "prefix": "2ndary", "user": {"location": {"city": "Atlanta", "state": "GA", "country": "United States"}}, "player": {"id": 2823413, "gamerTag": "Errant", "prefix": "2ndary", "user": {"location": {"city": "Atlanta", "state": "GA", "country": "United States"}}}}]}, "standing": {"placement": 1, "stats": {"score": {"value": 3}}}}], "games": [{"id": 32211466, "orderNum": 1, "winnerId": 21104228, "entrant1Score": 0, "entrant2Score": 0, "stage": null, "selections": [{"id": 47471276, "selectionType": "CHARACTER", "selectionValue": 6, "entrant": {"id": 21100566}, "character": {"id": 6, "name": "Fox"}}, {"id": 47471277, "selectionType": "CHARACTER", "selectionValue": 5, "entrant": {"id": 21104228}, "character": {"id": 5, "name": "Falco"}}]}, {"id": 32211467, "orderNum": 2, "winnerId": 21104228, "entrant1Score": 0, "entrant2Score": null, "stage": null, "selections": [{"id": 47471278, "selectionType": "CHARACTER", "selectionValue": 6, "entrant": {"id": 21100566}, "character": {"id": 6, "name": "Fox"}}, {"id": 47471279, "selectionType": "CHARACTER", "selectionValue": 14, "entrant": {"id": 21104228}, "character": {"id": 14, "name": "Marth"}}]}, {"id": 32211468, "orderNum": 3, "winnerId": 21100566, "entrant1Score": null, "entrant2Score": 0, "stage": null, "selections": [{"id": 47471280, "selectionType": "CHARACTER", "selectionValue": 23, "entrant": {"id": 21100566}, "character": {"id": 23, "name": "Sheik"}}, {"id": 47471281, "selectionType": "CHARACTER", "selectionValue": 5, "entrant": {"id": 21104228}, "character": {"id": 5, "name": "Falco"}}]}, {"id": 32211469, "orderNum": 4, "winnerId": 21104228, "entrant1Score": 0, "entrant2Score": null, "stage": null, "selections": [{"id": 47471282, "selectionType": "CHARACTER", "selectionValue": 6, "entrant": {"id": 21100566}, "character": {"id": 6, "name": "Fox"}}, {"id": 47471283, "selectionType": "CHARACTER", "selectionValue": 5, "entrant": {"id": 21104228}, "character": {"id": 5, "name": "Falco"}}]}]}, {"id": 93192383, "state": 3, "round": -5, "fullRoundText": "Losers Round 3", "completedAt": 1756429472, "winnerId": 21083657, "slots": [{"id": "93192383-0", "entrant": {"id": 21083657, "name": "EVIL | Alas", "participants": [{"id": 19393868, "gamerTag": "Alas", "prefix": "EVIL", "user": {"location": {"city": null, "state": null, "country": null}}, "player": {"id": 25946, "gamerTag": "Alas", "prefix": "EVIL", "user": {"location": {"city": null, "state": null, "country": null}}}}]}, "standing": {"placement": 1, "stats": {"score": {"value": 3}}}}, {"id": "93192383-1", "entrant": {"id": 21094234, "name": "OGC | bune", "participants": [{"id": 19403326, "gamerTag": "bune", "prefix": "OGC", "user": {"location": {"city": "Macon", "state": "GA", "country": "United States"}}, "player": {"id": 3054829, "gamerTag": "bune", "prefix": "OGC", "user": {"location": {"city": "Macon", "state": "GA", "country": "United States"}}}}]}, "standing": {"placement": 2, "stats": {"score": {"value": 1}}}}], "games": null}, {"id": 93192384, "state": 3, "round": -5, "fullRoundText": "Losers Round 3", "completedAt": 1756429821, "winnerId": 21104228, "slots": [{"id": "93192384-0", "entrant": {"id": 21104228, "name": "2ndary | Errant", "participants": [{"id": 19412393, "gamerTag": "Errant", "prefix": "2ndary", "user": {"location": {"city": "Atlanta", "state": "GA", "country": "United States"}}, "player": {"id": 2823413, "gamerTag": "Errant", "prefix": "2ndary", "user": {"location": {"city": "Atlanta", "state": "GA", "country": "United States"}}}}]}, "standing": {"placement": 1, "stats": {"score": {"value": 3}}}}, {"id": "93192384-1", "entrant": {"id": 21084639, "name": "DD | Kingpoyothefirst", "participants": [{"id": 19394641, "gamerTag": "Kingpoyothefirst", "prefix": "DD", "user": {"location": {"city": null, "state": null, "country": null}}, "player": {"id": 2934299, "gamerTag": "Kingpoyothefirst", "prefix": "DD", "user": {"location": {"city": null, "state": null, "country": null}}}}]}, "standing": {"placement": 2, "stats": {"score": {"value": 2}}}}], "games": null}, {"id": 93192350, "state": 3, "round": 2, "fullRoundText": "Winners Quarter-Final", "completedAt": 1756427357, "winnerId": 21084457, "slots": [{"id": "93192350-0", "entrant": {"id": 21084457, "name": "swaggerbee", "participants": [{"id": 19394558, "gamerTag": "swaggerbee", "prefix": "", "user": {"location": {"city": "Atlanta", "state": "GA", "country": "United States"}}, "player": {"id": 1687384, "gamerTag": "swaggerbee", "prefix": "", "user": {"location": {"city": "Atlanta", "state": "GA", "country": "United States"}}}}]}, "standing": {"placement": 1, "stats": {"score": {"value": 3}}}}, {"id": "93192350-1", "entrant": {"id": 21084639, "name": "DD | Kingpoyothefirst", "participants": [{"id": 19394641, "gamerTag": "Kingpoyothefirst", "prefix": "DD", "user": {"location": {"city": null, "state": null, "country": null}}, "player": {"id": 2934299, "gamerTag": "Kingpoyothefirst", "prefix": "DD", "user": {"location": {"city": null, "state": null, "country": null}}}}]}, "standing": {"placement": 2, "stats": {"score": {"value": 0}}}}], "games": null}, {"id": 93192351, "state": 3, "round": 2, "fullRoundText": "Winners Quarter-Final", "completedAt": 1756427329, "winnerId": 21102997, "slots": [{"id": "93192351-0", "entrant": {"id": 21102997, "name": "sanrio enjoyer", "participants": [{"id": 19411270, "gamerTag": "sanrio enjoyer", "prefix": null, "user": {"location": {"city": "Atlanta", "state": "GA", "country": "United States"}}, "player": {"id": 4933308, "gamerTag": "sanrio enjoyer", "prefix": null, "user": {"location": {"city": "Atlanta", "state": "GA", "country": "United States"}}}}]}, "standing": {"placement": 1, "stats": {"score": {"value": 3}}}}, {"id": "93192351-1", "entrant": {"id": 21104228, "name": "2ndary | Errant", "participants": [{"id": 19412393, "gamerTag": "Errant", "prefix": "2ndary", "user": {"location": {"city": "Atlanta", "state": "GA", "country": "United States"}}, "player": {"id": 2823413, "gamerTag": "Errant", "prefix": "2ndary", "user": {"location": {"city": "Atlanta", "state": "GA", "country": "United States"}}}}]}, "standing": {"placement": 2, "stats": {"score": {"value": 0}}}}], "games": null}, {"id": 93192352, "state": 3, "round": 2, "fullRoundText": "Winners Quarter-Final", "completedAt": 1756427153, "winnerId": 21100623, "slots": [{"id": "93192352-0", "entrant": {"id": 21100623, "name": "vivesthesia", "participants": [{"id": 19409022, "gamerTag": "vivesthesia", "prefix": null, "user": {"location": {"city": "Atlanta", "state": "GA", "country": "United States"}}, "player": {"id": 4395171, "gamerTag": "vivesthesia", "prefix": null, "user": {"location": {"city": "Atlanta", "state": "GA", "country": "United States"}}}}]}, "standing": {"placement": 1, "stats": {"score": {"value": 2}}}}, {"id": "93192352-1", "entrant": {"id": 21094234, "name": "OGC | bune", "participants": [{"id": 19403326, "gamerTag": "bune", "prefix": "OGC", "user": {"location": {"city": "Macon", "state": "GA", "country": "United States"}}, "player": {"id": 3054829, "gamerTag": "bune", "prefix": "OGC", "user": {"location": {"city": "Macon", "state": "GA", "country": "United States"}}}}]}, "standing": {"placement": 2, "stats": {"score": {"value": 0}}}}], "games": null}, {"id": 93192353, "state": 3, "round": 2, "fullRoundText": "Winners Quarter-Final", "completedAt": 1756427517, "winnerId": 21100566, "slots": [{"id": "93192353-0", "entrant": {"id": 21100566, "name": "Joseph", "participants": [{"id": 19408962, "gamerTag": "Joseph", "prefix": "", "user": {"location": {"city": "", "state": "AL", "country": "United States"}}, "player": {"id": 22422, "gamerTag": "Joseph", "prefix": "", "user": {"location": {"city": "", "state": "AL", "country": "United States"}}}}]}, "standing": {"placement": 1, "stats": {"score": {"value": 3}}}}, {"id": "93192353-1", "entrant": {"id": 21083657, "name": "EVIL | Alas", "participants": [{"id": 19393868, "gamerTag": "Alas", "prefix": "EVIL", "user": {"location": {"city": null, "state": null, "country": null}}, "player": {"id": 25946, "gamerTag": "Alas", "prefix": "EVIL", "user": {"location": {"city": null, "state": null, "country": null}}}}]}, "standing": {"placement": 2, "stats": {"score": {"value": 0}}}}], "games": null}, {"id": 93192379, "state": 3, "round": -4, "fullRoundText": "Losers Round 2", "completedAt": 1756428670, "winnerId": 21083657, "slots": [{"id": "93192379-0", "entrant": {"id": 21083657, "name": "EVIL | Alas", "participants": [{"id": 19393868, "gamerTag": "Alas", "prefix": "EVIL", "user": {"location": {"city": null, "state": null, "country": null}}, "player": {"id": 25946, "gamerTag": "Alas", "prefix": "EVIL", "user": {"location": {"city": null, "state": null, "country": null}}}}]}, "standing": {"placement": 1, "stats": {"score": {"value": 3}}}}, {"id": "93192379-1", "entrant": {"id": 21099252, "name": "Juan J. Steven's", "participants": [{"id": 19407712, "gamerTag": "Juan J. Steven's", "prefix": null, "user": {"location": {"city": "atlanta", "state": "GA", "country": "United States"}}, "player": {"id": 3318064, "gamerTag": "Guts", "prefix": "\u72a0\u7272\u306e\u70d9\u5370", "user": {"location": {"city": "atlanta", "state": "GA", "country": "United States"}}}}]}, "standing": {"placement": 2, "stats": {"score": {"value": 1}}}}], "games": null}]}}}