{"phase": {"seeds": {"pageInfo": {"totalPages": 1, "total": 22}, "nodes": [{"id": 36056108, "seedNum": 1, "entrant": {"id": 20901478, "name": "GUMP2 | Eleven", "participants": [{"id": 19229193, "gamerTag": "Eleven", "prefix": "GUMP2", "user": {"location": {"city": null, "state": null, "country": null}}, "player": {"id": 2348605, "gamerTag": "Ryu from Streets", "prefix": "GUMP2", "user": {"location": {"city": null, "state": null, "country": null}}}}]}}, {"id": 36048306, "seedNum": 2, "entrant": {"id": 20897064, "name": "GUMP2 | ToxiC", "participants": [{"id": 19227450, "gamerTag": "ToxiC", "prefix": "GUMP2", "user": {"location": {"city": "Marietta", "state": "GA", "country": "United States"}}, "player": {"id": 2585804, "gamerTag": "ToxiC", "prefix": "GUMP2", "user": {"location": {"city": "Marietta", "state": "GA", "country": "United States"}}}}]}}, {"id": 36035172, "seedNum": 5, "entrant": {"id": 20888519, "name": "cO | Netherlord64", "participants": [{"id": 19220180, "gamerTag": "Netherlord64", "prefix": "cO", "user": {"location": {"city": "Roswell", "state": "GA", "country": "United States"}}, "player": {"id": 4586226, "gamerTag": "Netherlord64", "prefix": "", "user": {"location": {"city": "Roswell", "state": "GA", "country": "United States"}}}}]}}, {"id": 36048240, "seedNum": 3, "entrant": {"id": 20897021, "name": "Barbashop", "participants": [{"id": 19227409, "gamerTag": "Barbashop", "prefix": "", "user": {"location": {"city": null, "state": null, "country": null}}, "player": {"id": 2537853, "gamerTag": "Barbashop", "prefix": "", "user": {"location": {"city": null, "state": null, "country": null}}}}]}}, {"id": 36053232, "seedNum": 8, "entrant": {"id": 20899515, "name": "BGA | KSU | WhopperFloppers", "participants": [{"id": 19229599, "gamerTag": "WhopperFloppers", "prefix": "BGA | KSU", "user": {"location": {"city": null, "state": null, "country": "United States"}}, "player": {"id": 2564706, "gamerTag": "WhopperFloppers", "prefix": "BGA | KSU", "user": {"location": {"city": null, "state": null, "country": "United States"}}}}]}}, {"id": 36048796, "seedNum": 9, "entrant": {"id": 20897736, "name": "Boo", "participants": [{"id": 19228087, "gamerTag": "Boo", "prefix": "", "user": {"location": {"city": "Cumming", "state": "GA", "country": "United States"}}, "player": {"id": 2647915, "gamerTag": "Boo", "prefix": "", "user": {"location": {"city": "Cumming", "state": "GA", "country": "United States"}}}}]}}, {"id": 36033481, "seedNum": 12, "entrant": {"id": 20887014, "name": "BlaZR", "participants": [{"id": 19218876, "gamerTag": "BlaZR", "prefix": "", "user": {"location": {"city": "ur mum", "state": null, "country": "United States"}}, "player": {"id": 1804122, "gamerTag": "BlaZR", "prefix": "", "user": {"location": {"city": "ur mum", "state": null, "country": "United States"}}}}]}}, {"id": 36056113, "seedNum": 17, "entrant": {"id": 20901479, "name": "SaggyMilkJug", "participants": [{"id": 19231403, "gamerTag": "SaggyMilkJug", "prefix": "", "user": {"location": {"city": "Atlanta", "state": "GA", "country": "United States"}}, "player": {"id": 4651404, "gamerTag": "SaggyMilkJug", "prefix": "", "user": {"location": {"city": "Atlanta", "state": "GA", "country": "United States"}}}}]}}, {"id": 36050120, "seedNum": 7, "entrant": {"id": 20898791, "name": "red dot", "participants": [{"id": 19229002, "gamerTag": "red dot", "prefix": "", "user": {"location": {"city": "Milton", "state": "GA", "country": "United States"}}, "player": {"id": 1812177, "gamerTag": "red dot", "prefix": "", "user": {"location": {"city": "Milton", "state": "GA", "country": "United States"}}}}]}}, {"id": 36047355, "seedNum": 10, "entrant": {"id": 20896528, "name": "UTO | Whaley", "participants": [{"id": 19226971, "gamerTag": "Whaley", "prefix": "UTO", "user": {"location": {"city": "Stone Mountain", "state": "GA", "country": "United States"}}, "player": {"id": 2016149, "gamerTag": "Whaley", "prefix": "KSU|UTO|BLZE", "user": {"location": {"city": "Stone Mountain", "state": "GA", "country": "United States"}}}}]}}, {"id": 36047397, "seedNum": 11, "entrant": {"id": 20896567, "name": "KSU | Subzero", "participants": [{"id": 19227006, "gamerTag": "Subzero", "prefix": "KSU", "user": {"location": {"city": "Acworth", "state": "GA", "country": "United States"}}, "player": {"id": 1808159, "gamerTag": "Subzero", "prefix": "KSU", "user": {"location": {"city": "Acworth", "state": "GA", "country": "United States"}}}}]}}, {"id": 36048878, "seedNum": 13, "entrant": {"id": 20897817, "name": "KSU | colorful\u029a\u025e", "participants": [{"id": 19228160, "gamerTag": "colorful\u029a\u025e", "prefix": "KSU", "user": {"location": {"city": "Kennesaw", "state": "GA", "country": "United States"}}, "player": {"id": 1783074, "gamerTag": "colorful\u029a\u025e", "prefix": "KSU | RM", "user": {"location": {"city": "Kennesaw", "state": "GA", "country": "United States"}}}}]}}, {"id": 36052226, "seedNum": 4, "entrant": {"id": 20899265, "name": "FreeDubs", "participants": [{"id": 19229407, "gamerTag": "FreeDubs", "prefix": null, "user": {"location": {"city": "Atlanta", "state": "GA", "country": "United States"}}, "player": {"id": 2366887, "gamerTag": "FreeDubs", "prefix": null, "user": {"location": {"city": "Atlanta", "state": "GA", "country": "United States"}}}}]}}, {"id": 36054063, "seedNum": 14, "entrant": {"id": 20900205, "name": "WDKL MTM | D*ron", "participants": [{"id": 19230214, "gamerTag": "D*ron", "prefix": "WDKL MTM", "user": {"location": {"city": "Smyrna", "state": "GA", "country": "United States"}}, "player": {"id": 516047, "gamerTag": "D*ron", "prefix": "WDKL MTM", "user": {"location": {"city": "Smyrna", "state": "GA", "country": "United States"}}}}]}}, {"id": 36047844, "seedNum": 16, "entrant": {"id": 20896750, "name": "Scootch", "participants": [{"id": 19227170, "gamerTag": "Scootch", "prefix": "", "user": {"location": {"city": "", "state": "GA", "country": "United States"}}, "player": {"id": 33426, "gamerTag": "Scootch", "prefix": "", "user": {"location": {"city": "", "state": "GA", "country": "United States"}}}}]}}, {"id": 36053356, "seedNum": 18, "entrant": {"id": 20899592, "name": "Zarek", "participants": [{"id": 19229673, "gamerTag": "Zarek", "prefix": "", "user": {"location": {"city": "Atlanta", "state": "GA", "country": "United States"}}, "player": {"id": 405682, "gamerTag": "Zarek", "prefix": "", "user": {"location": {"city": "Atlanta", "state": "GA", "country": "United States"}}}}]}}, {"id": 36056957, "seedNum": 6, "entrant": {"id": 20901696, "name": "Stache", "participants": [{"id": 19231667, "gamerTag": "Stache", "prefix": "", "user": {"location": {"city": "Alpharetta", "state": "GA", "country": "United States"}}, "player": {"id": 36645, "gamerTag": "Stache", "prefix": "", "user": {"location": {"city": "Alpharetta", "state": "GA", "country": "United States"}}}}]}}, {"id": 36050980, "seedNum": 15, "entrant": {"id": 20898853, "name": "WeepAngel", "participants": [{"id": 19229055, "gamerTag": "WeepAngel", "prefix": "", "user": {"location": {"city": "Atlanta", "state": "GA", "country": "United States"}}, "player": {"id": 1570829, "gamerTag": "WeepAngel", "prefix": "", "user": {"location": {"city": "Atlanta", "state": "GA", "country": "United States"}}}}]}}, {"id": 36053763, "seedNum": 19, "entrant": {"id": 20899920, "name": "MTM | Mishmash", "participants": [{"id": 19229956, "gamerTag": "Mishmash", "prefix": "MTM", "user": {"location": {"city": "Cartersville", "state": "GA", "country": "United States"}}, "player": {"id": 4104907, "gamerTag": "Mishmash", "prefix": "MTM", "user": {"location": {"city": "Cartersville", "state": "GA", "country": "United States"}}}}]}}, {"id": 36048186, "seedNum": 20, "entrant": {"id": 20896974, "name": "BGA | Bumpadumper", "participants": [{"id": 19227363, "gamerTag": "Bumpadumper", "prefix": "BGA", "user": {"location": {"city": null, "state": "GA", "country": "United States"}}, "player": {"id": 1465383, "gamerTag": "Bumpadumper", "prefix": "BGA", "user": {"location": {"city": null, "state": "GA", "country": "United States"}}}}]}}, {"id": 36031021, "seedNum": 21, "entrant": {"id": 20885493, "name": "Ohple", "participants": [{"id": 19217506, "gamerTag": "Ohple", "prefix": null, "user": {"location": {"city": "Roswell", "state": "GA", "country": "United States"}}, "player": {"id": 134634, "gamerTag": "Ohple", "prefix": null, "user": {"location": {"city": "Roswell", "state": "GA", "country": "United States"}}}}]}}, {"id": 36053986, "seedNum": 22, "entrant": {"id": 20900130, "name": "MikePTM", "participants": [{"id": 19230150, "gamerTag": "MikePTM", "prefix": "", "user": {"location": {"city": null, "state": null, "country": "United States"}}, "player": {"id": 3586658, "gamerTag": "MikePTM", "prefix": "KSU", "user": {"location": {"city": null, "state": null, "country": "United States"}}}}]}}]}}}