{"phase": {"seeds": {"pageInfo": {"totalPages": 1, "total": 17}, "nodes": [{"id": 36198929, "seedNum": 1, "entrant": {"id": 20987589, "name": "4o4Esports | CamPaine", "participants": [{"id": 19306818, "gamerTag": "CamPaine", "prefix": "4o4Esports", "user": {"location": {"city": "Brookhaven", "state": "GA", "country": "United States"}}, "player": {"id": 313909, "gamerTag": "CamPaine", "prefix": "4o4Esports", "user": {"location": {"city": "Brookhaven", "state": "GA", "country": "United States"}}}}]}}, {"id": 36196317, "seedNum": 2, "entrant": {"id": 20985761, "name": "Alex_dotdot", "participants": [{"id": 19305284, "gamerTag": "Alex_dotdot", "prefix": null, "user": {"location": {"city": "Tucker", "state": "GA", "country": "United States"}}, "player": {"id": 657023, "gamerTag": "Alex_dotdot", "prefix": null, "user": {"location": {"city": "Tucker", "state": "GA", "country": "United States"}}}}]}}, {"id": 36146319, "seedNum": 3, "entrant": {"id": 20961219, "name": "4o4 | Musa", "participants": [{"id": 19284016, "gamerTag": "Musa", "prefix": "4o4", "user": {"location": {"city": null, "state": null, "country": "United States"}}, "player": {"id": 131537, "gamerTag": "Musa", "prefix": "4o4", "user": {"location": {"city": null, "state": null, "country": "United States"}}}}]}}, {"id": 36114782, "seedNum": 6, "entrant": {"id": 20939325, "name": "Toph The Goat", "participants": [{"id": 19265096, "gamerTag": "Toph The Goat", "prefix": null, "user": {"location": {"city": "Anderson", "state": "SC", "country": "United States"}}, "player": {"id": 3462084, "gamerTag": "Toph The Goat", "prefix": null, "user": {"location": {"city": "Anderson", "state": "SC", "country": "United States"}}}}]}}, {"id": 36197923, "seedNum": 4, "entrant": {"id": 20986847, "name": "Noodle", "participants": [{"id": 19306191, "gamerTag": "Noodle", "prefix": null, "user": {"location": {"city": "McDonough", "state": "GA", "country": "United States"}}, "player": {"id": 3029288, "gamerTag": "Noodle", "prefix": "", "user": {"location": {"city": "McDonough", "state": "GA", "country": "United States"}}}}]}}, {"id": 36194433, "seedNum": 5, "entrant": {"id": 20984583, "name": "4o4 | Yugo", "participants": [{"id": 19304371, "gamerTag": "Yugo", "prefix": "4o4", "user": {"location": {"city": "Sandy springs", "state": "GA", "country": "United States"}}, "player": {"id": 338020, "gamerTag": "Yugo", "prefix": "4o4", "user": {"location": {"city": "Sandy springs", "state": "GA", "country": "United States"}}}}]}}, {"id": 36188492, "seedNum": 8, "entrant": {"id": 20981134, "name": "4o4 | KhalRhaego", "participants": [{"id": 19301704, "gamerTag": "KhalRhaego", "prefix": "4o4", "user": {"location": {"city": "Jonesboro", "state": "GA", "country": "United States"}}, "player": {"id": 4076327, "gamerTag": "KhalRhaego", "prefix": "BOLT", "user": {"location": {"city": "Jonesboro", "state": "GA", "country": "United States"}}}}]}}, {"id": 36198778, "seedNum": 9, "entrant": {"id": 20987471, "name": "Eternia Corp. | Prince", "participants": [{"id": 19306714, "gamerTag": "Prince", "prefix": "Eternia Corp.", "user": {"location": {"city": "Atlanta", "state": "GA", "country": "United States"}}, "player": {"id": 3448115, "gamerTag": "Prince", "prefix": "Eternia Corp.", "user": {"location": {"city": "Atlanta", "state": "GA", "country": "United States"}}}}]}}, {"id": 36197357, "seedNum": 7, "entrant": {"id": 20986591, "name": "Archway", "participants": [{"id": 19305958, "gamerTag": "Archway", "prefix": "", "user": {"location": {"city": "Sandy Springs", "state": "GA", "country": "United States"}}, "player": {"id": 1435251, "gamerTag": "Archway", "prefix": "", "user": {"location": {"city": "Sandy Springs", "state": "GA", "country": "United States"}}}}]}}, {"id": 36198555, "seedNum": 10, "entrant": {"id": 20987301, "name": "Xangief", "participants": [{"id": 19306584, "gamerTag": "Xangief", "prefix": null, "user": {"location": {"city": "Atlanta", "state": "GA", "country": "United States"}}, "player": {"id": 135082, "gamerTag": "Xangief", "prefix": null, "user": {"location": {"city": "Atlanta", "state": "GA", "country": "United States"}}}}]}}, {"id": 36197959, "seedNum": 12, "entrant": {"id": 20986884, "name": "Pazure", "participants": [{"id": 19306226, "gamerTag": "Pazure", "prefix": null, "user": {"location": {"city": null, "state": null, "country": "United States"}}, "player": {"id": 72218, "gamerTag": "Pazure", "prefix": null, "user": {"location": {"city": null, "state": null, "country": "United States"}}}}]}}, {"id": 36193315, "seedNum": 14, "entrant": {"id": 20983993, "name": "TortaPounder_Chino", "participants": [{"id": 19303960, "gamerTag": "TortaPounder_Chino", "prefix": "", "user": {"location": {"city": "Lawerenceville", "state": "GA", "country": "United States"}}, "player": {"id": 2642938, "gamerTag": "TortaPounder_Chino", "prefix": "", "user": {"location": {"city": "Lawerenceville", "state": "GA", "country": "United States"}}}}]}}, {"id": 36119061, "seedNum": 11, "entrant": {"id": 20942559, "name": "Discount_Akuma", "participants": [{"id": 19268034, "gamerTag": "Discount_Akuma", "prefix": null, "user": {"location": {"city": null, "state": "GA", "country": "United States"}}, "player": {"id": 4222724, "gamerTag": "Discount_Akuma", "prefix": null, "user": {"location": {"city": null, "state": "GA", "country": "United States"}}}}]}}, {"id": 36123503, "seedNum": 13, "entrant": {"id": 20945301, "name": "Doctor.Doom", "participants": [{"id": 19270355, "gamerTag": "Doctor.Doom", "prefix": "", "user": {"location": {"city": null, "state": "GA", "country": "United States"}}, "player": {"id": 4919900, "gamerTag": "Doctor.Doom", "prefix": "", "user": {"location": {"city": null, "state": "GA", "country": "United States"}}}}]}}, {"id": 36199538, "seedNum": 15, "entrant": {"id": 20988074, "name": "AntiMatterJ", "participants": [{"id": 19307223, "gamerTag": "AntiMatterJ", "prefix": null, "user": {"location": {"city": "Duluth", "state": "GA", "country": "United States"}}, "player": {"id": 2803679, "gamerTag": "AntiMatterJ", "prefix": null, "user": {"location": {"city": "Duluth", "state": "GA", "country": "United States"}}}}]}}, {"id": 36199451, "seedNum": 16, "entrant": {"id": 20987988, "name": "ToBeFrank | FF | SLAYlor Moon", "participants": [{"id": 19307159, "gamerTag": "SLAYlor Moon", "prefix": "ToBeFrank | FF", "user": {"location": {"city": "Atlanta", "state": "GA", "country": "United States"}}, "player": {"id": 267007, "gamerTag": "SLAYlor Moon", "prefix": "ToBeFrank | FF", "user": {"location": {"city": "Atlanta", "state": "GA", "country": "United States"}}}}]}}, {"id": 36197282, "seedNum": 17, "entrant": {"id": 20986542, "name": "YoshiAteMyPizza", "participants": [{"id": 19305915, "gamerTag": "YoshiAteMyPizza", "prefix": "", "user": {"location": {"city": "Norcross", "state": "GA", "country": "United States"}}, "player": {"id": 2364649, "gamerTag": "YoshiAteMyPizza", "prefix": "", "user": {"location": {"city": "Norcross", "state": "GA", "country": "United States"}}}}]}}]}}}