{"event": {"sets": {"pageInfo": {"totalPages": 2, "total": 26}, "nodes": [{"id": 92608517, "state": 3, "round": 5, "fullRoundText": "Grand Final", "completedAt": 1755053857, "winnerId": 20953624, "slots": [{"id": "92608517-0", "entrant": {"id": 20953624, "name": "DGS | spickles", "participants": [{"id": 19277659, "gamerTag": "spickles", "prefix": "DGS", "user": {"location": {"city": null, "state": null, "country": "United States"}}, "player": {"id": 1154793, "gamerTag": "spickles", "prefix": "DGS", "user": {"location": {"city": null, "state": null, "country": "United States"}}}}]}, "standing": {"placement": 1, "stats": {"score": {"value": 3}}}}, {"id": "92608517-1", "entrant": {"id": 20949200, "name": "TRAIN", "participants": [{"id": 19273933, "gamerTag": "TRAIN", "prefix": "", "user": {"location": {"city": "Fort Erie", "state": "ON", "country": "Canada"}}, "player": {"id": 160326, "gamerTag": "TRAIN", "prefix": "", "user": {"location": {"city": "Fort Erie", "state": "ON", "country": "Canada"}}}}]}, "standing": {"placement": 2, "stats": {"score": {"value": 1}}}}], "games": null}, {"id": 92608516, "state": 3, "round": 4, "fullRoundText": "Winners Final", "completedAt": 1755050652, "winnerId": 20953624, "slots": [{"id": "92608516-0", "entrant": {"id": 20953624, "name": "DGS | spickles", "participants": [{"id": 19277659, "gamerTag": "spickles", "prefix": "DGS", "user": {"location": {"city": null, "state": null, "country": "United States"}}, "player": {"id": 1154793, "gamerTag": "spickles", "prefix": "DGS", "user": {"location": {"city": null, "state": null, "country": "United States"}}}}]}, "standing": {"placement": 1, "stats": {"score": {"value": 3}}}}, {"id": "92608516-1", "entrant": {"id": 20949200, "name": "TRAIN", "participants": [{"id": 19273933, "gamerTag": "TRAIN", "prefix": "", "user": {"location": {"city": "Fort Erie", "state": "ON", "country": "Canada"}}, "player": {"id": 160326, "gamerTag": "TRAIN", "prefix": "", "user": {"location": {"city": "Fort Erie", "state": "ON", "country": "Canada"}}}}]}, "standing": {"placement": 2, "stats": {"score": {"value": 2}}}}], "games": null}, {"id": 92608548, "state": 3, "round": -8, "fullRoundText": "Losers Final", "completedAt": 1755053326, "winnerId": 20949200, "slots": [{"id": "92608548-0", "entrant": {"id": 20949200, "name": "TRAIN", "participants": [{"id": 19273933, "gamerTag": "TRAIN", "prefix": "", "user": {"location": {"city": "Fort Erie", "state": "ON", "country": "Canada"}}, "player": {"id": 160326, "gamerTag": "TRAIN", "prefix": "", "user": {"location": {"city": "Fort Erie", "state": "ON", "country": "Canada"}}}}]}, "standing": {"placement": 1, "stats": {"score": {"value": 3}}}}, {"id": "92608548-1", "entrant": {"id": 20949777, "name": "Sacred", "participants": [{"id": 19274264, "gamerTag": "Sacred", "prefix": "", "user": {"location": {"city": null, "state": null, "country": "United States"}}, "player": {"id": 1007555, "gamerTag": "Sacred", "prefix": "", "user": {"location": {"city": null, "state": null, "country": "United States"}}}}]}, "standing": {"placement": 2, "stats": {"score": {"value": 1}}}}], "games": null}, {"id": 92608547, "state": 3, "round": -7, "fullRoundText": "Losers Semi-Final", "completedAt": 1755051662, "winnerId": 20949777, "slots": [{"id": "92608547-0", "entrant": {"id": 20953566, "name": "Typical!", "participants": [{"id": 19277605, "gamerTag": "Typical!", "prefix": "", "user": {"location": {"city": "Cumming", "state": "GA", "country": "United States"}}, "player": {"id": 1227171, "gamerTag": "Typical!", "prefix": "", "user": {"location": {"city": "Cumming", "state": "GA", "country": "United States"}}}}]}, "standing": {"placement": 2, "stats": {"score": {"value": 1}}}}, {"id": "92608547-1", "entrant": {"id": 20949777, "name": "Sacred", "participants": [{"id": 19274264, "gamerTag": "Sacred", "prefix": "", "user": {"location": {"city": null, "state": null, "country": "United States"}}, "player": {"id": 1007555, "gamerTag": "Sacred", "prefix": "", "user": {"location": {"city": null, "state": null, "country": "United States"}}}}]}, "standing": {"placement": 1, "stats": {"score": {"value": 3}}}}], "games": null}, {"id": 92608514, "state": 3, "round": 3, "fullRoundText": "Winners Semi-Final", "completedAt": 1755048723, "winnerId": 20953624, "slots": [{"id": "92608514-0", "entrant": {"id": 20953624, "name": "DGS | spickles", "participants": [{"id": 19277659, "gamerTag": "spickles", "prefix": "DGS", "user": {"location": {"city": null, "state": null, "country": "United States"}}, "player": {"id": 1154793, "gamerTag": "spickles", "prefix": "DGS", "user": {"location": {"city": null, "state": null, "country": "United States"}}}}]}, "standing": {"placement": 1, "stats": {"score": {"value": 3}}}}, {"id": "92608514-1", "entrant": {"id": 20953566, "name": "Typical!", "participants": [{"id": 19277605, "gamerTag": "Typical!", "prefix": "", "user": {"location": {"city": "Cumming", "state": "GA", "country": "United States"}}, "player": {"id": 1227171, "gamerTag": "Typical!", "prefix": "", "user": {"location": {"city": "Cumming", "state": "GA", "country": "United States"}}}}]}, "standing": {"placement": 2, "stats": {"score": {"value": 2}}}}], "games": null}, {"id": 92608515, "state": 3, "round": 3, "fullRoundText": "Winners Semi-Final", "completedAt": 1755049312, "winnerId": 20949200, "slots": [{"id": "92608515-0", "entrant": {"id": 20949200, "name": "TRAIN", "participants": [{"id": 19273933, "gamerTag": "TRAIN", "prefix": "", "user": {"location": {"city": "Fort Erie", "state": "ON", "country": "Canada"}}, "player": {"id": 160326, "gamerTag": "TRAIN", "prefix": "", "user": {"location": {"city": "Fort Erie", "state": "ON", "country": "Canada"}}}}]}, "standing": {"placement": 1, "stats": {"score": {"value": 3}}}}, {"id": "92608515-1", "entrant": {"id": 20949777, "name": "Sacred", "participants": [{"id": 19274264, "gamerTag": "Sacred", "prefix": "", "user": {"location": {"city": null, "state": null, "country": "United States"}}, "player": {"id": 1007555, "gamerTag": "Sacred", "prefix": "", "user": {"location": {"city": null, "state": null, "country": "United States"}}}}]}, "standing": {"placement": 2, "stats": {"score": {"value": 0}}}}], "games": null}, {"id": 92608545, "state": 3, "round": -6, "fullRoundText": "Losers Quarter-Final", "completedAt": 1755050062, "winnerId": 20953566, "slots": [{"id": "92608545-0", "entrant": {"id": 20953566, "name": "Typical!", "participants": [{"id": 19277605, "gamerTag": "Typical!", "prefix": "", "user": {"location": {"city": "Cumming", "state": "GA", "country": "United States"}}, "player": {"id": 1227171, "gamerTag": "Typical!", "prefix": "", "user": {"location": {"city": "Cumming", "state": "GA", "country": "United States"}}}}]}, "standing": {"placement": 1, "stats": {"score": {"value": 3}}}}, {"id": "92608545-1", "entrant": {"id": 20951486, "name": "Jeni", "participants": [{"id": 19275815, "gamerTag": "Jeni", "prefix": "", "user": {"location": {"city": null, "state": null, "country": null}}, "player": {"id": 1499467, "gamerTag": "Jeni", "prefix": "", "user": {"location": {"city": null, "state": null, "country": null}}}}]}, "standing": {"placement": 2, "stats": {"score": {"value": 1}}}}], "games": null}, {"id": 92608546, "state": 3, "round": -6, "fullRoundText": "Losers Quarter-Final", "completedAt": 1755050679, "winnerId": 20949777, "slots": [{"id": "92608546-0", "entrant": {"id": 20949777, "name": "Sacred", "participants": [{"id": 19274264, "gamerTag": "Sacred", "prefix": "", "user": {"location": {"city": null, "state": null, "country": "United States"}}, "player": {"id": 1007555, "gamerTag": "Sacred", "prefix": "", "user": {"location": {"city": null, "state": null, "country": "United States"}}}}]}, "standing": {"placement": 1, "stats": {"score": {"value": 3}}}}, {"id": "92608546-1", "entrant": {"id": 20948663, "name": "Nestor", "participants": [{"id": 19273429, "gamerTag": "Nestor", "prefix": null, "user": {"location": {"city": "Gainesville", "state": "GA", "country": "United States"}}, "player": {"id": 1630543, "gamerTag": "Nestor", "prefix": null, "user": {"location": {"city": "Gainesville", "state": "GA", "country": "United States"}}}}]}, "standing": {"placement": 2, "stats": {"score": {"value": 1}}}}], "games": null}, {"id": 92608543, "state": 3, "round": -5, "fullRoundText": "Losers Round 3", "completedAt": 1755049200, "winnerId": 20951486, "slots": [{"id": "92608543-0", "entrant": {"id": 20951486, "name": "Jeni", "participants": [{"id": 19275815, "gamerTag": "Jeni", "prefix": "", "user": {"location": {"city": null, "state": null, "country": null}}, "player": {"id": 1499467, "gamerTag": "Jeni", "prefix": "", "user": {"location": {"city": null, "state": null, "country": null}}}}]}, "standing": {"placement": 1, "stats": {"score": {"value": 2}}}}, {"id": "92608543-1", "entrant": {"id": 20948416, "name": "Cromat", "participants": [{"id": 19273216, "gamerTag": "Cromat", "prefix": "", "user": {"location": {"city": "Savannah", "state": "GA", "country": "United States"}}, "player": {"id": 3055798, "gamerTag": "Cromat", "prefix": "", "user": {"location": {"city": "Savannah", "state": "GA", "country": "United States"}}}}]}, "standing": {"placement": 2, "stats": {"score": {"value": 0}}}}], "games": null}, {"id": 92608544, "state": 3, "round": -5, "fullRoundText": "Losers Round 3", "completedAt": 1755048445, "winnerId": 20948663, "slots": [{"id": "92608544-0", "entrant": {"id": 20948663, "name": "Nestor", "participants": [{"id": 19273429, "gamerTag": "Nestor", "prefix": null, "user": {"location": {"city": "Gainesville", "state": "GA", "country": "United States"}}, "player": {"id": 1630543, "gamerTag": "Nestor", "prefix": null, "user": {"location": {"city": "Gainesville", "state": "GA", "country": "United States"}}}}]}, "standing": {"placement": 1, "stats": {"score": {"value": 2}}}}, {"id": "92608544-1", "entrant": {"id": 20945214, "name": "Heart", "participants": [{"id": 19270290, "gamerTag": "Heart", "prefix": "", "user": {"location": {"city": "Atlanta", "state": "GA", "country": "United States"}}, "player": {"id": 4287822, "gamerTag": "Heart", "prefix": "", "user": {"location": {"city": "Atlanta", "state": "GA", "country": "United States"}}}}]}, "standing": {"placement": 2, "stats": {"score": {"value": 1}}}}], "games": null}, {"id": 92608510, "state": 3, "round": 2, "fullRoundText": "Winners Quarter-Final", "completedAt": 1755046878, "winnerId": 20953624, "slots": [{"id": "92608510-0", "entrant": {"id": 20953624, "name": "DGS | spickles", "participants": [{"id": 19277659, "gamerTag": "spickles", "prefix": "DGS", "user": {"location": {"city": null, "state": null, "country": "United States"}}, "player": {"id": 1154793, "gamerTag": "spickles", "prefix": "DGS", "user": {"location": {"city": null, "state": null, "country": "United States"}}}}]}, "standing": {"placement": 1, "stats": {"score": {"value": 2}}}}, {"id": "92608510-1", "entrant": {"id": 20945214, "name": "Heart", "participants": [{"id": 19270290, "gamerTag": "Heart", "prefix": "", "user": {"location": {"city": "Atlanta", "state": "GA", "country": "United States"}}, "player": {"id": 4287822, "gamerTag": "Heart", "prefix": "", "user": {"location": {"city": "Atlanta", "state": "GA", "country": "United States"}}}}]}, "standing": {"placement": 2, "stats": {"score": {"value": 0}}}}], "games": null}, {"id": 92608511, "state": 3, "round": 2, "fullRoundText": "Winners Quarter-Final", "completedAt": 1755046937, "winnerId": 20953566, "slots": [{"id": "92608511-0", "entrant": {"id": 20953566, "name": "Typical!", "participants": [{"id": 19277605, "gamerTag": "Typical!", "prefix": "", "user": {"location": {"city": "Cumming", "state": "GA", "country": "United States"}}, "player": {"id": 1227171, "gamerTag": "Typical!", "prefix": "", "user": {"location": {"city": "Cumming", "state": "GA", "country": "United States"}}}}]}, "standing": {"placement": 1, "stats": {"score": {"value": 2}}}}, {"id": "92608511-1", "entrant": {"id": 20953453, "name": "PitchingAce33", "participants": [{"id": 19277511, "gamerTag": "PitchingAce33", "prefix": "", "user": {"location": {"city": null, "state": "GA", "country": "United States"}}, "player": {"id": 1198327, "gamerTag": "PitchingAce33", "prefix": "", "user": {"location": {"city": null, "state": "GA", "country": "United States"}}}}]}, "standing": {"placement": 2, "stats": {"score": {"value": 1}}}}], "games": null}, {"id": 92608512, "state": 3, "round": 2, "fullRoundText": "Winners Quarter-Final", "completedAt": 1755047561, "winnerId": 20949200, "slots": [{"id": "92608512-0", "entrant": {"id": 20949200, "name": "TRAIN", "participants": [{"id": 19273933, "gamerTag": "TRAIN", "prefix": "", "user": {"location": {"city": "Fort Erie", "state": "ON", "country": "Canada"}}, "player": {"id": 160326, "gamerTag": "TRAIN", "prefix": "", "user": {"location": {"city": "Fort Erie", "state": "ON", "country": "Canada"}}}}]}, "standing": {"placement": 1, "stats": {"score": {"value": 2}}}}, {"id": "92608512-1", "entrant": {"id": 20948416, "name": "Cromat", "participants": [{"id": 19273216, "gamerTag": "Cromat", "prefix": "", "user": {"location": {"city": "Savannah", "state": "GA", "country": "United States"}}, "player": {"id": 3055798, "gamerTag": "Cromat", "prefix": "", "user": {"location": {"city": "Savannah", "state": "GA", "country": "United States"}}}}]}, "standing": {"placement": 2, "stats": {"score": {"value": 0}}}}], "games": null}, {"id": 92608513, "state": 3, "round": 2, "fullRoundText": "Winners Quarter-Final", "completedAt": 1755047607, "winnerId": 20949777, "slots": [{"id": "92608513-0", "entrant": {"id": 20951486, "name": "Jeni", "participants": [{"id": 19275815, "gamerTag": "Jeni", "prefix": "", "user": {"location": {"city": null, "state": null, "country": null}}, "player": {"id": 1499467, "gamerTag": "Jeni", "prefix": "", "user": {"location": {"city": null, "state": null, "country": null}}}}]}, "standing": {"placement": 2, "stats": {"score": {"value": 1}}}}, {"id": "92608513-1", "entrant": {"id": 20949777, "name": "Sacred", "participants": [{"id": 19274264, "gamerTag": "Sacred", "prefix": "", "user": {"location": {"city": null, "state": null, "country": "United States"}}, "player": {"id": 1007555, "gamerTag": "Sacred", "prefix": "", "user": {"location": {"city": null, "state": null, "country": "United States"}}}}]}, "standing": {"placement": 1, "stats": {"score": {"value": 2}}}}], "games": null}, {"id": 92608539, "state": 3, "round": -4, "fullRoundText": "Losers Round 2", "completedAt": 1755048129, "winnerId": 20951486, "slots": [{"id": "92608539-0", "entrant": {"id": 20951486, "name": "Jeni", "participants": [{"id": 19275815, "gamerTag": "Jeni", "prefix": "", "user": {"location": {"city": null, "state": null, "country": null}}, "player": {"id": 1499467, "gamerTag": "Jeni", "prefix": "", "user": {"location": {"city": null, "state": null, "country": null}}}}]}, "standing": {"placement": 1, "stats": {"score": {"value": 2}}}}, {"id": "92608539-1", "entrant": {"id": 20951992, "name": "Cynthia<3", "participants": [{"id": 19276259, "gamerTag": "Cynthia<3", "prefix": "", "user": {"location": {"city": "Little rock", "state": "AR", "country": "United States"}}, "player": {"id": 3132841, "gamerTag": "Cynthia<3", "prefix": "", "user": {"location": {"city": "Little rock", "state": "AR", "country": "United States"}}}}]}, "standing": {"placement": 2, "stats": {"score": {"value": 0}}}}], "games": null}]}}}