{"event": {"sets": {"pageInfo": {"totalPages": 2, "total": 18}, "nodes": [{"id": 94830666, "state": 3, "round": 5, "fullRoundText": "Grand Final", "completedAt": 1760061864, "winnerId": 21487432, "slots": [{"id": "94830666-0", "entrant": {"id": 21487432, "name": "EVIL | Alas", "participants": [{"id": 19746375, "gamerTag": "Alas", "prefix": "EVIL", "user": {"location": {"city": null, "state": null, "country": null}}, "player": {"id": 25946, "gamerTag": "Alas", "prefix": "EVIL", "user": {"location": {"city": null, "state": null, "country": null}}}}]}, "standing": {"placement": 1, "stats": {"score": {"value": 3}}}}, {"id": "94830666-1", "entrant": {"id": 21487523, "name": "DD | Kingpoyothefirst", "participants": [{"id": 19746448, "gamerTag": "Kingpoyothefirst", "prefix": "DD", "user": {"location": {"city": null, "state": null, "country": null}}, "player": {"id": 2934299, "gamerTag": "Kingpoyothefirst", "prefix": "DD", "user": {"location": {"city": null, "state": null, "country": null}}}}]}, "standing": {"placement": 2, "stats": {"score": {"value": 2}}}}], "games": null}, {"id": 94830665, "state": 3, "round": 4, "fullRoundText": "Winners Final", "completedAt": 1760059400, "winnerId": 21487432, "slots": [{"id": "94830665-0", "entrant": {"id": 21487523, "name": "DD | Kingpoyothefirst", "participants": [{"id": 19746448, "gamerTag": "Kingpoyothefirst", "prefix": "DD", "user": {"location": {"city": null, "state": null, "country": null}}, "player": {"id": 2934299, "gamerTag": "Kingpoyothefirst", "prefix": "DD", "user": {"location": {"city": null, "state": null, "country": null}}}}]}, "standing": {"placement": 2, "stats": {"score": {"value": 1}}}}, {"id": "94830665-1", "entrant": {"id": 21487432, "name": "EVIL | Alas", "participants": [{"id": 19746375, "gamerTag": "Alas", "prefix": "EVIL", "user": {"location": {"city": null, "state": null, "country": null}}, "player": {"id": 25946, "gamerTag": "Alas", "prefix": "EVIL", "user": {"location": {"city": null, "state": null, "country": null}}}}]}, "standing": {"placement": 1, "stats": {"score": {"value": 3}}}}], "games": null}, {"id": 94830697, "state": 3, "round": -8, "fullRoundText": "Losers Final", "completedAt": 1760060396, "winnerId": 21487523, "slots": [{"id": "94830697-0", "entrant": {"id": 21487523, "name": "DD | Kingpoyothefirst", "participants": [{"id": 19746448, "gamerTag": "Kingpoyothefirst", "prefix": "DD", "user": {"location": {"city": null, "state": null, "country": null}}, "player": {"id": 2934299, "gamerTag": "Kingpoyothefirst", "prefix": "DD", "user": {"location": {"city": null, "state": null, "country": null}}}}]}, "standing": {"placement": 1, "stats": {"score": {"value": 3}}}}, {"id": "94830697-1", "entrant": {"id": 21504943, "name": "sanrio enjoyer", "participants": [{"id": 19761802, "gamerTag": "sanrio enjoyer", "prefix": "", "user": {"location": {"city": "Atlanta", "state": "GA", "country": "United States"}}, "player": {"id": 3792585, "gamerTag": "sanrio enjoyer", "prefix": "", "user": {"location": {"city": "Atlanta", "state": "GA", "country": "United States"}}}}]}, "standing": {"placement": 2, "stats": {"score": {"value": 1}}}}], "games": null}, {"id": 94830696, "state": 3, "round": -7, "fullRoundText": "Losers Semi-Final", "completedAt": 1760059235, "winnerId": 21504943, "slots": [{"id": "94830696-0", "entrant": {"id": 21504943, "name": "sanrio enjoyer", "participants": [{"id": 19761802, "gamerTag": "sanrio enjoyer", "prefix": "", "user": {"location": {"city": "Atlanta", "state": "GA", "country": "United States"}}, "player": {"id": 3792585, "gamerTag": "sanrio enjoyer", "prefix": "", "user": {"location": {"city": "Atlanta", "state": "GA", "country": "United States"}}}}]}, "standing": {"placement": 1, "stats": {"score": {"value": 3}}}}, {"id": "94830696-1", "entrant": {"id": 21508266, "name": "tomguy", "participants": [{"id": 19764798, "gamerTag": "tomguy", "prefix": "", "user": {"location": {"city": "Atlanta", "state": "GA", "country": "United States"}}, "player": {"id": 147458, "gamerTag": "tomguy", "prefix": "", "user": {"location": {"city": "Atlanta", "state": "GA", "country": "United States"}}}}]}, "standing": {"placement": 2, "stats": {"score": {"value": 0}}}}], "games": null}, {"id": 94830663, "state": 3, "round": 3, "fullRoundText": "Winners Semi-Final", "completedAt": 1760056774, "winnerId": 21487523, "slots": [{"id": "94830663-0", "entrant": {"id": 21504943, "name": "sanrio enjoyer", "participants": [{"id": 19761802, "gamerTag": "sanrio enjoyer", "prefix": "", "user": {"location": {"city": "Atlanta", "state": "GA", "country": "United States"}}, "player": {"id": 3792585, "gamerTag": "sanrio enjoyer", "prefix": "", "user": {"location": {"city": "Atlanta", "state": "GA", "country": "United States"}}}}]}, "standing": {"placement": 2, "stats": {"score": {"value": 1}}}}, {"id": "94830663-1", "entrant": {"id": 21487523, "name": "DD | Kingpoyothefirst", "participants": [{"id": 19746448, "gamerTag": "Kingpoyothefirst", "prefix": "DD", "user": {"location": {"city": null, "state": null, "country": null}}, "player": {"id": 2934299, "gamerTag": "Kingpoyothefirst", "prefix": "DD", "user": {"location": {"city": null, "state": null, "country": null}}}}]}, "standing": {"placement": 1, "stats": {"score": {"value": 3}}}}], "games": null}, {"id": 94830664, "state": 3, "round": 3, "fullRoundText": "Winners Semi-Final", "completedAt": 1760057551, "winnerId": 21487432, "slots": [{"id": "94830664-0", "entrant": {"id": 21508266, "name": "tomguy", "participants": [{"id": 19764798, "gamerTag": "tomguy", "prefix": "", "user": {"location": {"city": "Atlanta", "state": "GA", "country": "United States"}}, "player": {"id": 147458, "gamerTag": "tomguy", "prefix": "", "user": {"location": {"city": "Atlanta", "state": "GA", "country": "United States"}}}}]}, "standing": {"placement": 2, "stats": {"score": {"value": 2}}}}, {"id": "94830664-1", "entrant": {"id": 21487432, "name": "EVIL | Alas", "participants": [{"id": 19746375, "gamerTag": "Alas", "prefix": "EVIL", "user": {"location": {"city": null, "state": null, "country": null}}, "player": {"id": 25946, "gamerTag": "Alas", "prefix": "EVIL", "user": {"location": {"city": null, "state": null, "country": null}}}}]}, "standing": {"placement": 1, "stats": {"score": {"value": 3}}}}], "games": null}, {"id": 94830694, "state": 3, "round": -6, "fullRoundText": "Losers Quarter-Final", "completedAt": 1760057945, "winnerId": 21504943, "slots": [{"id": "94830694-0", "entrant": {"id": 21504943, "name": "sanrio enjoyer", "participants": [{"id": 19761802, "gamerTag": "sanrio enjoyer", "prefix": "", "user": {"location": {"city": "Atlanta", "state": "GA", "country": "United States"}}, "player": {"id": 3792585, "gamerTag": "sanrio enjoyer", "prefix": "", "user": {"location": {"city": "Atlanta", "state": "GA", "country": "United States"}}}}]}, "standing": {"placement": 1, "stats": {"score": {"value": 3}}}}, {"id": "94830694-1", "entrant": {"id": 21500249, "name": "Jonny \"Gumball\" Gamble", "participants": [{"id": 19757755, "gamerTag": "Jonny \"Gumball\" Gamble", "prefix": "", "user": {"location": {"city": "Pittsburgh", "state": "PA", "country": "United States"}}, "player": {"id": 7827, "gamerTag": "Jonny \"Gumball\" Gamble", "prefix": "", "user": {"location": {"city": "Pittsburgh", "state": "PA", "country": "United States"}}}}]}, "standing": {"placement": 2, "stats": {"score": {"value": 2}}}}], "games": null}, {"id": 94830695, "state": 3, "round": -6, "fullRoundText": "Losers Quarter-Final", "completedAt": 1760058584, "winnerId": 21508266, "slots": [{"id": "94830695-0", "entrant": {"id": 21508266, "name": "tomguy", "participants": [{"id": 19764798, "gamerTag": "tomguy", "prefix": "", "user": {"location": {"city": "Atlanta", "state": "GA", "country": "United States"}}, "player": {"id": 147458, "gamerTag": "tomguy", "prefix": "", "user": {"location": {"city": "Atlanta", "state": "GA", "country": "United States"}}}}]}, "standing": {"placement": 1, "stats": {"score": {"value": 3}}}}, {"id": "94830695-1", "entrant": {"id": 21488563, "name": "The Hive | braxton", "participants": [{"id": 19747401, "gamerTag": "braxton", "prefix": "The Hive", "user": {"location": {"city": "Atlanta", "state": "GA", "country": "United States"}}, "player": {"id": 1037821, "gamerTag": "braxton", "prefix": "The Hive", "user": {"location": {"city": "Atlanta", "state": "GA", "country": "United States"}}}}]}, "standing": {"placement": 2, "stats": {"score": {"value": 1}}}}], "games": null}, {"id": 94830692, "state": 3, "round": -5, "fullRoundText": "Losers Round 2", "completedAt": 1760056260, "winnerId": 21500249, "slots": [{"id": "94830692-0", "entrant": {"id": 21500249, "name": "Jonny \"Gumball\" Gamble", "participants": [{"id": 19757755, "gamerTag": "Jonny \"Gumball\" Gamble", "prefix": "", "user": {"location": {"city": "Pittsburgh", "state": "PA", "country": "United States"}}, "player": {"id": 7827, "gamerTag": "Jonny \"Gumball\" Gamble", "prefix": "", "user": {"location": {"city": "Pittsburgh", "state": "PA", "country": "United States"}}}}]}, "standing": {"placement": 1, "stats": {"score": {"value": 2}}}}, {"id": "94830692-1", "entrant": {"id": 21506764, "name": "Joey Christ", "participants": [{"id": 19763454, "gamerTag": "Joey Christ", "prefix": "", "user": {"location": {"city": "perry", "state": "GA", "country": "United States"}}, "player": {"id": 1920484, "gamerTag": "Joey Christ", "prefix": "", "user": {"location": {"city": "perry", "state": "GA", "country": "United States"}}}}]}, "standing": {"placement": 2, "stats": {"score": {"value": 1}}}}], "games": null}, {"id": 94830693, "state": 3, "round": -5, "fullRoundText": "Losers Round 2", "completedAt": 1760055656, "winnerId": 21488563, "slots": [{"id": "94830693-0", "entrant": {"id": 21488563, "name": "The Hive | braxton", "participants": [{"id": 19747401, "gamerTag": "braxton", "prefix": "The Hive", "user": {"location": {"city": "Atlanta", "state": "GA", "country": "United States"}}, "player": {"id": 1037821, "gamerTag": "braxton", "prefix": "The Hive", "user": {"location": {"city": "Atlanta", "state": "GA", "country": "United States"}}}}]}, "standing": {"placement": 1, "stats": {"score": {"value": 2}}}}, {"id": "94830693-1", "entrant": {"id": 21505727, "name": "\u72a0\u7272\u306e\u70d9\u5370 | Guts", "participants": [{"id": 19762488, "gamerTag": "Guts", "prefix": "\u72a0\u7272\u306e\u70d9\u5370", "user": {"location": {"city": "atlanta", "state": "GA", "country": "United States"}}, "player": {"id": 3318064, "gamerTag": "Guts", "prefix": "\u72a0\u7272\u306e\u70d9\u5370", "user": {"location": {"city": "atlanta", "state": "GA", "country": "United States"}}}}]}, "standing": {"placement": 2, "stats": {"score": {"value": 0}}}}], "games": null}, {"id": 94830659, "state": 3, "round": 2, "fullRoundText": "Winners Quarter-Final", "completedAt": 1760054684, "winnerId": 21504943, "slots": [{"id": "94830659-0", "entrant": {"id": 21504943, "name": "sanrio enjoyer", "participants": [{"id": 19761802, "gamerTag": "sanrio enjoyer", "prefix": "", "user": {"location": {"city": "Atlanta", "state": "GA", "country": "United States"}}, "player": {"id": 3792585, "gamerTag": "sanrio enjoyer", "prefix": "", "user": {"location": {"city": "Atlanta", "state": "GA", "country": "United States"}}}}]}, "standing": {"placement": 1, "stats": {"score": {"value": 2}}}}, {"id": "94830659-1", "entrant": {"id": 21505727, "name": "\u72a0\u7272\u306e\u70d9\u5370 | Guts", "participants": [{"id": 19762488, "gamerTag": "Guts", "prefix": "\u72a0\u7272\u306e\u70d9\u5370", "user": {"location": {"city": "atlanta", "state": "GA", "country": "United States"}}, "player": {"id": 3318064, "gamerTag": "Guts", "prefix": "\u72a0\u7272\u306e\u70d9\u5370", "user": {"location": {"city": "atlanta", "state": "GA", "country": "United States"}}}}]}, "standing": {"placement": 2, "stats": {"score": {"value": 0}}}}], "games": null}, {"id": 94830660, "state": 3, "round": 2, "fullRoundText": "Winners Quarter-Final", "completedAt": 1760053856, "winnerId": 21487523, "slots": [{"id": "94830660-0", "entrant": {"id": 21487523, "name": "DD | Kingpoyothefirst", "participants": [{"id": 19746448, "gamerTag": "Kingpoyothefirst", "prefix": "DD", "user": {"location": {"city": null, "state": null, "country": null}}, "player": {"id": 2934299, "gamerTag": "Kingpoyothefirst", "prefix": "DD", "user": {"location": {"city": null, "state": null, "country": null}}}}]}, "standing": {"placement": 1, "stats": {"score": {"value": 2}}}}, {"id": "94830660-1", "entrant": {"id": 21488563, "name": "The Hive | braxton", "participants": [{"id": 19747401, "gamerTag": "braxton", "prefix": "The Hive", "user": {"location": {"city": "Atlanta", "state": "GA", "country": "United States"}}, "player": {"id": 1037821, "gamerTag": "braxton", "prefix": "The Hive", "user": {"location": {"city": "Atlanta", "state": "GA", "country": "United States"}}}}]}, "standing": {"placement": 2, "stats": {"score": {"value": 1}}}}], "games": null}, {"id": 94830661, "state": 3, "round": 2, "fullRoundText": "Winners Quarter-Final", "completedAt": 1760055013, "winnerId": 21508266, "slots": [{"id": "94830661-0", "entrant": {"id": 21508266, "name": "tomguy", "participants": [{"id": 19764798, "gamerTag": "tomguy", "prefix": "", "user": {"location": {"city": "Atlanta", "state": "GA", "country": "United States"}}, "player": {"id": 147458, "gamerTag": "tomguy", "prefix": "", "user": {"location": {"city": "Atlanta", "state": "GA", "country": "United States"}}}}]}, "standing": {"placement": 1, "stats": {"score": {"value": 2}}}}, {"id": "94830661-1", "entrant": {"id": 21506764, "name": "Joey Christ", "participants": [{"id": 19763454, "gamerTag": "Joey Christ", "prefix": "", "user": {"location": {"city": "perry", "state": "GA", "country": "United States"}}, "player": {"id": 1920484, "gamerTag": "Joey Christ", "prefix": "", "user": {"location": {"city": "perry", "state": "GA", "country": "United States"}}}}]}, "standing": {"placement": 2, "stats": {"score": {"value": 1}}}}], "games": null}, {"id": 94830662, "state": 3, "round": 2, "fullRoundText": "Winners Quarter-Final", "completedAt": 1760054444, "winnerId": 21487432, "slots": [{"id": "94830662-0", "entrant": {"id": 21487432, "name": "EVIL | Alas", "participants": [{"id": 19746375, "gamerTag": "Alas", "prefix": "EVIL", "user": {"location": {"city": null, "state": null, "country": null}}, "player": {"id": 25946, "gamerTag": "Alas", "prefix": "EVIL", "user": {"location": {"city": null, "state": null, "country": null}}}}]}, "standing": {"placement": 1, "stats": {"score": {"value": 2}}}}, {"id": "94830662-1", "entrant": {"id": 21500249, "name": "Jonny \"Gumball\" Gamble", "participants": [{"id": 19757755, "gamerTag": "Jonny \"Gumball\" Gamble", "prefix": "", "user": {"location": {"city": "Pittsburgh", "state": "PA", "country": "United States"}}, "player": {"id": 7827, "gamerTag": "Jonny \"Gumball\" Gamble", "prefix": "", "user": {"location": {"city": "Pittsburgh", "state": "PA", "country": "United States"}}}}]}, "standing": {"placement": 2, "stats": {"score": {"value": 0}}}}], "games": null}, {"id": 94830688, "state": 3, "round": -4, "fullRoundText": "Losers Round 1", "completedAt": 1760055589, "winnerId": 21500249, "slots": [{"id": "94830688-0", "entrant": {"id": 21500249, "name": "Jonny \"Gumball\" Gamble", "participants": [{"id": 19757755, "gamerTag": "Jonny \"Gumball\" Gamble", "prefix": "", "user": {"location": {"city": "Pittsburgh", "state": "PA", "country": "United States"}}, "player": {"id": 7827, "gamerTag": "Jonny \"Gumball\" Gamble", "prefix": "", "user": {"location": {"city": "Pittsburgh", "state": "PA", "country": "United States"}}}}]}, "standing": {"placement": 1, "stats": {"score": {"value": 2}}}}, {"id": "94830688-1", "entrant": {"id": 21510632, "name": "soup time", "participants": [{"id": 19766996, "gamerTag": "soup time", "prefix": null, "user": {"location": {"city": "Auburn", "state": "AL", "country": "United States"}}, "player": {"id": 2363610, "gamerTag": "soup time", "prefix": null, "user": {"location": {"city": "Auburn", "state": "AL", "country": "United States"}}}}]}, "standing": {"placement": 2, "stats": {"score": {"value": 0}}}}], "games": null}]}}}