{"phase": {"seeds": {"pageInfo": {"totalPages": 1, "total": 5}, "nodes": [{"id": 36267382, "seedNum": 1, "entrant": {"id": 21030766, "name": "tushar!", "participants": [{"id": 19345943, "gamerTag": "tushar!", "prefix": "", "user": {"location": {"city": "Dunwoody", "state": "GA", "country": "United States"}}, "player": {"id": 1549795, "gamerTag": "tushar!", "prefix": "", "user": {"location": {"city": "Dunwoody", "state": "GA", "country": "United States"}}}}]}}, {"id": 36310348, "seedNum": 3, "entrant": {"id": 21061349, "name": "UGA | Stygian", "participants": [{"id": 19373534, "gamerTag": "Stygian", "prefix": "UGA", "user": {"location": {"city": "Dacula", "state": "GA", "country": "United States"}}, "player": {"id": 3012265, "gamerTag": "Stygian", "prefix": "UGA", "user": {"location": {"city": "Dacula", "state": "GA", "country": "United States"}}}}]}}, {"id": 36266406, "seedNum": 2, "entrant": {"id": 21030133, "name": "drimys", "participants": [{"id": 19345348, "gamerTag": "drimys", "prefix": null, "user": {"location": {"city": "Cumming", "state": "GA", "country": "United States"}}, "player": {"id": 2436958, "gamerTag": "drimys", "prefix": null, "user": {"location": {"city": "Cumming", "state": "GA", "country": "United States"}}}}]}}, {"id": 36310561, "seedNum": 4, "entrant": {"id": 21061560, "name": "Hippo", "participants": [{"id": 19373727, "gamerTag": "Hippo", "prefix": "", "user": {"location": {"city": null, "state": null, "country": "United States"}}, "player": {"id": 4869379, "gamerTag": "Hippo", "prefix": "", "user": {"location": {"city": null, "state": null, "country": "United States"}}}}]}}, {"id": 36306025, "seedNum": 5, "entrant": {"id": 21058159, "name": "GUMP2 | STiCK", "participants": [{"id": 19370645, "gamerTag": "STiCK", "prefix": "GUMP2", "user": {"location": {"city": "Woodstock", "state": "GA", "country": "United States"}}, "player": {"id": 282674, "gamerTag": "STiCK", "prefix": "GUMP2", "user": {"location": {"city": "Woodstock", "state": "GA", "country": "United States"}}}}]}}]}}}