{"phase": {"seeds": {"pageInfo": {"totalPages": 1, "total": 21}, "nodes": [{"id": 35655963, "seedNum": 1, "entrant": {"id": 20647488, "name": "Ave~", "participants": [{"id": 19006081, "gamerTag": "Ave~", "prefix": "", "user": {"location": {"city": null, "state": null, "country": null}}, "player": {"id": 38830, "gamerTag": "Ave~", "prefix": "", "user": {"location": {"city": null, "state": null, "country": null}}}}]}}, {"id": 35743897, "seedNum": 2, "entrant": {"id": 20710810, "name": "GUMP2 | ToxiC", "participants": [{"id": 19061241, "gamerTag": "ToxiC", "prefix": "GUMP2", "user": {"location": {"city": "Marietta", "state": "GA", "country": "United States"}}, "player": {"id": 2585804, "gamerTag": "ToxiC", "prefix": "GUMP2", "user": {"location": {"city": "Marietta", "state": "GA", "country": "United States"}}}}]}}, {"id": 35741602, "seedNum": 5, "entrant": {"id": 20709097, "name": "GUMP2 | JankTrees!", "participants": [{"id": 19059724, "gamerTag": "JankTrees!", "prefix": "GUMP2", "user": {"location": {"city": "Cartersville", "state": "GA", "country": "United States"}}, "player": {"id": 35695, "gamerTag": "JankTrees!", "prefix": "GUMP2", "user": {"location": {"city": "Cartersville", "state": "GA", "country": "United States"}}}}]}}, {"id": 35747479, "seedNum": 4, "entrant": {"id": 20713327, "name": "Barbashop", "participants": [{"id": 19063559, "gamerTag": "Barbashop", "prefix": "", "user": {"location": {"city": null, "state": null, "country": null}}, "player": {"id": 2537853, "gamerTag": "Barbashop", "prefix": "", "user": {"location": {"city": null, "state": null, "country": null}}}}]}}, {"id": 35742845, "seedNum": 6, "entrant": {"id": 20710081, "name": "cO | Netherlord64", "participants": [{"id": 19060570, "gamerTag": "Netherlord64", "prefix": "cO", "user": {"location": {"city": "Roswell", "state": "GA", "country": "United States"}}, "player": {"id": 4586226, "gamerTag": "Netherlord64", "prefix": "", "user": {"location": {"city": "Roswell", "state": "GA", "country": "United States"}}}}]}}, {"id": 35745854, "seedNum": 9, "entrant": {"id": 20712240, "name": "red dot", "participants": [{"id": 19062532, "gamerTag": "red dot", "prefix": "", "user": {"location": {"city": "Milton", "state": "GA", "country": "United States"}}, "player": {"id": 1812177, "gamerTag": "red dot", "prefix": "", "user": {"location": {"city": "Milton", "state": "GA", "country": "United States"}}}}]}}, {"id": 35747833, "seedNum": 3, "entrant": {"id": 20713581, "name": "GUMP2 | Spider", "participants": [{"id": 19063773, "gamerTag": "Spider", "prefix": "GUMP2", "user": {"location": {"city": "Atlanta", "state": "GA", "country": "United States"}}, "player": {"id": 691176, "gamerTag": "Spider", "prefix": "GUMP2", "user": {"location": {"city": "Atlanta", "state": "GA", "country": "United States"}}}}]}}, {"id": 35746946, "seedNum": 8, "entrant": {"id": 20712973, "name": "Rain~", "participants": [{"id": 19063240, "gamerTag": "Rain~", "prefix": null, "user": {"location": {"city": "Atlanta", "state": "GA", "country": "United States"}}, "player": {"id": 4240164, "gamerTag": "Rain~", "prefix": null, "user": {"location": {"city": "Atlanta", "state": "GA", "country": "United States"}}}}]}}, {"id": 35748944, "seedNum": 7, "entrant": {"id": 20714550, "name": "FreeDubs", "participants": [{"id": 19064612, "gamerTag": "FreeDubs", "prefix": null, "user": {"location": {"city": "Atlanta", "state": "GA", "country": "United States"}}, "player": {"id": 2366887, "gamerTag": "FreeDubs", "prefix": null, "user": {"location": {"city": "Atlanta", "state": "GA", "country": "United States"}}}}]}}, {"id": 35741878, "seedNum": 10, "entrant": {"id": 20709328, "name": "Boo", "participants": [{"id": 19059927, "gamerTag": "Boo", "prefix": "", "user": {"location": {"city": "Cumming", "state": "GA", "country": "United States"}}, "player": {"id": 2647915, "gamerTag": "Boo", "prefix": "", "user": {"location": {"city": "Cumming", "state": "GA", "country": "United States"}}}}]}}, {"id": 35743973, "seedNum": 11, "entrant": {"id": 20710880, "name": "BlaZR", "participants": [{"id": 19061305, "gamerTag": "BlaZR", "prefix": "", "user": {"location": {"city": "ur mum", "state": null, "country": "United States"}}, "player": {"id": 1804122, "gamerTag": "BlaZR", "prefix": "", "user": {"location": {"city": "ur mum", "state": null, "country": "United States"}}}}]}}, {"id": 35748316, "seedNum": 13, "entrant": {"id": 20714027, "name": "WDKL MTM | D*ron", "participants": [{"id": 19064150, "gamerTag": "D*ron", "prefix": "WDKL MTM", "user": {"location": {"city": "Smyrna", "state": "GA", "country": "United States"}}, "player": {"id": 516047, "gamerTag": "D*ron", "prefix": "WDKL MTM", "user": {"location": {"city": "Smyrna", "state": "GA", "country": "United States"}}}}]}}, {"id": 35733823, "seedNum": 12, "entrant": {"id": 20703602, "name": "KSU | Subzero", "participants": [{"id": 19054554, "gamerTag": "Subzero", "prefix": "KSU", "user": {"location": {"city": "Acworth", "state": "GA", "country": "United States"}}, "player": {"id": 1808159, "gamerTag": "Subzero", "prefix": "KSU", "user": {"location": {"city": "Acworth", "state": "GA", "country": "United States"}}}}]}}, {"id": 35741674, "seedNum": 14, "entrant": {"id": 20709137, "name": "Scootch", "participants": [{"id": 19059755, "gamerTag": "Scootch", "prefix": "", "user": {"location": {"city": "", "state": "GA", "country": "United States"}}, "player": {"id": 33426, "gamerTag": "Scootch", "prefix": "", "user": {"location": {"city": "", "state": "GA", "country": "United States"}}}}]}}, {"id": 35746792, "seedNum": 15, "entrant": {"id": 20712821, "name": "Zarek", "participants": [{"id": 19063095, "gamerTag": "Zarek", "prefix": "", "user": {"location": {"city": "Atlanta", "state": "GA", "country": "United States"}}, "player": {"id": 405682, "gamerTag": "Zarek", "prefix": "", "user": {"location": {"city": "Atlanta", "state": "GA", "country": "United States"}}}}]}}, {"id": 35745879, "seedNum": 17, "entrant": {"id": 20712260, "name": "Master J.J.", "participants": [{"id": 19062548, "gamerTag": "Master J.J.", "prefix": "", "user": {"location": {"city": "New Britain", "state": "CT", "country": "United States"}}, "player": {"id": 41440, "gamerTag": "Master J.J.", "prefix": "", "user": {"location": {"city": "New Britain", "state": "CT", "country": "United States"}}}}]}}, {"id": 35745525, "seedNum": 16, "entrant": {"id": 20712038, "name": "MTM | X", "participants": [{"id": 19062362, "gamerTag": "X", "prefix": "MTM", "user": {"location": {"city": "Sandy Springs", "state": "GA", "country": "United States"}}, "player": {"id": 2650387, "gamerTag": "X", "prefix": "MTM", "user": {"location": {"city": "Sandy Springs", "state": "GA", "country": "United States"}}}}]}}, {"id": 35742911, "seedNum": 18, "entrant": {"id": 20710145, "name": "BGA | Bumpadumper", "participants": [{"id": 19060624, "gamerTag": "Bumpadumper", "prefix": "BGA", "user": {"location": {"city": null, "state": "GA", "country": "United States"}}, "player": {"id": 1465383, "gamerTag": "Bumpadumper", "prefix": "BGA", "user": {"location": {"city": null, "state": "GA", "country": "United States"}}}}]}}, {"id": 35747185, "seedNum": 19, "entrant": {"id": 20713204, "name": "IceWave4", "participants": [{"id": 19063440, "gamerTag": "IceWave4", "prefix": null, "user": {"location": {"city": "Dallas", "state": "GA", "country": "United States"}}, "player": {"id": 4191196, "gamerTag": "IceWave4", "prefix": null, "user": {"location": {"city": "Dallas", "state": "GA", "country": "United States"}}}}]}}, {"id": 35746695, "seedNum": 20, "entrant": {"id": 20712723, "name": "CRAZYTAXI | FlyingSaucer", "participants": [{"id": 19062997, "gamerTag": "FlyingSaucer", "prefix": "CRAZYTAXI", "user": {"location": {"city": "Atlanta", "state": "GA", "country": "United States"}}, "player": {"id": 3116904, "gamerTag": "FlyingSaucer", "prefix": "CRAZYTAXI", "user": {"location": {"city": "Atlanta", "state": "GA", "country": "United States"}}}}]}}, {"id": 35681958, "seedNum": 21, "entrant": {"id": 20666170, "name": "N/A | Assitfn", "participants": [{"id": 19022632, "gamerTag": "Assitfn", "prefix": "N/A", "user": {"location": {"city": null, "state": null, "country": "United States"}}, "player": {"id": 4859334, "gamerTag": "Assitfn", "prefix": "N/A", "user": {"location": {"city": null, "state": null, "country": "United States"}}}}]}}]}}}