{"event": {"sets": {"pageInfo": {"totalPages": 2, "total": 19}, "nodes": [{"id": 94218226, "state": 3, "round": -4, "fullRoundText": "Losers Round 1", "completedAt": 1758584669, "winnerId": 21350981, "slots": [{"id": "94218226-0", "entrant": {"id": 21350981, "name": "TFT | TFT - Guillotine", "participants": [{"id": 19627546, "gamerTag": "TFT - Guillotine", "prefix": "TFT", "user": {"location": {"city": "Atlanta", "state": "GA", "country": "United States"}}, "player": {"id": 4263821, "gamerTag": "TFT - Guillotine", "prefix": "TFT", "user": {"location": {"city": "Atlanta", "state": "GA", "country": "United States"}}}}]}, "standing": {"placement": 1, "stats": {"score": {"value": null}}}}, {"id": "94218226-1", "entrant": {"id": 21339464, "name": "TNS | Logan", "participants": [{"id": 19616892, "gamerTag": "Logan", "prefix": "TNS", "user": {"location": {"city": "Atlanta", "state": "GA", "country": "United States"}}, "player": {"id": 63208, "gamerTag": "Logan", "prefix": "TNS", "user": {"location": {"city": "Atlanta", "state": "GA", "country": "United States"}}}}]}, "standing": {"placement": 2, "stats": {"score": {"value": -1}}}}], "games": null}, {"id": 94218228, "state": 3, "round": -4, "fullRoundText": "Losers Round 1", "completedAt": 1758584656, "winnerId": 21311556, "slots": [{"id": "94218228-0", "entrant": {"id": 21350969, "name": "TFT/ WFF2 | Frank Osherm", "participants": [{"id": 19627534, "gamerTag": "Frank Osherm", "prefix": "TFT/ WFF2", "user": {"location": {"city": "Atlanta", "state": "GA", "country": "United States"}}, "player": {"id": 1751817, "gamerTag": "Ricky Rudd", "prefix": "TFT", "user": {"location": {"city": "Atlanta", "state": "GA", "country": "United States"}}}}]}, "standing": {"placement": 2, "stats": {"score": {"value": -1}}}}, {"id": "94218228-1", "entrant": {"id": 21311556, "name": "ICWaM | zgamer2000", "participants": [{"id": 19592174, "gamerTag": "zgamer2000", "prefix": "ICWaM", "user": {"location": {"city": "Temple", "state": "GA", "country": "United States"}}, "player": {"id": 4235718, "gamerTag": "zgamer2000", "prefix": "ICWaM", "user": {"location": {"city": "Temple", "state": "GA", "country": "United States"}}}}]}, "standing": {"placement": 1, "stats": {"score": {"value": 0}}}}], "games": null}, {"id": 94218190, "state": 3, "round": 1, "fullRoundText": "Winners Round 1", "completedAt": 1758584038, "winnerId": 21349356, "slots": [{"id": "94218190-0", "entrant": {"id": 21339464, "name": "TNS | Logan", "participants": [{"id": 19616892, "gamerTag": "Logan", "prefix": "TNS", "user": {"location": {"city": "Atlanta", "state": "GA", "country": "United States"}}, "player": {"id": 63208, "gamerTag": "Logan", "prefix": "TNS", "user": {"location": {"city": "Atlanta", "state": "GA", "country": "United States"}}}}]}, "standing": {"placement": 2, "stats": {"score": {"value": -1}}}}, {"id": "94218190-1", "entrant": {"id": 21349356, "name": "Purp", "participants": [{"id": 19626037, "gamerTag": "Purp", "prefix": null, "user": {"location": {"city": "Stone Mountain", "state": null, "country": "United States"}}, "player": {"id": 178956, "gamerTag": "Purp", "prefix": null, "user": {"location": {"city": "Stone Mountain", "state": null, "country": "United States"}}}}]}, "standing": {"placement": 1, "stats": {"score": {"value": 0}}}}], "games": null}, {"id": 94218194, "state": 3, "round": 1, "fullRoundText": "Winners Round 1", "completedAt": 1758584375, "winnerId": 21340935, "slots": [{"id": "94218194-0", "entrant": {"id": 21311556, "name": "ICWaM | zgamer2000", "participants": [{"id": 19592174, "gamerTag": "zgamer2000", "prefix": "ICWaM", "user": {"location": {"city": "Temple", "state": "GA", "country": "United States"}}, "player": {"id": 4235718, "gamerTag": "zgamer2000", "prefix": "ICWaM", "user": {"location": {"city": "Temple", "state": "GA", "country": "United States"}}}}]}, "standing": {"placement": 2, "stats": {"score": {"value": 1}}}}, {"id": "94218194-1", "entrant": {"id": 21340935, "name": "Coach M", "participants": [{"id": 19618240, "gamerTag": "Coach M", "prefix": "", "user": {"location": {"city": null, "state": null, "country": "United States"}}, "player": {"id": 4987435, "gamerTag": "Coach M", "prefix": "", "user": {"location": {"city": null, "state": null, "country": "United States"}}}}]}, "standing": {"placement": 1, "stats": {"score": {"value": 2}}}}], "games": [{"id": 32794685, "orderNum": 1, "winnerId": 21340935, "entrant1Score": 0, "entrant2Score": null, "stage": null, "selections": [{"id": 48374064, "selectionType": "CHARACTER", "selectionValue": 1285, "entrant": {"id": 21311556}, "character": {"id": 1285, "name": "Falco"}}, {"id": 48374065, "selectionType": "CHARACTER", "selectionValue": 1280, "entrant": {"id": 21340935}, "character": {"id": 1280, "name": "Donkey Kong"}}]}, {"id": 32794686, "orderNum": 2, "winnerId": 21311556, "entrant1Score": null, "entrant2Score": 0, "stage": null, "selections": [{"id": 48374066, "selectionType": "CHARACTER", "selectionValue": 1285, "entrant": {"id": 21311556}, "character": {"id": 1285, "name": "Falco"}}, {"id": 48374067, "selectionType": "CHARACTER", "selectionValue": 1280, "entrant": {"id": 21340935}, "character": {"id": 1280, "name": "Donkey Kong"}}]}, {"id": 32794687, "orderNum": 3, "winnerId": 21340935, "entrant1Score": 0, "entrant2Score": null, "stage": null, "selections": [{"id": 48374068, "selectionType": "CHARACTER", "selectionValue": 1285, "entrant": {"id": 21311556}, "character": {"id": 1285, "name": "Falco"}}, {"id": 48374069, "selectionType": "CHARACTER", "selectionValue": 1280, "entrant": {"id": 21340935}, "character": {"id": 1280, "name": "Donkey Kong"}}]}]}]}}}