{"phase": {"seeds": {"pageInfo": {"totalPages": 1, "total": 4}, "nodes": [{"id": 35712513, "seedNum": 2, "entrant": {"id": 20687972, "name": "red dot", "participants": [{"id": 19041040, "gamerTag": "red dot", "prefix": "", "user": {"location": {"city": "Milton", "state": "GA", "country": "United States"}}, "player": {"id": 1812177, "gamerTag": "red dot", "prefix": "", "user": {"location": {"city": "Milton", "state": "GA", "country": "United States"}}}}]}}, {"id": 35714060, "seedNum": 3, "entrant": {"id": 20689077, "name": "Whaley", "participants": [{"id": 19042082, "gamerTag": "Whaley", "prefix": "", "user": {"location": {"city": "Stone Mountain", "state": "GA", "country": "United States"}}, "player": {"id": 2016149, "gamerTag": "Whaley", "prefix": "KSU|UTO|BLZE", "user": {"location": {"city": "Stone Mountain", "state": "GA", "country": "United States"}}}}]}}, {"id": 35715941, "seedNum": 1, "entrant": {"id": 20690455, "name": "GUMP2 | ToxiC", "participants": [{"id": 19043396, "gamerTag": "ToxiC", "prefix": "GUMP2", "user": {"location": {"city": "Marietta", "state": "GA", "country": "United States"}}, "player": {"id": 2585804, "gamerTag": "ToxiC", "prefix": "GUMP2", "user": {"location": {"city": "Marietta", "state": "GA", "country": "United States"}}}}]}}, {"id": 35712473, "seedNum": 4, "entrant": {"id": 20687932, "name": "KSU | Subzero", "participants": [{"id": 19040999, "gamerTag": "Subzero", "prefix": "KSU", "user": {"location": {"city": "Acworth", "state": "GA", "country": "United States"}}, "player": {"id": 1808159, "gamerTag": "Subzero", "prefix": "KSU", "user": {"location": {"city": "Acworth", "state": "GA", "country": "United States"}}}}]}}]}}}