{"event": {"sets": {"pageInfo": {"totalPages": 22, "total": 318}, "nodes": [{"id": 92110835, "state": 3, "round": -3, "fullRoundText": "Losers Round 1", "completedAt": 1754181792, "winnerId": 20720131, "slots": [{"id": "92110835-0", "entrant": {"id": 20488054, "name": "GUMP2 | JankTrees!", "participants": [{"id": 18867197, "gamerTag": "JankTrees!", "prefix": "GUMP2", "user": {"location": {"city": "Cartersville", "state": "GA", "country": "United States"}}, "player": {"id": 35695, "gamerTag": "JankTrees!", "prefix": "GUMP2", "user": {"location": {"city": "Cartersville", "state": "GA", "country": "United States"}}}}]}, "standing": {"placement": 2, "stats": {"score": {"value": 1}}}}, {"id": "92110835-1", "entrant": {"id": 20720131, "name": "PHNM | Chunky", "participants": [{"id": 19069296, "gamerTag": "Chunky", "prefix": "PHNM", "user": {"location": {"city": "Summerville", "state": "SC", "country": "United States"}}, "player": {"id": 1479891, "gamerTag": "Chunky", "prefix": "PHNM", "user": {"location": {"city": "Summerville", "state": "SC", "country": "United States"}}}}]}, "standing": {"placement": 1, "stats": {"score": {"value": 2}}}}], "games": null}, {"id": 92110836, "state": 3, "round": -3, "fullRoundText": "Losers Round 1", "completedAt": 1754182364, "winnerId": 20699992, "slots": [{"id": "92110836-0", "entrant": {"id": 20615765, "name": "RM | GUMP2 | Kr!stal:0", "participants": [{"id": 18978540, "gamerTag": "Kr!stal:0", "prefix": "RM | GUMP2", "user": {"location": {"city": "Lawrenceville", "state": "GA", "country": "United States"}}, "player": {"id": 2409815, "gamerTag": "AO ASHI SEASON 2 2026", "prefix": "RM | GUMP2", "user": {"location": {"city": "Lawrenceville", "state": "GA", "country": "United States"}}}}]}, "standing": {"placement": 2, "stats": {"score": {"value": 0}}}}, {"id": "92110836-1", "entrant": {"id": 20699992, "name": "SFS | TCS | Dany", "participants": [{"id": 19051511, "gamerTag": "Dany", "prefix": "SFS | TCS", "user": {"location": {"city": "Nashville", "state": "TN", "country": "United States"}}, "player": {"id": 606386, "gamerTag": "Dany2theny", "prefix": "TCS", "user": {"location": {"city": "Nashville", "state": "TN", "country": "United States"}}}}]}, "standing": {"placement": 1, "stats": {"score": {"value": 2}}}}], "games": null}, {"id": 92110837, "state": 3, "round": -3, "fullRoundText": "Losers Round 1", "completedAt": 1754181527, "winnerId": 20722062, "slots": [{"id": "92110837-0", "entrant": {"id": 20722062, "name": "YBG Don", "participants": [{"id": 19071049, "gamerTag": "YBG Don", "prefix": "", "user": {"location": {"city": "sussy amogus school", "state": "TX", "country": "United States"}}, "player": {"id": 2228357, "gamerTag": "YBG Don", "prefix": "", "user": {"location": {"city": "sussy amogus school", "state": "TX", "country": "United States"}}}}]}, "standing": {"placement": 1, "stats": {"score": {"value": 2}}}}, {"id": "92110837-1", "entrant": {"id": 20490407, "name": "TC | Mr.Speedman", "participants": [{"id": 18869131, "gamerTag": "Mr.Speedman", "prefix": "TC", "user": {"location": {"city": "Roswell", "state": "GA", "country": "United States"}}, "player": {"id": 36192, "gamerTag": "Mr.Speedman", "prefix": "TC", "user": {"location": {"city": "Roswell", "state": "GA", "country": "United States"}}}}]}, "standing": {"placement": 2, "stats": {"score": {"value": 0}}}}], "games": null}]}}}