{"phase": {"seeds": {"pageInfo": {"totalPages": 1, "total": 10}, "nodes": [{"id": 36226288, "seedNum": 2, "entrant": {"id": 21005844, "name": "UmKellan", "participants": [{"id": 19323463, "gamerTag": "UmKellan", "prefix": "", "user": {"location": {"city": "Atlanta", "state": "GA", "country": "United States"}}, "player": {"id": 1022375, "gamerTag": "UmKellan", "prefix": "", "user": {"location": {"city": "Atlanta", "state": "GA", "country": "United States"}}}}]}}, {"id": 36278403, "seedNum": 1, "entrant": {"id": 21038959, "name": "Foam Root", "participants": [{"id": 19353411, "gamerTag": "Foam Root", "prefix": "", "user": {"location": {"city": "Covington", "state": "GA", "country": "United States"}}, "player": {"id": 541222, "gamerTag": "Foam Root", "prefix": "", "user": {"location": {"city": "Covington", "state": "GA", "country": "United States"}}}}]}}, {"id": 36205097, "seedNum": 3, "entrant": {"id": 20992040, "name": "Skate", "participants": [{"id": 19310629, "gamerTag": "Skate", "prefix": null, "user": {"location": {"city": null, "state": null, "country": "United States"}}, "player": {"id": 4045198, "gamerTag": "Skate", "prefix": null, "user": {"location": {"city": null, "state": null, "country": "United States"}}}}]}}, {"id": 36295475, "seedNum": 6, "entrant": {"id": 21050078, "name": "OEG | EggJolk", "participants": [{"id": 19363502, "gamerTag": "EggJolk", "prefix": "OEG", "user": {"location": {"city": "Atlanta", "state": "GA", "country": "United States"}}, "player": {"id": 1009143, "gamerTag": "EggJolk", "prefix": "OEG", "user": {"location": {"city": "Atlanta", "state": "GA", "country": "United States"}}}}]}}, {"id": 36287362, "seedNum": 4, "entrant": {"id": 21045071, "name": "Hobbit", "participants": [{"id": 19359256, "gamerTag": "Hobbit", "prefix": null, "user": {"location": {"city": null, "state": "GA", "country": "United States"}}, "player": {"id": 4025480, "gamerTag": "Hobbit", "prefix": null, "user": {"location": {"city": null, "state": "GA", "country": "United States"}}}}]}}, {"id": 36299755, "seedNum": 5, "entrant": {"id": 21053394, "name": "MASH | MIKUBOMBER", "participants": [{"id": 19366599, "gamerTag": "MIKUBOMBER", "prefix": "MASH", "user": {"location": {"city": "Marietta", "state": "GA", "country": "United States"}}, "player": {"id": 4199111, "gamerTag": "MIKUBOMBER", "prefix": "MASH", "user": {"location": {"city": "Marietta", "state": "GA", "country": "United States"}}}}]}}, {"id": 36289800, "seedNum": 9, "entrant": {"id": 21046627, "name": "ZB | Sanaito", "participants": [{"id": 19307057, "gamerTag": "Sanaito", "prefix": "ZB", "user": {"location": {"city": "Fayetteville", "state": "GA", "country": "United States"}}, "player": {"id": 12761, "gamerTag": "Sanaito", "prefix": "ZB", "user": {"location": {"city": "Fayetteville", "state": "GA", "country": "United States"}}}}]}}, {"id": 36224987, "seedNum": 10, "entrant": {"id": 21005010, "name": "xXST4RRS41NTXx", "participants": [{"id": 19322665, "gamerTag": "xXST4RRS41NTXx", "prefix": null, "user": {"location": {"city": "Snellville", "state": "GA", "country": "United States"}}, "player": {"id": 4804435, "gamerTag": "xXST4RRS41NTXx", "prefix": null, "user": {"location": {"city": "Snellville", "state": "GA", "country": "United States"}}}}]}}, {"id": 36299390, "seedNum": 7, "entrant": {"id": 21053141, "name": "ZB | Juniper", "participants": [{"id": 19309042, "gamerTag": "Juniper", "prefix": "ZB", "user": {"location": {"city": "Morrow", "state": "GA", "country": "United States"}}, "player": {"id": 46895, "gamerTag": "Juniper", "prefix": "ZB", "user": {"location": {"city": "Morrow", "state": "GA", "country": "United States"}}}}]}}, {"id": 36300121, "seedNum": 8, "entrant": {"id": 21053640, "name": "Brainwormz", "participants": [{"id": 19366810, "gamerTag": "Brainwormz", "prefix": null, "user": {"location": {"city": "Snellville", "state": "GA", "country": "United States"}}, "player": {"id": 4818359, "gamerTag": "Brainwormz", "prefix": null, "user": {"location": {"city": "Snellville", "state": "GA", "country": "United States"}}}}]}}]}}}