{"event": {"sets": {"pageInfo": {"totalPages": 3, "total": 42}, "nodes": [{"id": 91754065, "state": 3, "round": -4, "fullRoundText": "Losers Round 1", "completedAt": 1753317845, "winnerId": 20781352, "slots": [{"id": "91754065-0", "entrant": {"id": 20781352, "name": "Iso.Dgaf", "participants": [{"id": 19125417, "gamerTag": "Iso.Dgaf", "prefix": null, "user": {"location": {"city": "Acworth", "state": "GA", "country": "United States"}}, "player": {"id": 4285541, "gamerTag": "Iso.Dgaf", "prefix": null, "user": {"location": {"city": "Acworth", "state": "GA", "country": "United States"}}}}]}, "standing": {"placement": 1, "stats": {"score": {"value": 2}}}}, {"id": "91754065-1", "entrant": {"id": 20779690, "name": "PrimeStone", "participants": [{"id": 19123692, "gamerTag": "PrimeStone", "prefix": null, "user": {"location": {"city": "Loganville", "state": "GA", "country": "United States"}}, "player": {"id": 1130909, "gamerTag": "PrimeStone", "prefix": null, "user": {"location": {"city": "Loganville", "state": "GA", "country": "United States"}}}}]}, "standing": {"placement": 2, "stats": {"score": {"value": 0}}}}], "games": null}, {"id": 91754067, "state": 3, "round": -4, "fullRoundText": "Losers Round 1", "completedAt": 1753317783, "winnerId": 20781426, "slots": [{"id": "91754067-0", "entrant": {"id": 20781426, "name": "REHOO", "participants": [{"id": 19125486, "gamerTag": "REHOO", "prefix": null, "user": {"location": {"city": "jonesboro", "state": "GA", "country": "United States"}}, "player": {"id": 427983, "gamerTag": "REHOO", "prefix": null, "user": {"location": {"city": "jonesboro", "state": "GA", "country": "United States"}}}}]}, "standing": {"placement": 1, "stats": {"score": {"value": null}}}}, {"id": "91754067-1", "entrant": {"id": 20778063, "name": "StreetGamer | IPlaygay", "participants": [{"id": 19122173, "gamerTag": "IPlaygay", "prefix": "StreetGamer", "user": {"location": {"city": "Atlanta", "state": "GA", "country": "United States"}}, "player": {"id": 1533578, "gamerTag": "QUICKTAKETHISL", "prefix": "Street", "user": {"location": {"city": "Atlanta", "state": "GA", "country": "United States"}}}}]}, "standing": {"placement": 2, "stats": {"score": {"value": -1}}}}], "games": null}, {"id": 91754068, "state": 3, "round": -4, "fullRoundText": "Losers Round 1", "completedAt": 1753318206, "winnerId": 20777948, "slots": [{"id": "91754068-0", "entrant": {"id": 20778350, "name": "Greed", "participants": [{"id": 19122448, "gamerTag": "Greed", "prefix": "", "user": {"location": {"city": "Atlanta", "state": "GA", "country": "United States"}}, "player": {"id": 907329, "gamerTag": "Greed", "prefix": "", "user": {"location": {"city": "Atlanta", "state": "GA", "country": "United States"}}}}]}, "standing": {"placement": 2, "stats": {"score": {"value": 1}}}}, {"id": "91754068-1", "entrant": {"id": 20777948, "name": "REMY", "participants": [{"id": 19122064, "gamerTag": "REMY", "prefix": null, "user": {"location": {"city": "Mableton", "state": "GA", "country": "United States"}}, "player": {"id": 4887443, "gamerTag": "REMY", "prefix": null, "user": {"location": {"city": "Mableton", "state": "GA", "country": "United States"}}}}]}, "standing": {"placement": 1, "stats": {"score": {"value": 2}}}}], "games": null}, {"id": 91754061, "state": 3, "round": -4, "fullRoundText": "Losers Round 1", "completedAt": 1753317643, "winnerId": 20779100, "slots": [{"id": "91754061-0", "entrant": {"id": 20767881, "name": "StrataJay", "participants": [{"id": 19113106, "gamerTag": "StrataJay", "prefix": "", "user": {"location": {"city": "Grayson", "state": "GA", "country": "United States"}}, "player": {"id": 1112189, "gamerTag": "StrataJay", "prefix": "", "user": {"location": {"city": "Grayson", "state": "GA", "country": "United States"}}}}]}, "standing": {"placement": 2, "stats": {"score": {"value": -1}}}}, {"id": "91754061-1", "entrant": {"id": 20779100, "name": "Equivox", "participants": [{"id": 19123146, "gamerTag": "Equivox", "prefix": null, "user": {"location": {"city": "Atlanta", "state": "GA", "country": "United States"}}, "player": {"id": 2011920, "gamerTag": "Equivox", "prefix": null, "user": {"location": {"city": "Atlanta", "state": "GA", "country": "United States"}}}}]}, "standing": {"placement": 1, "stats": {"score": {"value": null}}}}], "games": null}, {"id": 91754063, "state": 3, "round": -4, "fullRoundText": "Losers Round 1", "completedAt": 1753317904, "winnerId": 20780261, "slots": [{"id": "91754063-0", "entrant": {"id": 20780261, "name": "Armanisaint", "participants": [{"id": 19124255, "gamerTag": "Armanisaint", "prefix": null, "user": {"location": {"city": "Roswell", "state": "GA", "country": "United States"}}, "player": {"id": 3943806, "gamerTag": "Armanisaint", "prefix": null, "user": {"location": {"city": "Roswell", "state": "GA", "country": "United States"}}}}]}, "standing": {"placement": 1, "stats": {"score": {"value": 2}}}}, {"id": "91754063-1", "entrant": {"id": 20780351, "name": "USAF | ATL | Juynni", "participants": [{"id": 19124342, "gamerTag": "Juynni", "prefix": "USAF | ATL", "user": {"location": {"city": "Atlanta", "state": "GA", "country": "United States"}}, "player": {"id": 1601885, "gamerTag": "Juynni", "prefix": "USAF | ATL", "user": {"location": {"city": "Atlanta", "state": "GA", "country": "United States"}}}}]}, "standing": {"placement": 2, "stats": {"score": {"value": 0}}}}], "games": null}, {"id": 91754064, "state": 3, "round": -4, "fullRoundText": "Losers Round 1", "completedAt": 1753317983, "winnerId": 20778107, "slots": [{"id": "91754064-0", "entrant": {"id": 20778107, "name": "TS | Static", "participants": [{"id": 19122218, "gamerTag": "Static", "prefix": "TS", "user": {"location": {"city": null, "state": null, "country": "United States"}}, "player": {"id": 298731, "gamerTag": "Static", "prefix": "TS", "user": {"location": {"city": null, "state": null, "country": "United States"}}}}]}, "standing": {"placement": 1, "stats": {"score": {"value": 2}}}}, {"id": "91754064-1", "entrant": {"id": 20781594, "name": "YoungTaco", "participants": [{"id": 19125648, "gamerTag": "YoungTaco", "prefix": "", "user": {"location": {"city": null, "state": "GA", "country": "United States"}}, "player": {"id": 1239045, "gamerTag": "YoungTaco", "prefix": "", "user": {"location": {"city": null, "state": "GA", "country": "United States"}}}}]}, "standing": {"placement": 2, "stats": {"score": {"value": 0}}}}], "games": null}, {"id": 91753989, "state": 3, "round": 1, "fullRoundText": "Winners Round 1", "completedAt": 1753316566, "winnerId": 20778350, "slots": [{"id": "91753989-0", "entrant": {"id": 20778350, "name": "Greed", "participants": [{"id": 19122448, "gamerTag": "Greed", "prefix": "", "user": {"location": {"city": "Atlanta", "state": "GA", "country": "United States"}}, "player": {"id": 907329, "gamerTag": "Greed", "prefix": "", "user": {"location": {"city": "Atlanta", "state": "GA", "country": "United States"}}}}]}, "standing": {"placement": 1, "stats": {"score": {"value": 2}}}}, {"id": "91753989-1", "entrant": {"id": 20779100, "name": "Equivox", "participants": [{"id": 19123146, "gamerTag": "Equivox", "prefix": null, "user": {"location": {"city": "Atlanta", "state": "GA", "country": "United States"}}, "player": {"id": 2011920, "gamerTag": "Equivox", "prefix": null, "user": {"location": {"city": "Atlanta", "state": "GA", "country": "United States"}}}}]}, "standing": {"placement": 2, "stats": {"score": {"value": 0}}}}], "games": null}, {"id": 91753993, "state": 3, "round": 1, "fullRoundText": "Winners Round 1", "completedAt": 1753317236, "winnerId": 20780291, "slots": [{"id": "91753993-0", "entrant": {"id": 20780291, "name": "Myk_JUMP", "participants": [{"id": 19124288, "gamerTag": "Myk_JUMP", "prefix": "", "user": {"location": {"city": "Atlanta", "state": "GA", "country": "United States"}}, "player": {"id": 469002, "gamerTag": "Myk_JUMP", "prefix": "", "user": {"location": {"city": "Atlanta", "state": "GA", "country": "United States"}}}}]}, "standing": {"placement": 1, "stats": {"score": {"value": 2}}}}, {"id": "91753993-1", "entrant": {"id": 20780351, "name": "USAF | ATL | Juynni", "participants": [{"id": 19124342, "gamerTag": "Juynni", "prefix": "USAF | ATL", "user": {"location": {"city": "Atlanta", "state": "GA", "country": "United States"}}, "player": {"id": 1601885, "gamerTag": "Juynni", "prefix": "USAF | ATL", "user": {"location": {"city": "Atlanta", "state": "GA", "country": "United States"}}}}]}, "standing": {"placement": 2, "stats": {"score": {"value": 0}}}}], "games": null}, {"id": 91753995, "state": 3, "round": 1, "fullRoundText": "Winners Round 1", "completedAt": 1753316718, "winnerId": 20779801, "slots": [{"id": "91753995-0", "entrant": {"id": 20779801, "name": "Eternia Corp. | HBKdoza", "participants": [{"id": 19123800, "gamerTag": "HBKdoza", "prefix": "Eternia Corp.", "user": {"location": {"city": "Decatur", "state": "GA", "country": "United States"}}, "player": {"id": 3426567, "gamerTag": "HBKdoza", "prefix": "Eternia Corp.", "user": {"location": {"city": "Decatur", "state": "GA", "country": "United States"}}}}]}, "standing": {"placement": 1, "stats": {"score": {"value": 2}}}}, {"id": "91753995-1", "entrant": {"id": 20781594, "name": "YoungTaco", "participants": [{"id": 19125648, "gamerTag": "YoungTaco", "prefix": "", "user": {"location": {"city": null, "state": "GA", "country": "United States"}}, "player": {"id": 1239045, "gamerTag": "YoungTaco", "prefix": "", "user": {"location": {"city": null, "state": "GA", "country": "United States"}}}}]}, "standing": {"placement": 2, "stats": {"score": {"value": 0}}}}], "games": null}, {"id": 91753997, "state": 3, "round": 1, "fullRoundText": "Winners Round 1", "completedAt": 1753316768, "winnerId": 20778107, "slots": [{"id": "91753997-0", "entrant": {"id": 20778107, "name": "TS | Static", "participants": [{"id": 19122218, "gamerTag": "Static", "prefix": "TS", "user": {"location": {"city": null, "state": null, "country": "United States"}}, "player": {"id": 298731, "gamerTag": "Static", "prefix": "TS", "user": {"location": {"city": null, "state": null, "country": "United States"}}}}]}, "standing": {"placement": 1, "stats": {"score": {"value": 2}}}}, {"id": "91753997-1", "entrant": {"id": 20779690, "name": "PrimeStone", "participants": [{"id": 19123692, "gamerTag": "PrimeStone", "prefix": null, "user": {"location": {"city": "Loganville", "state": "GA", "country": "United States"}}, "player": {"id": 1130909, "gamerTag": "PrimeStone", "prefix": null, "user": {"location": {"city": "Loganville", "state": "GA", "country": "United States"}}}}]}, "standing": {"placement": 2, "stats": {"score": {"value": 0}}}}], "games": null}, {"id": 91754001, "state": 3, "round": 1, "fullRoundText": "Winners Round 1", "completedAt": 1753317192, "winnerId": 20780192, "slots": [{"id": "91754001-0", "entrant": {"id": 20778063, "name": "StreetGamer | IPlaygay", "participants": [{"id": 19122173, "gamerTag": "IPlaygay", "prefix": "StreetGamer", "user": {"location": {"city": "Atlanta", "state": "GA", "country": "United States"}}, "player": {"id": 1533578, "gamerTag": "QUICKTAKETHISL", "prefix": "Street", "user": {"location": {"city": "Atlanta", "state": "GA", "country": "United States"}}}}]}, "standing": {"placement": 2, "stats": {"score": {"value": -1}}}}, {"id": "91754001-1", "entrant": {"id": 20780192, "name": "Jet Midder", "participants": [{"id": 19124188, "gamerTag": "Jet Midder", "prefix": null, "user": {"location": {"city": null, "state": null, "country": null}}, "player": {"id": 2363656, "gamerTag": "Jet Dayo", "prefix": null, "user": {"location": {"city": null, "state": null, "country": null}}}}]}, "standing": {"placement": 1, "stats": {"score": {"value": null}}}}], "games": null}, {"id": 91754003, "state": 3, "round": 1, "fullRoundText": "Winners Round 1", "completedAt": 1753317187, "winnerId": 20781708, "slots": [{"id": "91754003-0", "entrant": {"id": 20777948, "name": "REMY", "participants": [{"id": 19122064, "gamerTag": "REMY", "prefix": null, "user": {"location": {"city": "Mableton", "state": "GA", "country": "United States"}}, "player": {"id": 4887443, "gamerTag": "REMY", "prefix": null, "user": {"location": {"city": "Mableton", "state": "GA", "country": "United States"}}}}]}, "standing": {"placement": 2, "stats": {"score": {"value": 0}}}}, {"id": "91754003-1", "entrant": {"id": 20781708, "name": "Momokins", "participants": [{"id": 19125757, "gamerTag": "Momokins", "prefix": "", "user": {"location": {"city": "Atlanta", "state": "GA", "country": "United States"}}, "player": {"id": 612216, "gamerTag": "Momokins", "prefix": "", "user": {"location": {"city": "Atlanta", "state": "GA", "country": "United States"}}}}]}, "standing": {"placement": 1, "stats": {"score": {"value": 2}}}}], "games": null}]}}}