{"event": {"sets": {"pageInfo": {"totalPages": 4, "total": 59}, "nodes": [{"id": 94203272, "state": 3, "round": 1, "fullRoundText": "Winners Round 1", "completedAt": 1758502185, "winnerId": 21341101, "slots": [{"id": "94203272-0", "entrant": {"id": 21341101, "name": "RM | Retro18", "participants": [{"id": 19618400, "gamerTag": "Retro18", "prefix": "RM", "user": {"location": {"city": "Loganville", "state": "GA", "country": "United States"}}, "player": {"id": 867830, "gamerTag": "Retro18", "prefix": "RM", "user": {"location": {"city": "Loganville", "state": "GA", "country": "United States"}}}}]}, "standing": {"placement": 1, "stats": {"score": {"value": 2}}}}, {"id": "94203272-1", "entrant": {"id": 21340168, "name": "RentsDue", "participants": [{"id": 19617464, "gamerTag": "RentsDue", "prefix": "", "user": {"location": {"city": "Atlanta", "state": "GA", "country": "United States"}}, "player": {"id": 4928353, "gamerTag": "RentsDue", "prefix": "", "user": {"location": {"city": "Atlanta", "state": "GA", "country": "United States"}}}}]}, "standing": {"placement": 2, "stats": {"score": {"value": 0}}}}], "games": null}, {"id": 94203319, "state": 3, "round": 1, "fullRoundText": "Winners Round 1", "completedAt": 1758503495, "winnerId": 21337620, "slots": [{"id": "94203319-0", "entrant": {"id": 21337620, "name": "TFT | BigCheese", "participants": [{"id": 19615184, "gamerTag": "BigCheese", "prefix": "TFT", "user": {"location": {"city": null, "state": null, "country": null}}, "player": {"id": 3991446, "gamerTag": "BigCheese", "prefix": "TFT", "user": {"location": {"city": null, "state": null, "country": null}}}}]}, "standing": {"placement": 1, "stats": {"score": {"value": 2}}}}, {"id": "94203319-1", "entrant": {"id": 21341657, "name": "assclapFGC", "participants": [{"id": 19618897, "gamerTag": "assclapFGC", "prefix": "", "user": {"location": {"city": "Scottdale", "state": "GA", "country": "United States"}}, "player": {"id": 3481864, "gamerTag": "assclapFGC", "prefix": "", "user": {"location": {"city": "Scottdale", "state": "GA", "country": "United States"}}}}]}, "standing": {"placement": 2, "stats": {"score": {"value": 0}}}}], "games": null}, {"id": 94203273, "state": 3, "round": 1, "fullRoundText": "Winners Round 1", "completedAt": 1758503358, "winnerId": 21341664, "slots": [{"id": "94203273-0", "entrant": {"id": 21341664, "name": "PhaZe", "participants": [{"id": 19618904, "gamerTag": "PhaZe", "prefix": "", "user": {"location": {"city": "Gainesville", "state": "GA", "country": "United States"}}, "player": {"id": 36212, "gamerTag": "PhaZe", "prefix": "", "user": {"location": {"city": "Gainesville", "state": "GA", "country": "United States"}}}}]}, "standing": {"placement": 1, "stats": {"score": {"value": 2}}}}, {"id": "94203273-1", "entrant": {"id": 21341876, "name": "Jaxon", "participants": [{"id": 19619080, "gamerTag": "Jaxon", "prefix": null, "user": {"location": {"city": "Austell", "state": "GA", "country": "United States"}}, "player": {"id": 1827826, "gamerTag": "Jay3Low", "prefix": null, "user": {"location": {"city": "Austell", "state": "GA", "country": "United States"}}}}]}, "standing": {"placement": 2, "stats": {"score": {"value": 0}}}}], "games": null}, {"id": 94203320, "state": 3, "round": 1, "fullRoundText": "Winners Round 1", "completedAt": 1758502328, "winnerId": 21338347, "slots": [{"id": "94203320-0", "entrant": {"id": 21338347, "name": "Heart", "participants": [{"id": 19615870, "gamerTag": "Heart", "prefix": null, "user": {"location": {"city": "Atlanta", "state": "GA", "country": "United States"}}, "player": {"id": 4287822, "gamerTag": "Heart", "prefix": "", "user": {"location": {"city": "Atlanta", "state": "GA", "country": "United States"}}}}]}, "standing": {"placement": 1, "stats": {"score": {"value": 2}}}}, {"id": "94203320-1", "entrant": {"id": 21341878, "name": "lordjawsheen", "participants": [{"id": 19619082, "gamerTag": "lordjawsheen", "prefix": "", "user": null, "player": {"id": 4987513, "gamerTag": "lordjawsheen", "prefix": "", "user": null}}]}, "standing": {"placement": 2, "stats": {"score": {"value": 0}}}}], "games": null}, {"id": 94203274, "state": 3, "round": 1, "fullRoundText": "Winners Round 1", "completedAt": 1758501384, "winnerId": 21341761, "slots": [{"id": "94203274-0", "entrant": {"id": 21341761, "name": "Jdaddy", "participants": [{"id": 19618982, "gamerTag": "Jdaddy", "prefix": null, "user": {"location": {"city": "Atlanta", "state": "GA", "country": "United States"}}, "player": {"id": 4384721, "gamerTag": "Jdaddy", "prefix": null, "user": {"location": {"city": "Atlanta", "state": "GA", "country": "United States"}}}}]}, "standing": {"placement": 1, "stats": {"score": {"value": 2}}}}, {"id": "94203274-1", "entrant": {"id": 21341188, "name": "TFT/ WFF2 | Frank Osherm", "participants": [{"id": 19618484, "gamerTag": "Frank Osherm", "prefix": "TFT/ WFF2", "user": {"location": {"city": "Atlanta", "state": "GA", "country": "United States"}}, "player": {"id": 1751817, "gamerTag": "Ricky Rudd", "prefix": "TFT", "user": {"location": {"city": "Atlanta", "state": "GA", "country": "United States"}}}}]}, "standing": {"placement": 2, "stats": {"score": {"value": 0}}}}], "games": null}, {"id": 94203321, "state": 3, "round": 1, "fullRoundText": "Winners Round 1", "completedAt": 1758501687, "winnerId": 21340970, "slots": [{"id": "94203321-0", "entrant": {"id": 21341549, "name": "MONEY | ImNoPro", "participants": [{"id": 19618812, "gamerTag": "ImNoPro", "prefix": "MONEY", "user": {"location": {"city": "Calhoun", "state": "GA", "country": "United States"}}, "player": {"id": 2149803, "gamerTag": "ImNoPro", "prefix": "MONEY", "user": {"location": {"city": "Calhoun", "state": "GA", "country": "United States"}}}}]}, "standing": {"placement": 2, "stats": {"score": {"value": 1}}}}, {"id": "94203321-1", "entrant": {"id": 21340970, "name": "SamRice", "participants": [{"id": 19618279, "gamerTag": "SamRice", "prefix": "", "user": {"location": {"city": "Norcross", "state": "GA", "country": "United States"}}, "player": {"id": 2387403, "gamerTag": "SamRice", "prefix": "", "user": {"location": {"city": "Norcross", "state": "GA", "country": "United States"}}}}]}, "standing": {"placement": 1, "stats": {"score": {"value": 2}}}}], "games": null}, {"id": 94203322, "state": 3, "round": 1, "fullRoundText": "Winners Round 1", "completedAt": 1758502587, "winnerId": 21339275, "slots": [{"id": "94203322-0", "entrant": {"id": 21339275, "name": "Kid Kaioken", "participants": [{"id": 19616734, "gamerTag": "Kid Kaioken", "prefix": "", "user": {"location": {"city": "Norcross", "state": "GA", "country": "United States"}}, "player": {"id": 2730912, "gamerTag": "Kid Kaioken", "prefix": "", "user": {"location": {"city": "Norcross", "state": "GA", "country": "United States"}}}}]}, "standing": {"placement": 1, "stats": {"score": {"value": 2}}}}, {"id": "94203322-1", "entrant": {"id": 21341772, "name": "Cozy", "participants": [{"id": 19618993, "gamerTag": "Cozy", "prefix": "", "user": null, "player": {"id": 4987502, "gamerTag": "Cozy", "prefix": "", "user": null}}]}, "standing": {"placement": 2, "stats": {"score": {"value": 0}}}}], "games": null}, {"id": 94203275, "state": 3, "round": 1, "fullRoundText": "Winners Round 1", "completedAt": 1758501198, "winnerId": 21341769, "slots": [{"id": "94203275-0", "entrant": {"id": 21341769, "name": "TnT | Damp\u00e9", "participants": [{"id": 19618990, "gamerTag": "Damp\u00e9", "prefix": "TnT", "user": {"location": {"city": "Atlanta", "state": "GA", "country": "United States"}}, "player": {"id": 1170738, "gamerTag": "Damp\u00e9", "prefix": "TnT", "user": {"location": {"city": "Atlanta", "state": "GA", "country": "United States"}}}}]}, "standing": {"placement": 1, "stats": {"score": {"value": 2}}}}, {"id": "94203275-1", "entrant": {"id": 21341857, "name": "weathermandan", "participants": [{"id": 19619065, "gamerTag": "weathermandan", "prefix": "", "user": null, "player": {"id": 4344744, "gamerTag": "weathermandan", "prefix": "", "user": null}}]}, "standing": {"placement": 2, "stats": {"score": {"value": 0}}}}], "games": null}, {"id": 94203323, "state": 3, "round": 1, "fullRoundText": "Winners Round 1", "completedAt": 1758501915, "winnerId": 21338685, "slots": [{"id": "94203323-0", "entrant": {"id": 21338685, "name": "RM | WFF | Cyax~", "participants": [{"id": 19616193, "gamerTag": "Cyax~", "prefix": "RM | WFF", "user": {"location": {"city": "atlanta", "state": "GA", "country": "United States"}}, "player": {"id": 1230555, "gamerTag": "Sakruoi", "prefix": "RM | WFF", "user": {"location": {"city": "atlanta", "state": "GA", "country": "United States"}}}}]}, "standing": {"placement": 1, "stats": {"score": {"value": 2}}}}, {"id": "94203323-1", "entrant": {"id": 21296003, "name": "TFT | TFT - Guillotine", "participants": [{"id": 19578793, "gamerTag": "TFT - Guillotine", "prefix": "TFT", "user": {"location": {"city": "Atlanta", "state": "GA", "country": "United States"}}, "player": {"id": 4263821, "gamerTag": "TFT - Guillotine", "prefix": "TFT", "user": {"location": {"city": "Atlanta", "state": "GA", "country": "United States"}}}}]}, "standing": {"placement": 2, "stats": {"score": {"value": 0}}}}], "games": null}, {"id": 94203276, "state": 3, "round": 1, "fullRoundText": "Winners Round 1", "completedAt": 1758502942, "winnerId": 21341640, "slots": [{"id": "94203276-0", "entrant": {"id": 21341640, "name": "Nurikami", "participants": [{"id": 19618883, "gamerTag": "Nurikami", "prefix": null, "user": {"location": {"city": "Sandy Springs", "state": "GA", "country": "United States"}}, "player": {"id": 2894467, "gamerTag": "Nurikami", "prefix": null, "user": {"location": {"city": "Sandy Springs", "state": "GA", "country": "United States"}}}}]}, "standing": {"placement": 1, "stats": {"score": {"value": 2}}}}, {"id": "94203276-1", "entrant": {"id": 21338156, "name": "D.King79", "participants": [{"id": 19615701, "gamerTag": "D.King79", "prefix": null, "user": {"location": {"city": "Mt. Olympus", "state": "GA", "country": "United States"}}, "player": {"id": 534660, "gamerTag": "D.King79", "prefix": null, "user": {"location": {"city": "Mt. Olympus", "state": "GA", "country": "United States"}}}}]}, "standing": {"placement": 2, "stats": {"score": {"value": 0}}}}], "games": null}, {"id": 94203618, "state": 3, "round": -4, "fullRoundText": "Losers Quarter-Final", "completedAt": 1758509489, "winnerId": 21337620, "slots": [{"id": "94203618-0", "entrant": {"id": 21337620, "name": "TFT | BigCheese", "participants": [{"id": 19615184, "gamerTag": "BigCheese", "prefix": "TFT", "user": {"location": {"city": null, "state": null, "country": null}}, "player": {"id": 3991446, "gamerTag": "BigCheese", "prefix": "TFT", "user": {"location": {"city": null, "state": null, "country": null}}}}]}, "standing": {"placement": 1, "stats": {"score": {"value": 3}}}}, {"id": "94203618-1", "entrant": {"id": 21341705, "name": "Yummy", "participants": [{"id": 19618940, "gamerTag": "Yummy", "prefix": "", "user": {"location": {"city": "Atlanta", "state": "GA", "country": "United States"}}, "player": {"id": 1743866, "gamerTag": "Yummy", "prefix": "", "user": {"location": {"city": "Atlanta", "state": "GA", "country": "United States"}}}}]}, "standing": {"placement": 2, "stats": {"score": {"value": 1}}}}], "games": null}, {"id": 94203619, "state": 3, "round": -4, "fullRoundText": "Losers Quarter-Final", "completedAt": 1758510094, "winnerId": 21339275, "slots": [{"id": "94203619-0", "entrant": {"id": 21341101, "name": "RM | Retro18", "participants": [{"id": 19618400, "gamerTag": "Retro18", "prefix": "RM", "user": {"location": {"city": "Loganville", "state": "GA", "country": "United States"}}, "player": {"id": 867830, "gamerTag": "Retro18", "prefix": "RM", "user": {"location": {"city": "Loganville", "state": "GA", "country": "United States"}}}}]}, "standing": {"placement": 2, "stats": {"score": {"value": 0}}}}, {"id": "94203619-1", "entrant": {"id": 21339275, "name": "Kid Kaioken", "participants": [{"id": 19616734, "gamerTag": "Kid Kaioken", "prefix": "", "user": {"location": {"city": "Norcross", "state": "GA", "country": "United States"}}, "player": {"id": 2730912, "gamerTag": "Kid Kaioken", "prefix": "", "user": {"location": {"city": "Norcross", "state": "GA", "country": "United States"}}}}]}, "standing": {"placement": 1, "stats": {"score": {"value": 2}}}}], "games": null}, {"id": 94203616, "state": 3, "round": -3, "fullRoundText": "Losers Round 1", "completedAt": 1758509545, "winnerId": 21341705, "slots": [{"id": "94203616-0", "entrant": {"id": 21341705, "name": "Yummy", "participants": [{"id": 19618940, "gamerTag": "Yummy", "prefix": "", "user": {"location": {"city": "Atlanta", "state": "GA", "country": "United States"}}, "player": {"id": 1743866, "gamerTag": "Yummy", "prefix": "", "user": {"location": {"city": "Atlanta", "state": "GA", "country": "United States"}}}}]}, "standing": {"placement": 1, "stats": {"score": {"value": 2}}}}, {"id": "94203616-1", "entrant": {"id": 21341638, "name": "RAMS | RussianJesus", "participants": [{"id": 19618881, "gamerTag": "RussianJesus", "prefix": "RAMS", "user": {"location": {"city": "Atlanta", "state": "GA", "country": "United States"}}, "player": {"id": 1140567, "gamerTag": "RussianJesus", "prefix": "RAMS", "user": {"location": {"city": "Atlanta", "state": "GA", "country": "United States"}}}}]}, "standing": {"placement": 2, "stats": {"score": {"value": 0}}}}], "games": [{"id": 32786714, "orderNum": 1, "winnerId": 21341705, "entrant1Score": null, "entrant2Score": 0, "stage": null, "selections": [{"id": 48359595, "selectionType": "CHARACTER", "selectionValue": 1328, "entrant": {"id": 21341638}, "character": {"id": 1328, "name": "Samus"}}, {"id": 48359596, "selectionType": "CHARACTER", "selectionValue": 1407, "entrant": {"id": 21341705}, "character": {"id": 1407, "name": "King K. Rool"}}]}, {"id": 32786715, "orderNum": 2, "winnerId": 21341705, "entrant1Score": null, "entrant2Score": 0, "stage": null, "selections": [{"id": 48359597, "selectionType": "CHARACTER", "selectionValue": 1328, "entrant": {"id": 21341638}, "character": {"id": 1328, "name": "Samus"}}, {"id": 48359598, "selectionType": "CHARACTER", "selectionValue": 1407, "entrant": {"id": 21341705}, "character": {"id": 1407, "name": "King K. Rool"}}]}]}, {"id": 94203617, "state": 3, "round": -3, "fullRoundText": "Losers Round 1", "completedAt": 1758509559, "winnerId": 21339275, "slots": [{"id": "94203617-0", "entrant": {"id": 21341563, "name": "RM | lawl", "participants": [{"id": 19618820, "gamerTag": "lawl", "prefix": "RM", "user": {"location": {"city": "Dacula", "state": "GA", "country": "United States"}}, "player": {"id": 2116990, "gamerTag": "lawl", "prefix": "RM", "user": {"location": {"city": "Dacula", "state": "GA", "country": "United States"}}}}]}, "standing": {"placement": 2, "stats": {"score": {"value": 0}}}}, {"id": "94203617-1", "entrant": {"id": 21339275, "name": "Kid Kaioken", "participants": [{"id": 19616734, "gamerTag": "Kid Kaioken", "prefix": "", "user": {"location": {"city": "Norcross", "state": "GA", "country": "United States"}}, "player": {"id": 2730912, "gamerTag": "Kid Kaioken", "prefix": "", "user": {"location": {"city": "Norcross", "state": "GA", "country": "United States"}}}}]}, "standing": {"placement": 1, "stats": {"score": {"value": 2}}}}], "games": [{"id": 32786718, "orderNum": 1, "winnerId": 21339275, "entrant1Score": 0, "entrant2Score": null, "stage": null, "selections": [{"id": 48359601, "selectionType": "CHARACTER", "selectionValue": 1846, "entrant": {"id": 21339275}, "character": {"id": 1846, "name": "Kazuya"}}, {"id": 48359602, "selectionType": "CHARACTER", "selectionValue": 1336, "entrant": {"id": 21341563}, "character": {"id": 1336, "name": "Wii Fit Trainer"}}]}, {"id": 32786719, "orderNum": 2, "winnerId": 21339275, "entrant1Score": 0, "entrant2Score": null, "stage": null, "selections": [{"id": 48359603, "selectionType": "CHARACTER", "selectionValue": 1846, "entrant": {"id": 21339275}, "character": {"id": 1846, "name": "Kazuya"}}, {"id": 48359604, "selectionType": "CHARACTER", "selectionValue": 1336, "entrant": {"id": 21341563}, "character": {"id": 1336, "name": "Wii Fit Trainer"}}]}]}]}}}