{"event": {"sets": {"pageInfo": {"totalPages": 2, "total": 29}, "nodes": [{"id": 91758422, "state": 3, "round": -4, "fullRoundText": "Losers Round 2", "completedAt": 1753322566, "winnerId": 20768136, "slots": [{"id": "91758422-0", "entrant": {"id": 20782106, "name": "RM | WFF | Sakruoi", "participants": [{"id": 19126085, "gamerTag": "Sakruoi", "prefix": "RM | WFF", "user": {"location": {"city": "atlanta", "state": "GA", "country": "United States"}}, "player": {"id": 1230555, "gamerTag": "Sakruoi", "prefix": "RM | WFF", "user": {"location": {"city": "atlanta", "state": "GA", "country": "United States"}}}}]}, "standing": {"placement": 2, "stats": {"score": {"value": 0}}}}, {"id": "91758422-1", "entrant": {"id": 20768136, "name": "KSU | Murasaki Cho", "participants": [{"id": 19113330, "gamerTag": "Murasaki Cho", "prefix": "KSU", "user": {"location": {"city": "Dallas", "state": "GA", "country": "United States"}}, "player": {"id": 1232271, "gamerTag": "Murasaki Cho", "prefix": "KSU", "user": {"location": {"city": "Dallas", "state": "GA", "country": "United States"}}}}]}, "standing": {"placement": 1, "stats": {"score": {"value": 2}}}}], "games": null}, {"id": 91758423, "state": 3, "round": -4, "fullRoundText": "Losers Round 2", "completedAt": 1753323055, "winnerId": 20782146, "slots": [{"id": "91758423-0", "entrant": {"id": 20782146, "name": "Free | Sereni", "participants": [{"id": 19126113, "gamerTag": "Sereni", "prefix": "Free", "user": {"location": {"city": null, "state": null, "country": "United States"}}, "player": {"id": 482535, "gamerTag": "Sereni", "prefix": "Free", "user": {"location": {"city": null, "state": null, "country": "United States"}}}}]}, "standing": {"placement": 1, "stats": {"score": {"value": 2}}}}, {"id": "91758423-1", "entrant": {"id": 20777034, "name": "Sneakem | AK", "participants": [{"id": 19121137, "gamerTag": "AK", "prefix": "Sneakem", "user": {"location": {"city": "Atl", "state": "GA", "country": "United States"}}, "player": {"id": 4887226, "gamerTag": "AK", "prefix": "Sneakem", "user": {"location": {"city": "Atl", "state": "GA", "country": "United States"}}}}]}, "standing": {"placement": 2, "stats": {"score": {"value": 0}}}}], "games": null}, {"id": 91758424, "state": 3, "round": -4, "fullRoundText": "Losers Round 2", "completedAt": 1753322150, "winnerId": 20696196, "slots": [{"id": "91758424-0", "entrant": {"id": 20782102, "name": "Tim", "participants": [{"id": 19126082, "gamerTag": "Tim", "prefix": "", "user": null, "player": {"id": 4888205, "gamerTag": "Tim", "prefix": "", "user": null}}]}, "standing": {"placement": 2, "stats": {"score": {"value": -1}}}}, {"id": "91758424-1", "entrant": {"id": 20696196, "name": "Nurikami", "participants": [{"id": 19048321, "gamerTag": "Nurikami", "prefix": null, "user": {"location": {"city": "Sandy Springs", "state": "GA", "country": "United States"}}, "player": {"id": 2894467, "gamerTag": "Nurikami", "prefix": null, "user": {"location": {"city": "Sandy Springs", "state": "GA", "country": "United States"}}}}]}, "standing": {"placement": 1, "stats": {"score": {"value": 0}}}}], "games": null}, {"id": 91758425, "state": 3, "round": -4, "fullRoundText": "Losers Round 2", "completedAt": 1753322124, "winnerId": 20782002, "slots": [{"id": "91758425-0", "entrant": {"id": 20782002, "name": "Crunchii", "participants": [{"id": 19126004, "gamerTag": "Crunchii", "prefix": "", "user": null, "player": {"id": 4888190, "gamerTag": "Crunchii", "prefix": "", "user": null}}]}, "standing": {"placement": 1, "stats": {"score": {"value": 2}}}}, {"id": "91758425-1", "entrant": {"id": 20782379, "name": "assclapFGC", "participants": [{"id": 19126284, "gamerTag": "assclapFGC", "prefix": "", "user": {"location": {"city": "Scottdale", "state": "GA", "country": "United States"}}, "player": {"id": 3481864, "gamerTag": "assclapFGC", "prefix": "", "user": {"location": {"city": "Scottdale", "state": "GA", "country": "United States"}}}}]}, "standing": {"placement": 2, "stats": {"score": {"value": 1}}}}], "games": null}, {"id": 91758419, "state": 3, "round": -3, "fullRoundText": "Losers Round 1", "completedAt": 1753320940, "winnerId": 20777034, "slots": [{"id": "91758419-0", "entrant": {"id": 20782316, "name": "STVCK", "participants": [{"id": 19126228, "gamerTag": "STVCK", "prefix": null, "user": {"location": {"city": null, "state": "GA", "country": "United States"}}, "player": {"id": 4192470, "gamerTag": "STVCK", "prefix": null, "user": {"location": {"city": null, "state": "GA", "country": "United States"}}}}]}, "standing": {"placement": 2, "stats": {"score": {"value": -1}}}}, {"id": "91758419-1", "entrant": {"id": 20777034, "name": "Sneakem | AK", "participants": [{"id": 19121137, "gamerTag": "AK", "prefix": "Sneakem", "user": {"location": {"city": "Atl", "state": "GA", "country": "United States"}}, "player": {"id": 4887226, "gamerTag": "AK", "prefix": "Sneakem", "user": {"location": {"city": "Atl", "state": "GA", "country": "United States"}}}}]}, "standing": {"placement": 1, "stats": {"score": {"value": null}}}}], "games": null}, {"id": 91758420, "state": 3, "round": -3, "fullRoundText": "Losers Round 1", "completedAt": 1753322146, "winnerId": 20696196, "slots": [{"id": "91758420-0", "entrant": {"id": 20782445, "name": "DevilofdaDynasty", "participants": [{"id": 19126338, "gamerTag": "DevilofdaDynasty", "prefix": "", "user": null, "player": {"id": 4888320, "gamerTag": "DevilofdaDynasty", "prefix": "", "user": null}}]}, "standing": {"placement": 2, "stats": {"score": {"value": 0}}}}, {"id": "91758420-1", "entrant": {"id": 20696196, "name": "Nurikami", "participants": [{"id": 19048321, "gamerTag": "Nurikami", "prefix": null, "user": {"location": {"city": "Sandy Springs", "state": "GA", "country": "United States"}}, "player": {"id": 2894467, "gamerTag": "Nurikami", "prefix": null, "user": {"location": {"city": "Sandy Springs", "state": "GA", "country": "United States"}}}}]}, "standing": {"placement": 1, "stats": {"score": {"value": 2}}}}], "games": null}, {"id": 91758421, "state": 3, "round": -3, "fullRoundText": "Losers Round 1", "completedAt": 1753321051, "winnerId": 20782379, "slots": [{"id": "91758421-0", "entrant": {"id": 20782379, "name": "assclapFGC", "participants": [{"id": 19126284, "gamerTag": "assclapFGC", "prefix": "", "user": {"location": {"city": "Scottdale", "state": "GA", "country": "United States"}}, "player": {"id": 3481864, "gamerTag": "assclapFGC", "prefix": "", "user": {"location": {"city": "Scottdale", "state": "GA", "country": "United States"}}}}]}, "standing": {"placement": 1, "stats": {"score": {"value": 0}}}}, {"id": "91758421-1", "entrant": {"id": 20766373, "name": "Spiral", "participants": [{"id": 19111652, "gamerTag": "Spiral", "prefix": "", "user": {"location": {"city": "LITHONIA", "state": "GA", "country": "United States"}}, "player": {"id": 957192, "gamerTag": "Spiral", "prefix": "", "user": {"location": {"city": "LITHONIA", "state": "GA", "country": "United States"}}}}]}, "standing": {"placement": 2, "stats": {"score": {"value": -1}}}}], "games": null}, {"id": 91758386, "state": 3, "round": 1, "fullRoundText": "Winners Round 1", "completedAt": 1753320538, "winnerId": 20782002, "slots": [{"id": "91758386-0", "entrant": {"id": 20782002, "name": "Crunchii", "participants": [{"id": 19126004, "gamerTag": "Crunchii", "prefix": "", "user": null, "player": {"id": 4888190, "gamerTag": "Crunchii", "prefix": "", "user": null}}]}, "standing": {"placement": 1, "stats": {"score": {"value": 2}}}}, {"id": "91758386-1", "entrant": {"id": 20768136, "name": "KSU | Murasaki Cho", "participants": [{"id": 19113330, "gamerTag": "Murasaki Cho", "prefix": "KSU", "user": {"location": {"city": "Dallas", "state": "GA", "country": "United States"}}, "player": {"id": 1232271, "gamerTag": "Murasaki Cho", "prefix": "KSU", "user": {"location": {"city": "Dallas", "state": "GA", "country": "United States"}}}}]}, "standing": {"placement": 2, "stats": {"score": {"value": 1}}}}], "games": null}, {"id": 91758387, "state": 3, "round": 1, "fullRoundText": "Winners Round 1", "completedAt": 1753320908, "winnerId": 20782102, "slots": [{"id": "91758387-0", "entrant": {"id": 20782316, "name": "STVCK", "participants": [{"id": 19126228, "gamerTag": "STVCK", "prefix": null, "user": {"location": {"city": null, "state": "GA", "country": "United States"}}, "player": {"id": 4192470, "gamerTag": "STVCK", "prefix": null, "user": {"location": {"city": null, "state": "GA", "country": "United States"}}}}]}, "standing": {"placement": 2, "stats": {"score": {"value": -1}}}}, {"id": "91758387-1", "entrant": {"id": 20782102, "name": "Tim", "participants": [{"id": 19126082, "gamerTag": "Tim", "prefix": "", "user": null, "player": {"id": 4888205, "gamerTag": "Tim", "prefix": "", "user": null}}]}, "standing": {"placement": 1, "stats": {"score": {"value": null}}}}], "games": null}, {"id": 91758388, "state": 3, "round": 1, "fullRoundText": "Winners Round 1", "completedAt": 1753320153, "winnerId": 20763115, "slots": [{"id": "91758388-0", "entrant": {"id": 20763115, "name": "Buddy3k", "participants": [{"id": 19108661, "gamerTag": "Buddy3k", "prefix": "", "user": {"location": {"city": "Atlanta", "state": "GA", "country": "United States"}}, "player": {"id": 4443794, "gamerTag": "Buddy3k", "prefix": "", "user": {"location": {"city": "Atlanta", "state": "GA", "country": "United States"}}}}]}, "standing": {"placement": 1, "stats": {"score": {"value": 2}}}}, {"id": "91758388-1", "entrant": {"id": 20777034, "name": "Sneakem | AK", "participants": [{"id": 19121137, "gamerTag": "AK", "prefix": "Sneakem", "user": {"location": {"city": "Atl", "state": "GA", "country": "United States"}}, "player": {"id": 4887226, "gamerTag": "AK", "prefix": "Sneakem", "user": {"location": {"city": "Atl", "state": "GA", "country": "United States"}}}}]}, "standing": {"placement": 2, "stats": {"score": {"value": 0}}}}], "games": null}, {"id": 91758389, "state": 3, "round": 1, "fullRoundText": "Winners Round 1", "completedAt": 1753321477, "winnerId": 20755491, "slots": [{"id": "91758389-0", "entrant": {"id": 20755491, "name": "4o4 | KhalRhaego", "participants": [{"id": 19101146, "gamerTag": "KhalRhaego", "prefix": "4o4", "user": {"location": {"city": "Jonesboro", "state": "GA", "country": "United States"}}, "player": {"id": 4076327, "gamerTag": "KhalRhaego", "prefix": "BOLT", "user": {"location": {"city": "Jonesboro", "state": "GA", "country": "United States"}}}}]}, "standing": {"placement": 1, "stats": {"score": {"value": 2}}}}, {"id": "91758389-1", "entrant": {"id": 20782445, "name": "DevilofdaDynasty", "participants": [{"id": 19126338, "gamerTag": "DevilofdaDynasty", "prefix": "", "user": null, "player": {"id": 4888320, "gamerTag": "DevilofdaDynasty", "prefix": "", "user": null}}]}, "standing": {"placement": 2, "stats": {"score": {"value": 0}}}}], "games": null}, {"id": 91758390, "state": 3, "round": 1, "fullRoundText": "Winners Round 1", "completedAt": 1753320878, "winnerId": 20782146, "slots": [{"id": "91758390-0", "entrant": {"id": 20696196, "name": "Nurikami", "participants": [{"id": 19048321, "gamerTag": "Nurikami", "prefix": null, "user": {"location": {"city": "Sandy Springs", "state": "GA", "country": "United States"}}, "player": {"id": 2894467, "gamerTag": "Nurikami", "prefix": null, "user": {"location": {"city": "Sandy Springs", "state": "GA", "country": "United States"}}}}]}, "standing": {"placement": 2, "stats": {"score": {"value": 1}}}}, {"id": "91758390-1", "entrant": {"id": 20782146, "name": "Free | Sereni", "participants": [{"id": 19126113, "gamerTag": "Sereni", "prefix": "Free", "user": {"location": {"city": null, "state": null, "country": "United States"}}, "player": {"id": 482535, "gamerTag": "Sereni", "prefix": "Free", "user": {"location": {"city": null, "state": null, "country": "United States"}}}}]}, "standing": {"placement": 1, "stats": {"score": {"value": 2}}}}], "games": null}, {"id": 91758391, "state": 3, "round": 1, "fullRoundText": "Winners Round 1", "completedAt": 1753321046, "winnerId": 20747432, "slots": [{"id": "91758391-0", "entrant": {"id": 20747432, "name": "juice", "participants": [{"id": 19093162, "gamerTag": "juice", "prefix": "", "user": {"location": {"city": "atlanta", "state": "GA", "country": "United States"}}, "player": {"id": 146905, "gamerTag": "juice", "prefix": "100%", "user": {"location": {"city": "atlanta", "state": "GA", "country": "United States"}}}}]}, "standing": {"placement": 1, "stats": {"score": {"value": 2}}}}, {"id": "91758391-1", "entrant": {"id": 20782379, "name": "assclapFGC", "participants": [{"id": 19126284, "gamerTag": "assclapFGC", "prefix": "", "user": {"location": {"city": "Scottdale", "state": "GA", "country": "United States"}}, "player": {"id": 3481864, "gamerTag": "assclapFGC", "prefix": "", "user": {"location": {"city": "Scottdale", "state": "GA", "country": "United States"}}}}]}, "standing": {"placement": 2, "stats": {"score": {"value": 0}}}}], "games": null}, {"id": 91758392, "state": 3, "round": 1, "fullRoundText": "Winners Round 1", "completedAt": 1753320971, "winnerId": 20782106, "slots": [{"id": "91758392-0", "entrant": {"id": 20766373, "name": "Spiral", "participants": [{"id": 19111652, "gamerTag": "Spiral", "prefix": "", "user": {"location": {"city": "LITHONIA", "state": "GA", "country": "United States"}}, "player": {"id": 957192, "gamerTag": "Spiral", "prefix": "", "user": {"location": {"city": "LITHONIA", "state": "GA", "country": "United States"}}}}]}, "standing": {"placement": 2, "stats": {"score": {"value": -1}}}}, {"id": "91758392-1", "entrant": {"id": 20782106, "name": "RM | WFF | Sakruoi", "participants": [{"id": 19126085, "gamerTag": "Sakruoi", "prefix": "RM | WFF", "user": {"location": {"city": "atlanta", "state": "GA", "country": "United States"}}, "player": {"id": 1230555, "gamerTag": "Sakruoi", "prefix": "RM | WFF", "user": {"location": {"city": "atlanta", "state": "GA", "country": "United States"}}}}]}, "standing": {"placement": 1, "stats": {"score": {"value": 0}}}}], "games": null}]}}}