{"phase": {"seeds": {"pageInfo": {"totalPages": 1, "total": 9}, "nodes": [{"id": 36776708, "seedNum": 1, "entrant": {"id": 21377948, "name": "ATLRiot", "participants": [{"id": 19651791, "gamerTag": "ATLRiot", "prefix": "", "user": {"location": {"city": "Augusta", "state": "GA", "country": "United States"}}, "player": {"id": 2057913, "gamerTag": "ATLRiot", "prefix": "", "user": {"location": {"city": "Augusta", "state": "GA", "country": "United States"}}}}]}}, {"id": 36812491, "seedNum": 3, "entrant": {"id": 21403405, "name": "TMNS | Shiki Senpai", "participants": [{"id": 19673342, "gamerTag": "Shiki Senpai", "prefix": "TMNS", "user": {"location": {"city": null, "state": "GA", "country": "United States"}}, "player": {"id": 2254075, "gamerTag": "Shiki Senpai", "prefix": "TMNS", "user": {"location": {"city": null, "state": "GA", "country": "United States"}}}}]}}, {"id": 36912158, "seedNum": 5, "entrant": {"id": 21471436, "name": "Spooky Booty Arts", "participants": [{"id": 19731996, "gamerTag": "Spooky Booty Arts", "prefix": null, "user": null, "player": {"id": 5006874, "gamerTag": "Spooky Booty Arts", "prefix": null, "user": null}}]}}, {"id": 36902387, "seedNum": 2, "entrant": {"id": 21464560, "name": "Se.T! | GioGiost", "participants": [{"id": 19726427, "gamerTag": "GioGiost", "prefix": "Se.T!", "user": {"location": {"city": null, "state": null, "country": null}}, "player": {"id": 2221369, "gamerTag": "GioGiost", "prefix": "Se.T!", "user": {"location": {"city": null, "state": null, "country": null}}}}]}}, {"id": 36793476, "seedNum": 7, "entrant": {"id": 21389473, "name": "Yamcha157", "participants": [{"id": 19661817, "gamerTag": "Yamcha157", "prefix": null, "user": {"location": {"city": null, "state": null, "country": null}}, "player": {"id": 3440866, "gamerTag": "Yamcha157", "prefix": null, "user": {"location": {"city": null, "state": null, "country": null}}}}]}}, {"id": 36912900, "seedNum": 9, "entrant": {"id": 21472025, "name": "PCV305", "participants": [{"id": 19732441, "gamerTag": "PCV305", "prefix": null, "user": {"location": {"city": "Augusta", "state": "GA", "country": "United States"}}, "player": {"id": 4327979, "gamerTag": "PCV305", "prefix": null, "user": {"location": {"city": "Augusta", "state": "GA", "country": "United States"}}}}]}}, {"id": 36912041, "seedNum": 4, "entrant": {"id": 21471378, "name": "LTS | Akane", "participants": [{"id": 19731951, "gamerTag": "Akane", "prefix": "LTS", "user": {"location": {"city": "Martinez", "state": "GA", "country": "United States"}}, "player": {"id": 1082873, "gamerTag": "Akane", "prefix": "LTS", "user": {"location": {"city": "Martinez", "state": "GA", "country": "United States"}}}}]}}, {"id": 36908367, "seedNum": 6, "entrant": {"id": 21469213, "name": "Amatsumara", "participants": [{"id": 19730090, "gamerTag": "Amatsumara", "prefix": "", "user": {"location": {"city": null, "state": null, "country": "United States"}}, "player": {"id": 3592419, "gamerTag": "Amatsumara", "prefix": "", "user": {"location": {"city": null, "state": null, "country": "United States"}}}}]}}, {"id": 36912535, "seedNum": 8, "entrant": {"id": 21471794, "name": "cheddarcola", "participants": [{"id": 19732245, "gamerTag": "cheddarcola", "prefix": null, "user": {"location": {"city": null, "state": null, "country": "United States"}}, "player": {"id": 4724537, "gamerTag": "cheddarcola", "prefix": null, "user": {"location": {"city": null, "state": null, "country": "United States"}}}}]}}]}}}