{"event": {"sets": {"pageInfo": {"totalPages": 3, "total": 34}, "nodes": [{"id": 92799874, "state": 3, "round": 6, "fullRoundText": "Grand Final", "completedAt": 1755479091, "winnerId": 20996400, "slots": [{"id": "92799874-0", "entrant": {"id": 20996400, "name": "Colbol", "participants": [{"id": 19314450, "gamerTag": "Colbol", "prefix": "", "user": {"location": {"city": "Tucker", "state": "GA", "country": "United States"}}, "player": {"id": 1009, "gamerTag": "Colbol", "prefix": "", "user": {"location": {"city": "Tucker", "state": "GA", "country": "United States"}}}}]}, "standing": {"placement": 1, "stats": {"score": {"value": 3}}}}, {"id": "92799874-1", "entrant": {"id": 20997283, "name": "swaggerbee", "participants": [{"id": 19315175, "gamerTag": "swaggerbee", "prefix": "", "user": {"location": {"city": "Atlanta", "state": "GA", "country": "United States"}}, "player": {"id": 1687384, "gamerTag": "swaggerbee", "prefix": "", "user": {"location": {"city": "Atlanta", "state": "GA", "country": "United States"}}}}]}, "standing": {"placement": 2, "stats": {"score": {"value": 2}}}}], "games": null}, {"id": 92799873, "state": 3, "round": 5, "fullRoundText": "Winners Final", "completedAt": 1755474369, "winnerId": 20996400, "slots": [{"id": "92799873-0", "entrant": {"id": 20996400, "name": "Colbol", "participants": [{"id": 19314450, "gamerTag": "Colbol", "prefix": "", "user": {"location": {"city": "Tucker", "state": "GA", "country": "United States"}}, "player": {"id": 1009, "gamerTag": "Colbol", "prefix": "", "user": {"location": {"city": "Tucker", "state": "GA", "country": "United States"}}}}]}, "standing": {"placement": 1, "stats": {"score": {"value": 3}}}}, {"id": "92799873-1", "entrant": {"id": 20995501, "name": "skyguy | Chris Danger", "participants": [{"id": 19313629, "gamerTag": "Chris Danger", "prefix": "skyguy", "user": {"location": {"city": "Atlanta", "state": "GA", "country": "United States"}}, "player": {"id": 2808268, "gamerTag": "Chris Danger", "prefix": "skyguy", "user": {"location": {"city": "Atlanta", "state": "GA", "country": "United States"}}}}]}, "standing": {"placement": 2, "stats": {"score": {"value": 0}}}}], "games": null}, {"id": 92799937, "state": 3, "round": -10, "fullRoundText": "Losers Final", "completedAt": 1755477229, "winnerId": 20997283, "slots": [{"id": "92799937-0", "entrant": {"id": 20995501, "name": "skyguy | Chris Danger", "participants": [{"id": 19313629, "gamerTag": "Chris Danger", "prefix": "skyguy", "user": {"location": {"city": "Atlanta", "state": "GA", "country": "United States"}}, "player": {"id": 2808268, "gamerTag": "Chris Danger", "prefix": "skyguy", "user": {"location": {"city": "Atlanta", "state": "GA", "country": "United States"}}}}]}, "standing": {"placement": 2, "stats": {"score": {"value": 0}}}}, {"id": "92799937-1", "entrant": {"id": 20997283, "name": "swaggerbee", "participants": [{"id": 19315175, "gamerTag": "swaggerbee", "prefix": "", "user": {"location": {"city": "Atlanta", "state": "GA", "country": "United States"}}, "player": {"id": 1687384, "gamerTag": "swaggerbee", "prefix": "", "user": {"location": {"city": "Atlanta", "state": "GA", "country": "United States"}}}}]}, "standing": {"placement": 1, "stats": {"score": {"value": 3}}}}], "games": null}, {"id": 92799936, "state": 3, "round": -9, "fullRoundText": "Losers Semi-Final", "completedAt": 1755477215, "winnerId": 20997283, "slots": [{"id": "92799936-0", "entrant": {"id": 20995520, "name": "skyguy | bag", "participants": [{"id": 19313650, "gamerTag": "bag", "prefix": "skyguy", "user": {"location": {"city": "Atlanta", "state": "GA", "country": "United States"}}, "player": {"id": 271346, "gamerTag": "bag", "prefix": "skyguy", "user": {"location": {"city": "Atlanta", "state": "GA", "country": "United States"}}}}]}, "standing": {"placement": 2, "stats": {"score": {"value": 2}}}}, {"id": "92799936-1", "entrant": {"id": 20997283, "name": "swaggerbee", "participants": [{"id": 19315175, "gamerTag": "swaggerbee", "prefix": "", "user": {"location": {"city": "Atlanta", "state": "GA", "country": "United States"}}, "player": {"id": 1687384, "gamerTag": "swaggerbee", "prefix": "", "user": {"location": {"city": "Atlanta", "state": "GA", "country": "United States"}}}}]}, "standing": {"placement": 1, "stats": {"score": {"value": 3}}}}], "games": null}, {"id": 92799871, "state": 3, "round": 4, "fullRoundText": "Winners Semi-Final", "completedAt": 1755471226, "winnerId": 20996400, "slots": [{"id": "92799871-0", "entrant": {"id": 20996400, "name": "Colbol", "participants": [{"id": 19314450, "gamerTag": "Colbol", "prefix": "", "user": {"location": {"city": "Tucker", "state": "GA", "country": "United States"}}, "player": {"id": 1009, "gamerTag": "Colbol", "prefix": "", "user": {"location": {"city": "Tucker", "state": "GA", "country": "United States"}}}}]}, "standing": {"placement": 1, "stats": {"score": {"value": 3}}}}, {"id": "92799871-1", "entrant": {"id": 20997283, "name": "swaggerbee", "participants": [{"id": 19315175, "gamerTag": "swaggerbee", "prefix": "", "user": {"location": {"city": "Atlanta", "state": "GA", "country": "United States"}}, "player": {"id": 1687384, "gamerTag": "swaggerbee", "prefix": "", "user": {"location": {"city": "Atlanta", "state": "GA", "country": "United States"}}}}]}, "standing": {"placement": 2, "stats": {"score": {"value": 2}}}}], "games": null}, {"id": 92799872, "state": 3, "round": 4, "fullRoundText": "Winners Semi-Final", "completedAt": 1755472834, "winnerId": 20995501, "slots": [{"id": "92799872-0", "entrant": {"id": 20995501, "name": "skyguy | Chris Danger", "participants": [{"id": 19313629, "gamerTag": "Chris Danger", "prefix": "skyguy", "user": {"location": {"city": "Atlanta", "state": "GA", "country": "United States"}}, "player": {"id": 2808268, "gamerTag": "Chris Danger", "prefix": "skyguy", "user": {"location": {"city": "Atlanta", "state": "GA", "country": "United States"}}}}]}, "standing": {"placement": 1, "stats": {"score": {"value": 3}}}}, {"id": "92799872-1", "entrant": {"id": 20995520, "name": "skyguy | bag", "participants": [{"id": 19313650, "gamerTag": "bag", "prefix": "skyguy", "user": {"location": {"city": "Atlanta", "state": "GA", "country": "United States"}}, "player": {"id": 271346, "gamerTag": "bag", "prefix": "skyguy", "user": {"location": {"city": "Atlanta", "state": "GA", "country": "United States"}}}}]}, "standing": {"placement": 2, "stats": {"score": {"value": 2}}}}], "games": null}, {"id": 92799934, "state": 3, "round": -8, "fullRoundText": "Losers Quarter-Final", "completedAt": 1755474392, "winnerId": 20995520, "slots": [{"id": "92799934-0", "entrant": {"id": 20995520, "name": "skyguy | bag", "participants": [{"id": 19313650, "gamerTag": "bag", "prefix": "skyguy", "user": {"location": {"city": "Atlanta", "state": "GA", "country": "United States"}}, "player": {"id": 271346, "gamerTag": "bag", "prefix": "skyguy", "user": {"location": {"city": "Atlanta", "state": "GA", "country": "United States"}}}}]}, "standing": {"placement": 1, "stats": {"score": {"value": 3}}}}, {"id": "92799934-1", "entrant": {"id": 20996378, "name": "Supersponge", "participants": [{"id": 19314430, "gamerTag": "Supersponge", "prefix": "", "user": {"location": {"city": "Greenville", "state": "SC", "country": "United States"}}, "player": {"id": 11208, "gamerTag": "Supersponge", "prefix": "", "user": {"location": {"city": "Greenville", "state": "SC", "country": "United States"}}}}]}, "standing": {"placement": 2, "stats": {"score": {"value": 2}}}}], "games": null}, {"id": 92799935, "state": 3, "round": -8, "fullRoundText": "Losers Quarter-Final", "completedAt": 1755473554, "winnerId": 20997283, "slots": [{"id": "92799935-0", "entrant": {"id": 20997283, "name": "swaggerbee", "participants": [{"id": 19315175, "gamerTag": "swaggerbee", "prefix": "", "user": {"location": {"city": "Atlanta", "state": "GA", "country": "United States"}}, "player": {"id": 1687384, "gamerTag": "swaggerbee", "prefix": "", "user": {"location": {"city": "Atlanta", "state": "GA", "country": "United States"}}}}]}, "standing": {"placement": 1, "stats": {"score": {"value": 3}}}}, {"id": "92799935-1", "entrant": {"id": 20994645, "name": "vivesthesia", "participants": [{"id": 19312852, "gamerTag": "vivesthesia", "prefix": null, "user": {"location": {"city": "Atlanta", "state": "GA", "country": "United States"}}, "player": {"id": 4395171, "gamerTag": "vivesthesia", "prefix": null, "user": {"location": {"city": "Atlanta", "state": "GA", "country": "United States"}}}}]}, "standing": {"placement": 2, "stats": {"score": {"value": 1}}}}], "games": null}, {"id": 92799932, "state": 3, "round": -7, "fullRoundText": "Losers Round 4", "completedAt": 1755473089, "winnerId": 20996378, "slots": [{"id": "92799932-0", "entrant": {"id": 20996378, "name": "Supersponge", "participants": [{"id": 19314430, "gamerTag": "Supersponge", "prefix": "", "user": {"location": {"city": "Greenville", "state": "SC", "country": "United States"}}, "player": {"id": 11208, "gamerTag": "Supersponge", "prefix": "", "user": {"location": {"city": "Greenville", "state": "SC", "country": "United States"}}}}]}, "standing": {"placement": 1, "stats": {"score": {"value": 3}}}}, {"id": "92799932-1", "entrant": {"id": 20994992, "name": "Karan", "participants": [{"id": 19313164, "gamerTag": "Karan", "prefix": "", "user": {"location": {"city": "Atlanta", "state": "GA", "country": "United States"}}, "player": {"id": 35472, "gamerTag": "Karan", "prefix": "", "user": {"location": {"city": "Atlanta", "state": "GA", "country": "United States"}}}}]}, "standing": {"placement": 2, "stats": {"score": {"value": 1}}}}], "games": null}, {"id": 92799933, "state": 3, "round": -7, "fullRoundText": "Losers Round 4", "completedAt": 1755472076, "winnerId": 20994645, "slots": [{"id": "92799933-0", "entrant": {"id": 20995481, "name": "TEAM FISH | GI0GOAT", "participants": [{"id": 19313608, "gamerTag": "GI0GOAT", "prefix": "TEAM FISH", "user": {"location": {"city": "Elmwood Park", "state": "IL", "country": "United States"}}, "player": {"id": 153434, "gamerTag": "GI0GOAT", "prefix": "TEAM FISH", "user": {"location": {"city": "Elmwood Park", "state": "IL", "country": "United States"}}}}]}, "standing": {"placement": 2, "stats": {"score": {"value": -1}}}}, {"id": "92799933-1", "entrant": {"id": 20994645, "name": "vivesthesia", "participants": [{"id": 19312852, "gamerTag": "vivesthesia", "prefix": null, "user": {"location": {"city": "Atlanta", "state": "GA", "country": "United States"}}, "player": {"id": 4395171, "gamerTag": "vivesthesia", "prefix": null, "user": {"location": {"city": "Atlanta", "state": "GA", "country": "United States"}}}}]}, "standing": {"placement": 1, "stats": {"score": {"value": null}}}}], "games": null}, {"id": 92799867, "state": 3, "round": 3, "fullRoundText": "Winners Quarter-Final", "completedAt": 1755469925, "winnerId": 20996400, "slots": [{"id": "92799867-0", "entrant": {"id": 20996400, "name": "Colbol", "participants": [{"id": 19314450, "gamerTag": "Colbol", "prefix": "", "user": {"location": {"city": "Tucker", "state": "GA", "country": "United States"}}, "player": {"id": 1009, "gamerTag": "Colbol", "prefix": "", "user": {"location": {"city": "Tucker", "state": "GA", "country": "United States"}}}}]}, "standing": {"placement": 1, "stats": {"score": {"value": 3}}}}, {"id": "92799867-1", "entrant": {"id": 20994992, "name": "Karan", "participants": [{"id": 19313164, "gamerTag": "Karan", "prefix": "", "user": {"location": {"city": "Atlanta", "state": "GA", "country": "United States"}}, "player": {"id": 35472, "gamerTag": "Karan", "prefix": "", "user": {"location": {"city": "Atlanta", "state": "GA", "country": "United States"}}}}]}, "standing": {"placement": 2, "stats": {"score": {"value": 2}}}}], "games": null}, {"id": 92799868, "state": 3, "round": 3, "fullRoundText": "Winners Quarter-Final", "completedAt": 1755469056, "winnerId": 20997283, "slots": [{"id": "92799868-0", "entrant": {"id": 20997283, "name": "swaggerbee", "participants": [{"id": 19315175, "gamerTag": "swaggerbee", "prefix": "", "user": {"location": {"city": "Atlanta", "state": "GA", "country": "United States"}}, "player": {"id": 1687384, "gamerTag": "swaggerbee", "prefix": "", "user": {"location": {"city": "Atlanta", "state": "GA", "country": "United States"}}}}]}, "standing": {"placement": 1, "stats": {"score": {"value": 3}}}}, {"id": "92799868-1", "entrant": {"id": 20996378, "name": "Supersponge", "participants": [{"id": 19314430, "gamerTag": "Supersponge", "prefix": "", "user": {"location": {"city": "Greenville", "state": "SC", "country": "United States"}}, "player": {"id": 11208, "gamerTag": "Supersponge", "prefix": "", "user": {"location": {"city": "Greenville", "state": "SC", "country": "United States"}}}}]}, "standing": {"placement": 2, "stats": {"score": {"value": 0}}}}], "games": null}, {"id": 92799869, "state": 3, "round": 3, "fullRoundText": "Winners Quarter-Final", "completedAt": 1755471305, "winnerId": 20995501, "slots": [{"id": "92799869-0", "entrant": {"id": 20994645, "name": "vivesthesia", "participants": [{"id": 19312852, "gamerTag": "vivesthesia", "prefix": null, "user": {"location": {"city": "Atlanta", "state": "GA", "country": "United States"}}, "player": {"id": 4395171, "gamerTag": "vivesthesia", "prefix": null, "user": {"location": {"city": "Atlanta", "state": "GA", "country": "United States"}}}}]}, "standing": {"placement": 2, "stats": {"score": {"value": 0}}}}, {"id": "92799869-1", "entrant": {"id": 20995501, "name": "skyguy | Chris Danger", "participants": [{"id": 19313629, "gamerTag": "Chris Danger", "prefix": "skyguy", "user": {"location": {"city": "Atlanta", "state": "GA", "country": "United States"}}, "player": {"id": 2808268, "gamerTag": "Chris Danger", "prefix": "skyguy", "user": {"location": {"city": "Atlanta", "state": "GA", "country": "United States"}}}}]}, "standing": {"placement": 1, "stats": {"score": {"value": 3}}}}], "games": null}, {"id": 92799870, "state": 3, "round": 3, "fullRoundText": "Winners Quarter-Final", "completedAt": 1755469673, "winnerId": 20995520, "slots": [{"id": "92799870-0", "entrant": {"id": 20995481, "name": "TEAM FISH | GI0GOAT", "participants": [{"id": 19313608, "gamerTag": "GI0GOAT", "prefix": "TEAM FISH", "user": {"location": {"city": "Elmwood Park", "state": "IL", "country": "United States"}}, "player": {"id": 153434, "gamerTag": "GI0GOAT", "prefix": "TEAM FISH", "user": {"location": {"city": "Elmwood Park", "state": "IL", "country": "United States"}}}}]}, "standing": {"placement": 2, "stats": {"score": {"value": 1}}}}, {"id": "92799870-1", "entrant": {"id": 20995520, "name": "skyguy | bag", "participants": [{"id": 19313650, "gamerTag": "bag", "prefix": "skyguy", "user": {"location": {"city": "Atlanta", "state": "GA", "country": "United States"}}, "player": {"id": 271346, "gamerTag": "bag", "prefix": "skyguy", "user": {"location": {"city": "Atlanta", "state": "GA", "country": "United States"}}}}]}, "standing": {"placement": 1, "stats": {"score": {"value": 3}}}}], "games": null}, {"id": 92799929, "state": 3, "round": -6, "fullRoundText": "Losers Round 3", "completedAt": 1755472296, "winnerId": 20994992, "slots": [{"id": "92799929-0", "entrant": {"id": 20994992, "name": "Karan", "participants": [{"id": 19313164, "gamerTag": "Karan", "prefix": "", "user": {"location": {"city": "Atlanta", "state": "GA", "country": "United States"}}, "player": {"id": 35472, "gamerTag": "Karan", "prefix": "", "user": {"location": {"city": "Atlanta", "state": "GA", "country": "United States"}}}}]}, "standing": {"placement": 1, "stats": {"score": {"value": 3}}}}, {"id": "92799929-1", "entrant": {"id": 20996878, "name": "EnergySword", "participants": [{"id": 19314836, "gamerTag": "EnergySword", "prefix": "", "user": null, "player": {"id": 4928521, "gamerTag": "EnergySword", "prefix": "", "user": null}}]}, "standing": {"placement": 2, "stats": {"score": {"value": 2}}}}], "games": null}]}}}