{"event": {"sets": {"pageInfo": {"totalPages": 3, "total": 40}, "nodes": [{"id": 92855832, "state": 3, "round": -4, "fullRoundText": "Losers Round 1", "completedAt": 1755650691, "winnerId": 21012367, "slots": [{"id": "92855832-0", "entrant": {"id": 21012367, "name": "Noodle", "participants": [{"id": 19329386, "gamerTag": "Noodle", "prefix": null, "user": {"location": {"city": "McDonough", "state": "GA", "country": "United States"}}, "player": {"id": 3029288, "gamerTag": "Noodle", "prefix": "", "user": {"location": {"city": "McDonough", "state": "GA", "country": "United States"}}}}]}, "standing": {"placement": 1, "stats": {"score": {"value": 3}}}}, {"id": "92855832-1", "entrant": {"id": 21015636, "name": "Xangief", "participants": [{"id": 19332302, "gamerTag": "Xangief", "prefix": null, "user": {"location": {"city": "Atlanta", "state": "GA", "country": "United States"}}, "player": {"id": 135082, "gamerTag": "Xangief", "prefix": null, "user": {"location": {"city": "Atlanta", "state": "GA", "country": "United States"}}}}]}, "standing": {"placement": 2, "stats": {"score": {"value": 0}}}}], "games": null}, {"id": 92855826, "state": 3, "round": -4, "fullRoundText": "Losers Round 1", "completedAt": 1755651022, "winnerId": 21015175, "slots": [{"id": "92855826-0", "entrant": {"id": 21015175, "name": "4o4 | Yugo", "participants": [{"id": 19331889, "gamerTag": "Yugo", "prefix": "4o4", "user": {"location": {"city": "Sandy springs", "state": "GA", "country": "United States"}}, "player": {"id": 338020, "gamerTag": "Yugo", "prefix": "4o4", "user": {"location": {"city": "Sandy springs", "state": "GA", "country": "United States"}}}}]}, "standing": {"placement": 1, "stats": {"score": {"value": 3}}}}, {"id": "92855826-1", "entrant": {"id": 21015610, "name": "Pazure", "participants": [{"id": 19332279, "gamerTag": "Pazure", "prefix": null, "user": {"location": {"city": null, "state": null, "country": "United States"}}, "player": {"id": 72218, "gamerTag": "Pazure", "prefix": null, "user": {"location": {"city": null, "state": null, "country": "United States"}}}}]}, "standing": {"placement": 2, "stats": {"score": {"value": 0}}}}], "games": null}, {"id": 92855828, "state": 3, "round": -4, "fullRoundText": "Losers Round 1", "completedAt": 1755651081, "winnerId": 21015354, "slots": [{"id": "92855828-0", "entrant": {"id": 21014610, "name": "Archway", "participants": [{"id": 19331370, "gamerTag": "Archway", "prefix": "", "user": {"location": {"city": "Sandy Springs", "state": "GA", "country": "United States"}}, "player": {"id": 1435251, "gamerTag": "Archway", "prefix": "", "user": {"location": {"city": "Sandy Springs", "state": "GA", "country": "United States"}}}}]}, "standing": {"placement": 2, "stats": {"score": {"value": 2}}}}, {"id": "92855828-1", "entrant": {"id": 21015354, "name": "MBossProductions", "participants": [{"id": 19332048, "gamerTag": "MBossProductions", "prefix": "", "user": {"location": {"city": "Norcross", "state": "GA", "country": "United States"}}, "player": {"id": 1997490, "gamerTag": "MBossProductions", "prefix": "", "user": {"location": {"city": "Norcross", "state": "GA", "country": "United States"}}}}]}, "standing": {"placement": 1, "stats": {"score": {"value": 3}}}}], "games": null}, {"id": 92855829, "state": 3, "round": -4, "fullRoundText": "Losers Round 1", "completedAt": 1755649937, "winnerId": 21015890, "slots": [{"id": "92855829-0", "entrant": {"id": 21015043, "name": "Buddylikefriend", "participants": [{"id": 19331765, "gamerTag": "Buddylikefriend", "prefix": null, "user": {"location": {"city": "Atlanta", "state": "GA", "country": "United States"}}, "player": {"id": 785557, "gamerTag": "Buddylikefriend", "prefix": null, "user": {"location": {"city": "Atlanta", "state": "GA", "country": "United States"}}}}]}, "standing": {"placement": 2, "stats": {"score": {"value": -1}}}}, {"id": "92855829-1", "entrant": {"id": 21015890, "name": "Barky", "participants": [{"id": 19332539, "gamerTag": "Barky", "prefix": null, "user": {"location": {"city": "Orlando", "state": "FL", "country": "United States"}}, "player": {"id": 1460695, "gamerTag": "Barky", "prefix": null, "user": {"location": {"city": "Orlando", "state": "FL", "country": "United States"}}}}]}, "standing": {"placement": 1, "stats": {"score": {"value": null}}}}], "games": null}, {"id": 92855830, "state": 3, "round": -4, "fullRoundText": "Losers Round 1", "completedAt": 1755650703, "winnerId": 21014660, "slots": [{"id": "92855830-0", "entrant": {"id": 21014660, "name": "4o4 | KhalRhaego", "participants": [{"id": 19331416, "gamerTag": "KhalRhaego", "prefix": "4o4", "user": {"location": {"city": "Jonesboro", "state": "GA", "country": "United States"}}, "player": {"id": 4076327, "gamerTag": "KhalRhaego", "prefix": "BOLT", "user": {"location": {"city": "Jonesboro", "state": "GA", "country": "United States"}}}}]}, "standing": {"placement": 1, "stats": {"score": {"value": null}}}}, {"id": "92855830-1", "entrant": {"id": 21012292, "name": "smelrod", "participants": [{"id": 19329317, "gamerTag": "smelrod", "prefix": null, "user": {"location": {"city": "Atlanta", "state": "GA", "country": "United States"}}, "player": {"id": 2374126, "gamerTag": "smelrod", "prefix": "", "user": {"location": {"city": "Atlanta", "state": "GA", "country": "United States"}}}}]}, "standing": {"placement": 2, "stats": {"score": {"value": -1}}}}], "games": null}, {"id": 92855754, "state": 3, "round": 1, "fullRoundText": "Winners Round 1", "completedAt": 1755649939, "winnerId": 21015205, "slots": [{"id": "92855754-0", "entrant": {"id": 21015610, "name": "Pazure", "participants": [{"id": 19332279, "gamerTag": "Pazure", "prefix": null, "user": {"location": {"city": null, "state": null, "country": "United States"}}, "player": {"id": 72218, "gamerTag": "Pazure", "prefix": null, "user": {"location": {"city": null, "state": null, "country": "United States"}}}}]}, "standing": {"placement": 2, "stats": {"score": {"value": 1}}}}, {"id": "92855754-1", "entrant": {"id": 21015205, "name": "stylesK", "participants": [{"id": 19331916, "gamerTag": "stylesK", "prefix": "", "user": {"location": {"city": "Sandy Springs", "state": "GA", "country": "United States"}}, "player": {"id": 3475419, "gamerTag": "stylesK", "prefix": "", "user": {"location": {"city": "Sandy Springs", "state": "GA", "country": "United States"}}}}]}, "standing": {"placement": 1, "stats": {"score": {"value": 3}}}}], "games": null}, {"id": 92855758, "state": 3, "round": 1, "fullRoundText": "Winners Round 1", "completedAt": 1755650075, "winnerId": 21015833, "slots": [{"id": "92855758-0", "entrant": {"id": 21015354, "name": "MBossProductions", "participants": [{"id": 19332048, "gamerTag": "MBossProductions", "prefix": "", "user": {"location": {"city": "Norcross", "state": "GA", "country": "United States"}}, "player": {"id": 1997490, "gamerTag": "MBossProductions", "prefix": "", "user": {"location": {"city": "Norcross", "state": "GA", "country": "United States"}}}}]}, "standing": {"placement": 2, "stats": {"score": {"value": 2}}}}, {"id": "92855758-1", "entrant": {"id": 21015833, "name": "Leon Nights", "participants": [{"id": 19332486, "gamerTag": "Leon Nights", "prefix": null, "user": {"location": {"city": "Atlanta", "state": "GA", "country": "United States"}}, "player": {"id": 4752335, "gamerTag": "Leon Nights", "prefix": null, "user": {"location": {"city": "Atlanta", "state": "GA", "country": "United States"}}}}]}, "standing": {"placement": 1, "stats": {"score": {"value": 3}}}}], "games": null}, {"id": 92855760, "state": 3, "round": 1, "fullRoundText": "Winners Round 1", "completedAt": 1755649551, "winnerId": 21014660, "slots": [{"id": "92855760-0", "entrant": {"id": 21014660, "name": "4o4 | KhalRhaego", "participants": [{"id": 19331416, "gamerTag": "KhalRhaego", "prefix": "4o4", "user": {"location": {"city": "Jonesboro", "state": "GA", "country": "United States"}}, "player": {"id": 4076327, "gamerTag": "KhalRhaego", "prefix": "BOLT", "user": {"location": {"city": "Jonesboro", "state": "GA", "country": "United States"}}}}]}, "standing": {"placement": 1, "stats": {"score": {"value": 3}}}}, {"id": "92855760-1", "entrant": {"id": 21015890, "name": "Barky", "participants": [{"id": 19332539, "gamerTag": "Barky", "prefix": null, "user": {"location": {"city": "Orlando", "state": "FL", "country": "United States"}}, "player": {"id": 1460695, "gamerTag": "Barky", "prefix": null, "user": {"location": {"city": "Orlando", "state": "FL", "country": "United States"}}}}]}, "standing": {"placement": 2, "stats": {"score": {"value": 0}}}}], "games": null}, {"id": 92855762, "state": 3, "round": 1, "fullRoundText": "Winners Round 1", "completedAt": 1755649068, "winnerId": 21014067, "slots": [{"id": "92855762-0", "entrant": {"id": 21014067, "name": "4o4 | CoNavySeal", "participants": [{"id": 19330886, "gamerTag": "CoNavySeal", "prefix": "4o4", "user": {"location": {"city": "Alpharetta", "state": "GA", "country": "United States"}}, "player": {"id": 3818891, "gamerTag": "CoNavySeal", "prefix": "4o4", "user": {"location": {"city": "Alpharetta", "state": "GA", "country": "United States"}}}}]}, "standing": {"placement": 1, "stats": {"score": {"value": null}}}}, {"id": "92855762-1", "entrant": {"id": 21012292, "name": "smelrod", "participants": [{"id": 19329317, "gamerTag": "smelrod", "prefix": null, "user": {"location": {"city": "Atlanta", "state": "GA", "country": "United States"}}, "player": {"id": 2374126, "gamerTag": "smelrod", "prefix": "", "user": {"location": {"city": "Atlanta", "state": "GA", "country": "United States"}}}}]}, "standing": {"placement": 2, "stats": {"score": {"value": -1}}}}], "games": null}, {"id": 92855766, "state": 3, "round": 1, "fullRoundText": "Winners Round 1", "completedAt": 1755649946, "winnerId": 21015020, "slots": [{"id": "92855766-0", "entrant": {"id": 21015020, "name": "CptSilverRaider", "participants": [{"id": 19331742, "gamerTag": "CptSilverRaider", "prefix": "", "user": {"location": {"city": "Atlanta", "state": "GA", "country": "United States"}}, "player": {"id": 4931134, "gamerTag": "CptSilverRaider", "prefix": "", "user": {"location": {"city": "Atlanta", "state": "GA", "country": "United States"}}}}]}, "standing": {"placement": 1, "stats": {"score": {"value": 3}}}}, {"id": "92855766-1", "entrant": {"id": 21015636, "name": "Xangief", "participants": [{"id": 19332302, "gamerTag": "Xangief", "prefix": null, "user": {"location": {"city": "Atlanta", "state": "GA", "country": "United States"}}, "player": {"id": 135082, "gamerTag": "Xangief", "prefix": null, "user": {"location": {"city": "Atlanta", "state": "GA", "country": "United States"}}}}]}, "standing": {"placement": 2, "stats": {"score": {"value": 1}}}}], "games": null}]}}}