{"event": {"sets": {"pageInfo": {"totalPages": 4, "total": 58}, "nodes": [{"id": 93924449, "state": 3, "round": 1, "fullRoundText": "Winners Round 1", "completedAt": 1757897384, "winnerId": 21269304, "slots": [{"id": "93924449-0", "entrant": {"id": 21269304, "name": "TFT | BigCheese", "participants": [{"id": 19557285, "gamerTag": "BigCheese", "prefix": "TFT", "user": {"location": {"city": null, "state": null, "country": null}}, "player": {"id": 3991446, "gamerTag": "BigCheese", "prefix": "TFT", "user": {"location": {"city": null, "state": null, "country": null}}}}]}, "standing": {"placement": 1, "stats": {"score": {"value": 2}}}}, {"id": "93924449-1", "entrant": {"id": 21268827, "name": "MTM | X", "participants": [{"id": 19556885, "gamerTag": "X", "prefix": "MTM", "user": {"location": {"city": "Sandy Springs", "state": "GA", "country": "United States"}}, "player": {"id": 2650387, "gamerTag": "X", "prefix": "MTM", "user": {"location": {"city": "Sandy Springs", "state": "GA", "country": "United States"}}}}]}, "standing": {"placement": 2, "stats": {"score": {"value": 0}}}}], "games": null}, {"id": 93924117, "state": 3, "round": 1, "fullRoundText": "Winners Round 1", "completedAt": 1757898335, "winnerId": 21269461, "slots": [{"id": "93924117-0", "entrant": {"id": 21269461, "name": "WFF | Happy", "participants": [{"id": 19557420, "gamerTag": "Happy", "prefix": "WFF", "user": {"location": {"city": "Peachtree CIty", "state": "GA", "country": "United States"}}, "player": {"id": 1383907, "gamerTag": "Happy", "prefix": "WFF", "user": {"location": {"city": "Peachtree CIty", "state": "GA", "country": "United States"}}}}]}, "standing": {"placement": 1, "stats": {"score": {"value": 0}}}}, {"id": "93924117-1", "entrant": {"id": 21269446, "name": "Dabaddest", "participants": [{"id": 19557407, "gamerTag": "Dabaddest", "prefix": "", "user": null, "player": {"id": 4152354, "gamerTag": "Dabaddest", "prefix": "", "user": null}}]}, "standing": {"placement": 2, "stats": {"score": {"value": -1}}}}], "games": null}, {"id": 93924450, "state": 3, "round": 1, "fullRoundText": "Winners Round 1", "completedAt": 1757897287, "winnerId": 21269458, "slots": [{"id": "93924450-0", "entrant": {"id": 21269458, "name": "WeFarmFrank | Gorilla Glue", "participants": [{"id": 19557417, "gamerTag": "Gorilla Glue", "prefix": "WeFarmFrank", "user": {"location": {"city": "Atlanta", "state": "GA", "country": "United States"}}, "player": {"id": 1810274, "gamerTag": "Planet Of Da", "prefix": "WeFarmFrank", "user": {"location": {"city": "Atlanta", "state": "GA", "country": "United States"}}}}]}, "standing": {"placement": 1, "stats": {"score": {"value": 2}}}}, {"id": "93924450-1", "entrant": {"id": 21269491, "name": "Pharrow", "participants": [{"id": 19557448, "gamerTag": "Pharrow", "prefix": "", "user": null, "player": {"id": 1108379, "gamerTag": "Pharrow", "prefix": "", "user": null}}]}, "standing": {"placement": 2, "stats": {"score": {"value": 0}}}}], "games": null}, {"id": 93924118, "state": 3, "round": 1, "fullRoundText": "Winners Round 1", "completedAt": 1757896695, "winnerId": 21268664, "slots": [{"id": "93924118-0", "entrant": {"id": 21268664, "name": "Mrbray30", "participants": [{"id": 19556760, "gamerTag": "Mrbray30", "prefix": "", "user": {"location": {"city": "Atlanta", "state": "GA", "country": "United States"}}, "player": {"id": 4664413, "gamerTag": "Mrbray30", "prefix": "", "user": {"location": {"city": "Atlanta", "state": "GA", "country": "United States"}}}}]}, "standing": {"placement": 1, "stats": {"score": {"value": 2}}}}, {"id": "93924118-1", "entrant": {"id": 21269531, "name": "Jahku$ha", "participants": [{"id": 19557476, "gamerTag": "Jahku$ha", "prefix": "", "user": {"location": {"city": "Atlanta", "state": "GA", "country": "United States"}}, "player": {"id": 4559746, "gamerTag": "Jahku$ha", "prefix": "", "user": {"location": {"city": "Atlanta", "state": "GA", "country": "United States"}}}}]}, "standing": {"placement": 2, "stats": {"score": {"value": 0}}}}], "games": null}, {"id": 93924451, "state": 3, "round": 1, "fullRoundText": "Winners Round 1", "completedAt": 1757897576, "winnerId": 21269182, "slots": [{"id": "93924451-0", "entrant": {"id": 21267897, "name": "Nurikami", "participants": [{"id": 19556099, "gamerTag": "Nurikami", "prefix": null, "user": {"location": {"city": "Sandy Springs", "state": "GA", "country": "United States"}}, "player": {"id": 2894467, "gamerTag": "Nurikami", "prefix": null, "user": {"location": {"city": "Sandy Springs", "state": "GA", "country": "United States"}}}}]}, "standing": {"placement": 2, "stats": {"score": {"value": 0}}}}, {"id": "93924451-1", "entrant": {"id": 21269182, "name": "SamRice", "participants": [{"id": 19557183, "gamerTag": "SamRice", "prefix": "", "user": {"location": {"city": "Norcross", "state": "GA", "country": "United States"}}, "player": {"id": 2387403, "gamerTag": "SamRice", "prefix": "", "user": {"location": {"city": "Norcross", "state": "GA", "country": "United States"}}}}]}, "standing": {"placement": 1, "stats": {"score": {"value": 2}}}}], "games": null}, {"id": 93924452, "state": 3, "round": 1, "fullRoundText": "Winners Round 1", "completedAt": 1757898177, "winnerId": 21269469, "slots": [{"id": "93924452-0", "entrant": {"id": 21269469, "name": "TFT | RoKu", "participants": [{"id": 19557430, "gamerTag": "RoKu", "prefix": "TFT", "user": {"location": {"city": "Peachtree Corners", "state": "GA", "country": "United States"}}, "player": {"id": 1107285, "gamerTag": "RoKu", "prefix": "TFT", "user": {"location": {"city": "Peachtree Corners", "state": "GA", "country": "United States"}}}}]}, "standing": {"placement": 1, "stats": {"score": {"value": 2}}}}, {"id": "93924452-1", "entrant": {"id": 21269522, "name": "DokiNoYomi", "participants": [{"id": 19557468, "gamerTag": "DokiNoYomi", "prefix": "", "user": {"location": {"city": null, "state": null, "country": "Georgia"}}, "player": {"id": 4154629, "gamerTag": "DokiNoYomi", "prefix": "", "user": {"location": {"city": null, "state": null, "country": "Georgia"}}}}]}, "standing": {"placement": 2, "stats": {"score": {"value": 1}}}}], "games": null}, {"id": 93924119, "state": 3, "round": 1, "fullRoundText": "Winners Round 1", "completedAt": 1757896785, "winnerId": 21268937, "slots": [{"id": "93924119-0", "entrant": {"id": 21268937, "name": "TnT | Damp\u00e9", "participants": [{"id": 19556966, "gamerTag": "Damp\u00e9", "prefix": "TnT", "user": {"location": {"city": "Atlanta", "state": "GA", "country": "United States"}}, "player": {"id": 1170738, "gamerTag": "Damp\u00e9", "prefix": "TnT", "user": {"location": {"city": "Atlanta", "state": "GA", "country": "United States"}}}}]}, "standing": {"placement": 1, "stats": {"score": {"value": 2}}}}, {"id": "93924119-1", "entrant": {"id": 21268175, "name": "CV | CyanVelvet", "participants": [{"id": 19556336, "gamerTag": "CyanVelvet", "prefix": "CV", "user": {"location": {"city": "Atlanta", "state": "FL", "country": "United States"}}, "player": {"id": 2155436, "gamerTag": "CyanVelvet", "prefix": "CV", "user": {"location": {"city": "Atlanta", "state": "FL", "country": "United States"}}}}]}, "standing": {"placement": 2, "stats": {"score": {"value": 0}}}}], "games": null}, {"id": 93924120, "state": 3, "round": 1, "fullRoundText": "Winners Round 1", "completedAt": 1757896579, "winnerId": 21265906, "slots": [{"id": "93924120-0", "entrant": {"id": 21265906, "name": "MONEY | ImNoPro", "participants": [{"id": 19554510, "gamerTag": "ImNoPro", "prefix": "MONEY", "user": {"location": {"city": "Calhoun", "state": "GA", "country": "United States"}}, "player": {"id": 2149803, "gamerTag": "ImNoPro", "prefix": "MONEY", "user": {"location": {"city": "Calhoun", "state": "GA", "country": "United States"}}}}]}, "standing": {"placement": 1, "stats": {"score": {"value": 2}}}}, {"id": "93924120-1", "entrant": {"id": 21269368, "name": "Tilted", "participants": [{"id": 19557337, "gamerTag": "Tilted", "prefix": null, "user": {"location": {"city": "Norcross", "state": "GA", "country": "United States"}}, "player": {"id": 2377635, "gamerTag": "Tilted", "prefix": null, "user": {"location": {"city": "Norcross", "state": "GA", "country": "United States"}}}}]}, "standing": {"placement": 2, "stats": {"score": {"value": 0}}}}], "games": null}, {"id": 93924453, "state": 3, "round": 1, "fullRoundText": "Winners Round 1", "completedAt": 1757897948, "winnerId": 21265820, "slots": [{"id": "93924453-0", "entrant": {"id": 21269466, "name": "millano", "participants": [{"id": 19557425, "gamerTag": "millano", "prefix": "", "user": null, "player": {"id": 4214682, "gamerTag": "millano", "prefix": "", "user": null}}]}, "standing": {"placement": 2, "stats": {"score": {"value": 0}}}}, {"id": "93924453-1", "entrant": {"id": 21265820, "name": "Yehtu", "participants": [{"id": 19554427, "gamerTag": "Yehtu", "prefix": null, "user": {"location": {"city": null, "state": null, "country": null}}, "player": {"id": 2230310, "gamerTag": "Yehtu", "prefix": null, "user": {"location": {"city": null, "state": null, "country": null}}}}]}, "standing": {"placement": 1, "stats": {"score": {"value": 2}}}}], "games": null}, {"id": 93924508, "state": 3, "round": -4, "fullRoundText": "Losers Quarter-Final", "completedAt": 1757906797, "winnerId": 21269469, "slots": [{"id": "93924508-0", "entrant": {"id": 21269469, "name": "TFT | RoKu", "participants": [{"id": 19557430, "gamerTag": "RoKu", "prefix": "TFT", "user": {"location": {"city": "Peachtree Corners", "state": "GA", "country": "United States"}}, "player": {"id": 1107285, "gamerTag": "RoKu", "prefix": "TFT", "user": {"location": {"city": "Peachtree Corners", "state": "GA", "country": "United States"}}}}]}, "standing": {"placement": 1, "stats": {"score": {"value": 2}}}}, {"id": "93924508-1", "entrant": {"id": 21269270, "name": "TnT | Sid", "participants": [{"id": 19557262, "gamerTag": "Sid", "prefix": "TnT", "user": {"location": {"city": "Powder Springs", "state": "GA", "country": "United States"}}, "player": {"id": 1229067, "gamerTag": "Sid", "prefix": "TnT", "user": {"location": {"city": "Powder Springs", "state": "GA", "country": "United States"}}}}]}, "standing": {"placement": 2, "stats": {"score": {"value": 0}}}}], "games": null}, {"id": 93924509, "state": 3, "round": -4, "fullRoundText": "Losers Quarter-Final", "completedAt": 1757904665, "winnerId": 21269458, "slots": [{"id": "93924509-0", "entrant": {"id": 21269453, "name": "Jdaddy", "participants": [{"id": 19557412, "gamerTag": "Jdaddy", "prefix": null, "user": {"location": {"city": "Atlanta", "state": "GA", "country": "United States"}}, "player": {"id": 4384721, "gamerTag": "Jdaddy", "prefix": null, "user": {"location": {"city": "Atlanta", "state": "GA", "country": "United States"}}}}]}, "standing": {"placement": 2, "stats": {"score": {"value": 1}}}}, {"id": "93924509-1", "entrant": {"id": 21269458, "name": "WeFarmFrank | Gorilla Glue", "participants": [{"id": 19557417, "gamerTag": "Gorilla Glue", "prefix": "WeFarmFrank", "user": {"location": {"city": "Atlanta", "state": "GA", "country": "United States"}}, "player": {"id": 1810274, "gamerTag": "Planet Of Da", "prefix": "WeFarmFrank", "user": {"location": {"city": "Atlanta", "state": "GA", "country": "United States"}}}}]}, "standing": {"placement": 1, "stats": {"score": {"value": 3}}}}], "games": null}, {"id": 93924506, "state": 3, "round": -3, "fullRoundText": "Losers Round 1", "completedAt": 1757905231, "winnerId": 21269270, "slots": [{"id": "93924506-0", "entrant": {"id": 21269270, "name": "TnT | Sid", "participants": [{"id": 19557262, "gamerTag": "Sid", "prefix": "TnT", "user": {"location": {"city": "Powder Springs", "state": "GA", "country": "United States"}}, "player": {"id": 1229067, "gamerTag": "Sid", "prefix": "TnT", "user": {"location": {"city": "Powder Springs", "state": "GA", "country": "United States"}}}}]}, "standing": {"placement": 1, "stats": {"score": {"value": 2}}}}, {"id": "93924506-1", "entrant": {"id": 21268937, "name": "TnT | Damp\u00e9", "participants": [{"id": 19556966, "gamerTag": "Damp\u00e9", "prefix": "TnT", "user": {"location": {"city": "Atlanta", "state": "GA", "country": "United States"}}, "player": {"id": 1170738, "gamerTag": "Damp\u00e9", "prefix": "TnT", "user": {"location": {"city": "Atlanta", "state": "GA", "country": "United States"}}}}]}, "standing": {"placement": 2, "stats": {"score": {"value": 0}}}}], "games": null}, {"id": 93924507, "state": 3, "round": -3, "fullRoundText": "Losers Round 1", "completedAt": 1757903114, "winnerId": 21269458, "slots": [{"id": "93924507-0", "entrant": {"id": 21269458, "name": "WeFarmFrank | Gorilla Glue", "participants": [{"id": 19557417, "gamerTag": "Gorilla Glue", "prefix": "WeFarmFrank", "user": {"location": {"city": "Atlanta", "state": "GA", "country": "United States"}}, "player": {"id": 1810274, "gamerTag": "Planet Of Da", "prefix": "WeFarmFrank", "user": {"location": {"city": "Atlanta", "state": "GA", "country": "United States"}}}}]}, "standing": {"placement": 1, "stats": {"score": {"value": 2}}}}, {"id": "93924507-1", "entrant": {"id": 21264569, "name": "TFT | ALLEYCAT", "participants": [{"id": 19553441, "gamerTag": "ALLEYCAT", "prefix": "TFT", "user": {"location": {"city": "Atlanta", "state": "GA", "country": "United States"}}, "player": {"id": 1940654, "gamerTag": "ALLEYCAT", "prefix": "TFT", "user": {"location": {"city": "Atlanta", "state": "GA", "country": "United States"}}}}]}, "standing": {"placement": 2, "stats": {"score": {"value": 1}}}}], "games": null}]}}}