{"event": {"sets": {"pageInfo": {"totalPages": 2, "total": 26}, "nodes": [{"id": 92608540, "state": 3, "round": -4, "fullRoundText": "Losers Round 2", "completedAt": 1755048374, "winnerId": 20948416, "slots": [{"id": "92608540-0", "entrant": {"id": 20948416, "name": "Cromat", "participants": [{"id": 19273216, "gamerTag": "Cromat", "prefix": "", "user": {"location": {"city": "Savannah", "state": "GA", "country": "United States"}}, "player": {"id": 3055798, "gamerTag": "Cromat", "prefix": "", "user": {"location": {"city": "Savannah", "state": "GA", "country": "United States"}}}}]}, "standing": {"placement": 1, "stats": {"score": {"value": 2}}}}, {"id": "92608540-1", "entrant": {"id": 20948334, "name": "Mighty Morfin", "participants": [{"id": 19273135, "gamerTag": "Mighty Morfin", "prefix": "", "user": {"location": {"city": "Gainesville", "state": "GA", "country": "United States"}}, "player": {"id": 1630530, "gamerTag": "Mighty Morfin", "prefix": "", "user": {"location": {"city": "Gainesville", "state": "GA", "country": "United States"}}}}]}, "standing": {"placement": 2, "stats": {"score": {"value": 0}}}}], "games": null}, {"id": 92608541, "state": 3, "round": -4, "fullRoundText": "Losers Round 2", "completedAt": 1755047473, "winnerId": 20948663, "slots": [{"id": "92608541-0", "entrant": {"id": 20953453, "name": "PitchingAce33", "participants": [{"id": 19277511, "gamerTag": "PitchingAce33", "prefix": "", "user": {"location": {"city": null, "state": "GA", "country": "United States"}}, "player": {"id": 1198327, "gamerTag": "PitchingAce33", "prefix": "", "user": {"location": {"city": null, "state": "GA", "country": "United States"}}}}]}, "standing": {"placement": 2, "stats": {"score": {"value": 0}}}}, {"id": "92608541-1", "entrant": {"id": 20948663, "name": "Nestor", "participants": [{"id": 19273429, "gamerTag": "Nestor", "prefix": null, "user": {"location": {"city": "Gainesville", "state": "GA", "country": "United States"}}, "player": {"id": 1630543, "gamerTag": "Nestor", "prefix": null, "user": {"location": {"city": "Gainesville", "state": "GA", "country": "United States"}}}}]}, "standing": {"placement": 1, "stats": {"score": {"value": 2}}}}], "games": null}, {"id": 92608542, "state": 3, "round": -4, "fullRoundText": "Losers Round 2", "completedAt": 1755047496, "winnerId": 20945214, "slots": [{"id": "92608542-0", "entrant": {"id": 20945214, "name": "Heart", "participants": [{"id": 19270290, "gamerTag": "Heart", "prefix": "", "user": {"location": {"city": "Atlanta", "state": "GA", "country": "United States"}}, "player": {"id": 4287822, "gamerTag": "Heart", "prefix": "", "user": {"location": {"city": "Atlanta", "state": "GA", "country": "United States"}}}}]}, "standing": {"placement": 1, "stats": {"score": {"value": 2}}}}, {"id": "92608542-1", "entrant": {"id": 20953851, "name": "Dev", "participants": [{"id": 19277853, "gamerTag": "Dev", "prefix": null, "user": {"location": {"city": "Gainesville", "state": "GA", "country": "United States"}}, "player": {"id": 1447491, "gamerTag": "Dev", "prefix": null, "user": {"location": {"city": "Gainesville", "state": "GA", "country": "United States"}}}}]}, "standing": {"placement": 2, "stats": {"score": {"value": 0}}}}], "games": null}, {"id": 92608536, "state": 3, "round": -3, "fullRoundText": "Losers Round 1", "completedAt": 1755046577, "winnerId": 20948334, "slots": [{"id": "92608536-0", "entrant": {"id": 20941862, "name": "brave", "participants": [{"id": 19267417, "gamerTag": "brave", "prefix": "", "user": {"location": {"city": "Lawrenceville", "state": "GA", "country": "United States"}}, "player": {"id": 1000536, "gamerTag": "brave", "prefix": "", "user": {"location": {"city": "Lawrenceville", "state": "GA", "country": "United States"}}}}]}, "standing": {"placement": 2, "stats": {"score": {"value": 0}}}}, {"id": "92608536-1", "entrant": {"id": 20948334, "name": "Mighty Morfin", "participants": [{"id": 19273135, "gamerTag": "Mighty Morfin", "prefix": "", "user": {"location": {"city": "Gainesville", "state": "GA", "country": "United States"}}, "player": {"id": 1630530, "gamerTag": "Mighty Morfin", "prefix": "", "user": {"location": {"city": "Gainesville", "state": "GA", "country": "United States"}}}}]}, "standing": {"placement": 1, "stats": {"score": {"value": 2}}}}], "games": null}, {"id": 92608538, "state": 3, "round": -3, "fullRoundText": "Losers Round 1", "completedAt": 1755046833, "winnerId": 20953851, "slots": [{"id": "92608538-0", "entrant": {"id": 20953592, "name": "Moopisegg", "participants": [{"id": 19277628, "gamerTag": "Moopisegg", "prefix": "", "user": {"location": {"city": null, "state": null, "country": "United States"}}, "player": {"id": 4680890, "gamerTag": "Moopisegg", "prefix": "", "user": {"location": {"city": null, "state": null, "country": "United States"}}}}]}, "standing": {"placement": 2, "stats": {"score": {"value": 0}}}}, {"id": "92608538-1", "entrant": {"id": 20953851, "name": "Dev", "participants": [{"id": 19277853, "gamerTag": "Dev", "prefix": null, "user": {"location": {"city": "Gainesville", "state": "GA", "country": "United States"}}, "player": {"id": 1447491, "gamerTag": "Dev", "prefix": null, "user": {"location": {"city": "Gainesville", "state": "GA", "country": "United States"}}}}]}, "standing": {"placement": 1, "stats": {"score": {"value": 2}}}}], "games": null}, {"id": 92608503, "state": 3, "round": 1, "fullRoundText": "Winners Round 1", "completedAt": 1755046005, "winnerId": 20945214, "slots": [{"id": "92608503-0", "entrant": {"id": 20951992, "name": "Cynthia<3", "participants": [{"id": 19276259, "gamerTag": "Cynthia<3", "prefix": "", "user": {"location": {"city": "Little rock", "state": "AR", "country": "United States"}}, "player": {"id": 3132841, "gamerTag": "Cynthia<3", "prefix": "", "user": {"location": {"city": "Little rock", "state": "AR", "country": "United States"}}}}]}, "standing": {"placement": 2, "stats": {"score": {"value": 1}}}}, {"id": "92608503-1", "entrant": {"id": 20945214, "name": "Heart", "participants": [{"id": 19270290, "gamerTag": "Heart", "prefix": "", "user": {"location": {"city": "Atlanta", "state": "GA", "country": "United States"}}, "player": {"id": 4287822, "gamerTag": "Heart", "prefix": "", "user": {"location": {"city": "Atlanta", "state": "GA", "country": "United States"}}}}]}, "standing": {"placement": 1, "stats": {"score": {"value": 2}}}}], "games": null}, {"id": 92608504, "state": 3, "round": 1, "fullRoundText": "Winners Round 1", "completedAt": 1755045954, "winnerId": 20953566, "slots": [{"id": "92608504-0", "entrant": {"id": 20953566, "name": "Typical!", "participants": [{"id": 19277605, "gamerTag": "Typical!", "prefix": "", "user": {"location": {"city": "Cumming", "state": "GA", "country": "United States"}}, "player": {"id": 1227171, "gamerTag": "Typical!", "prefix": "", "user": {"location": {"city": "Cumming", "state": "GA", "country": "United States"}}}}]}, "standing": {"placement": 1, "stats": {"score": {"value": 2}}}}, {"id": "92608504-1", "entrant": {"id": 20941862, "name": "brave", "participants": [{"id": 19267417, "gamerTag": "brave", "prefix": "", "user": {"location": {"city": "Lawrenceville", "state": "GA", "country": "United States"}}, "player": {"id": 1000536, "gamerTag": "brave", "prefix": "", "user": {"location": {"city": "Lawrenceville", "state": "GA", "country": "United States"}}}}]}, "standing": {"placement": 2, "stats": {"score": {"value": 0}}}}], "games": null}, {"id": 92608505, "state": 3, "round": 1, "fullRoundText": "Winners Round 1", "completedAt": 1755045972, "winnerId": 20953453, "slots": [{"id": "92608505-0", "entrant": {"id": 20953453, "name": "PitchingAce33", "participants": [{"id": 19277511, "gamerTag": "PitchingAce33", "prefix": "", "user": {"location": {"city": null, "state": "GA", "country": "United States"}}, "player": {"id": 1198327, "gamerTag": "PitchingAce33", "prefix": "", "user": {"location": {"city": null, "state": "GA", "country": "United States"}}}}]}, "standing": {"placement": 1, "stats": {"score": {"value": 2}}}}, {"id": "92608505-1", "entrant": {"id": 20948334, "name": "Mighty Morfin", "participants": [{"id": 19273135, "gamerTag": "Mighty Morfin", "prefix": "", "user": {"location": {"city": "Gainesville", "state": "GA", "country": "United States"}}, "player": {"id": 1630530, "gamerTag": "Mighty Morfin", "prefix": "", "user": {"location": {"city": "Gainesville", "state": "GA", "country": "United States"}}}}]}, "standing": {"placement": 2, "stats": {"score": {"value": 1}}}}], "games": null}, {"id": 92608507, "state": 3, "round": 1, "fullRoundText": "Winners Round 1", "completedAt": 1755046205, "winnerId": 20948416, "slots": [{"id": "92608507-0", "entrant": {"id": 20948416, "name": "Cromat", "participants": [{"id": 19273216, "gamerTag": "Cromat", "prefix": "", "user": {"location": {"city": "Savannah", "state": "GA", "country": "United States"}}, "player": {"id": 3055798, "gamerTag": "Cromat", "prefix": "", "user": {"location": {"city": "Savannah", "state": "GA", "country": "United States"}}}}]}, "standing": {"placement": 1, "stats": {"score": {"value": 2}}}}, {"id": "92608507-1", "entrant": {"id": 20948663, "name": "Nestor", "participants": [{"id": 19273429, "gamerTag": "Nestor", "prefix": null, "user": {"location": {"city": "Gainesville", "state": "GA", "country": "United States"}}, "player": {"id": 1630543, "gamerTag": "Nestor", "prefix": null, "user": {"location": {"city": "Gainesville", "state": "GA", "country": "United States"}}}}]}, "standing": {"placement": 2, "stats": {"score": {"value": 1}}}}], "games": null}, {"id": 92608508, "state": 3, "round": 1, "fullRoundText": "Winners Round 1", "completedAt": 1755046232, "winnerId": 20951486, "slots": [{"id": "92608508-0", "entrant": {"id": 20951486, "name": "Jeni", "participants": [{"id": 19275815, "gamerTag": "Jeni", "prefix": "", "user": {"location": {"city": null, "state": null, "country": null}}, "player": {"id": 1499467, "gamerTag": "Jeni", "prefix": "", "user": {"location": {"city": null, "state": null, "country": null}}}}]}, "standing": {"placement": 1, "stats": {"score": {"value": 2}}}}, {"id": "92608508-1", "entrant": {"id": 20953592, "name": "Moopisegg", "participants": [{"id": 19277628, "gamerTag": "Moopisegg", "prefix": "", "user": {"location": {"city": null, "state": null, "country": "United States"}}, "player": {"id": 4680890, "gamerTag": "Moopisegg", "prefix": "", "user": {"location": {"city": null, "state": null, "country": "United States"}}}}]}, "standing": {"placement": 2, "stats": {"score": {"value": 0}}}}], "games": null}, {"id": 92608509, "state": 3, "round": 1, "fullRoundText": "Winners Round 1", "completedAt": 1755045824, "winnerId": 20949777, "slots": [{"id": "92608509-0", "entrant": {"id": 20949777, "name": "Sacred", "participants": [{"id": 19274264, "gamerTag": "Sacred", "prefix": "", "user": {"location": {"city": null, "state": null, "country": "United States"}}, "player": {"id": 1007555, "gamerTag": "Sacred", "prefix": "", "user": {"location": {"city": null, "state": null, "country": "United States"}}}}]}, "standing": {"placement": 1, "stats": {"score": {"value": 2}}}}, {"id": "92608509-1", "entrant": {"id": 20953851, "name": "Dev", "participants": [{"id": 19277853, "gamerTag": "Dev", "prefix": null, "user": {"location": {"city": "Gainesville", "state": "GA", "country": "United States"}}, "player": {"id": 1447491, "gamerTag": "Dev", "prefix": null, "user": {"location": {"city": "Gainesville", "state": "GA", "country": "United States"}}}}]}, "standing": {"placement": 2, "stats": {"score": {"value": 0}}}}], "games": null}]}}}