{"phase": {"seeds": {"pageInfo": {"totalPages": 1, "total": 11}, "nodes": [{"id": 36196671, "seedNum": 2, "entrant": {"id": 20986086, "name": "Shaman", "participants": [{"id": 19305551, "gamerTag": "Shaman", "prefix": "", "user": {"location": {"city": "Valdosta", "state": "GA", "country": "United States"}}, "player": {"id": 470912, "gamerTag": "Shaman", "prefix": "", "user": {"location": {"city": "Valdosta", "state": "GA", "country": "United States"}}}}]}}, {"id": 36106388, "seedNum": 1, "entrant": {"id": 20933682, "name": "Alex828", "participants": [{"id": 19259973, "gamerTag": "Alex828", "prefix": "", "user": {"location": {"city": "Valdosta", "state": "GA", "country": "United States"}}, "player": {"id": 1630146, "gamerTag": "Alex828", "prefix": "", "user": {"location": {"city": "Valdosta", "state": "GA", "country": "United States"}}}}]}}, {"id": 36117552, "seedNum": 5, "entrant": {"id": 20941240, "name": "BE/JLE | CaptainMilkMan", "participants": [{"id": 19266858, "gamerTag": "CaptainMilkMan", "prefix": "BE/JLE", "user": {"location": {"city": "Albany", "state": "GA", "country": "United States"}}, "player": {"id": 1101654, "gamerTag": "CaptainMilkMan", "prefix": "BE/JLE", "user": {"location": {"city": "Albany", "state": "GA", "country": "United States"}}}}]}}, {"id": 36191680, "seedNum": 4, "entrant": {"id": 20983059, "name": "KageGato", "participants": [{"id": 19303211, "gamerTag": "KageGato", "prefix": null, "user": {"location": {"city": "Valdosta", "state": "GA", "country": "United States"}}, "player": {"id": 1392649, "gamerTag": "KageGato", "prefix": "", "user": {"location": {"city": "Valdosta", "state": "GA", "country": "United States"}}}}]}}, {"id": 36191853, "seedNum": 3, "entrant": {"id": 20983133, "name": "Braai", "participants": [{"id": 19303259, "gamerTag": "Braai", "prefix": "", "user": {"location": {"city": "Nicholls", "state": null, "country": "United States"}}, "player": {"id": 2627801, "gamerTag": "Braai", "prefix": "", "user": {"location": {"city": "Nicholls", "state": null, "country": "United States"}}}}]}}, {"id": 36192802, "seedNum": 7, "entrant": {"id": 20983787, "name": "NinjiumZ", "participants": [{"id": 19303778, "gamerTag": "NinjiumZ", "prefix": "", "user": {"location": {"city": "Thomasville", "state": "GA", "country": "United States"}}, "player": {"id": 2635571, "gamerTag": "NinjiumZ", "prefix": "", "user": {"location": {"city": "Thomasville", "state": "GA", "country": "United States"}}}}]}}, {"id": 36114112, "seedNum": 8, "entrant": {"id": 20938960, "name": "TheNickXV", "participants": [{"id": 19264760, "gamerTag": "TheNickXV", "prefix": "", "user": {"location": {"city": null, "state": "GA", "country": "United States"}}, "player": {"id": 1100033, "gamerTag": "TheNickXV", "prefix": "", "user": {"location": {"city": null, "state": "GA", "country": "United States"}}}}]}}, {"id": 36108919, "seedNum": 9, "entrant": {"id": 20935510, "name": "VMS | aMSa Fan", "participants": [{"id": 19261545, "gamerTag": "aMSa Fan", "prefix": "VMS", "user": {"location": {"city": "Valdosta", "state": "GA", "country": "United States"}}, "player": {"id": 4526456, "gamerTag": "LogMan", "prefix": "VMS", "user": {"location": {"city": "Valdosta", "state": "GA", "country": "United States"}}}}]}}, {"id": 36190527, "seedNum": 6, "entrant": {"id": 20982378, "name": "tired&true", "participants": [{"id": 19302681, "gamerTag": "tired&true", "prefix": "", "user": {"location": {"city": null, "state": null, "country": "United States"}}, "player": {"id": 2635568, "gamerTag": "tired&true", "prefix": "", "user": {"location": {"city": null, "state": null, "country": "United States"}}}}]}}, {"id": 36191545, "seedNum": 10, "entrant": {"id": 20982924, "name": "VMS | eisseJ", "participants": [{"id": 19303111, "gamerTag": "eisseJ", "prefix": "VMS", "user": {"location": {"city": "Valdosta", "state": "GA", "country": "United States"}}, "player": {"id": 4531238, "gamerTag": "Jezzie", "prefix": "SLM", "user": {"location": {"city": "Valdosta", "state": "GA", "country": "United States"}}}}]}}, {"id": 36198867, "seedNum": 11, "entrant": {"id": 20987528, "name": "VMS | NettlesNoodles", "participants": [{"id": 19306759, "gamerTag": "NettlesNoodles", "prefix": "VMS", "user": {"location": {"city": null, "state": null, "country": "United States"}}, "player": {"id": 4926737, "gamerTag": "NettlesNoodles", "prefix": "VMS", "user": {"location": {"city": null, "state": null, "country": "United States"}}}}]}}]}}}