{"event": {"sets": {"pageInfo": {"totalPages": 4, "total": 48}, "nodes": [{"id": 93997482, "state": 3, "round": 1, "fullRoundText": "Winners Round 1", "completedAt": 1758154886, "winnerId": 21303005, "slots": [{"id": "93997482-0", "entrant": {"id": 21303005, "name": "InIt2WynneIt", "participants": [{"id": 19584931, "gamerTag": "InIt2WynneIt", "prefix": "", "user": {"location": {"city": "LAWRENCEVILLE", "state": "GA", "country": "United States"}}, "player": {"id": 260407, "gamerTag": "InIt2WynneIt", "prefix": "", "user": {"location": {"city": "LAWRENCEVILLE", "state": "GA", "country": "United States"}}}}]}, "standing": {"placement": 1, "stats": {"score": {"value": 2}}}}, {"id": "93997482-1", "entrant": {"id": 21302879, "name": "88thSpade", "participants": [{"id": 19584834, "gamerTag": "88thSpade", "prefix": "", "user": {"location": {"city": null, "state": null, "country": "United States"}}, "player": {"id": 4981523, "gamerTag": "88thSpade", "prefix": "", "user": {"location": {"city": null, "state": null, "country": "United States"}}}}]}, "standing": {"placement": 2, "stats": {"score": {"value": 0}}}}], "games": null}, {"id": 93997484, "state": 3, "round": 1, "fullRoundText": "Winners Round 1", "completedAt": 1758154879, "winnerId": 21297467, "slots": [{"id": "93997484-0", "entrant": {"id": 21297467, "name": "evosel", "participants": [{"id": 19580184, "gamerTag": "evosel", "prefix": "", "user": {"location": {"city": "Lithonia", "state": "GA", "country": "United States"}}, "player": {"id": 2926943, "gamerTag": "evosel", "prefix": "", "user": {"location": {"city": "Lithonia", "state": "GA", "country": "United States"}}}}]}, "standing": {"placement": 1, "stats": {"score": {"value": 2}}}}, {"id": "93997484-1", "entrant": {"id": 21302435, "name": "Hipster Lion", "participants": [{"id": 19584431, "gamerTag": "Hipster Lion", "prefix": "", "user": {"location": {"city": "College Park", "state": "GA", "country": "United States"}}, "player": {"id": 897409, "gamerTag": "Hipster Lion", "prefix": "", "user": {"location": {"city": "College Park", "state": "GA", "country": "United States"}}}}]}, "standing": {"placement": 2, "stats": {"score": {"value": 0}}}}], "games": null}, {"id": 93997486, "state": 3, "round": 1, "fullRoundText": "Winners Round 1", "completedAt": 1758154819, "winnerId": 21303112, "slots": [{"id": "93997486-0", "entrant": {"id": 21303112, "name": "StrataJay", "participants": [{"id": 19585020, "gamerTag": "StrataJay", "prefix": "", "user": {"location": {"city": "Grayson", "state": "GA", "country": "United States"}}, "player": {"id": 1112189, "gamerTag": "StrataJay", "prefix": "", "user": {"location": {"city": "Grayson", "state": "GA", "country": "United States"}}}}]}, "standing": {"placement": 1, "stats": {"score": {"value": 2}}}}, {"id": "93997486-1", "entrant": {"id": 21302198, "name": "Amareonthebeat", "participants": [{"id": 19584212, "gamerTag": "Amareonthebeat", "prefix": "", "user": {"location": {"city": null, "state": null, "country": "United States"}}, "player": {"id": 4981446, "gamerTag": "Amareonthebeat", "prefix": "", "user": {"location": {"city": null, "state": null, "country": "United States"}}}}]}, "standing": {"placement": 2, "stats": {"score": {"value": 0}}}}], "games": null}]}}}