{"event": {"sets": {"pageInfo": {"totalPages": 1, "total": 3}, "nodes": [{"id": 94269324, "state": 3, "round": 2, "fullRoundText": "Final", "completedAt": 1758753433, "winnerId": 21369817, "slots": [{"id": "94269324-0", "entrant": {"id": 21369817, "name": "Stock Stealers | T.K.O", "participants": [{"id": 19640782, "gamerTag": "T.K.O", "prefix": "Stock Stealers", "user": {"location": {"city": "Smyrna", "state": "GA", "country": "United States"}}, "player": {"id": 4933114, "gamerTag": "T.K.O", "prefix": "Stock Stealer", "user": {"location": {"city": "Smyrna", "state": "GA", "country": "United States"}}}}]}, "standing": {"placement": 1, "stats": {"score": {"value": 3}}}}, {"id": "94269324-1", "entrant": {"id": 21368770, "name": "Zarek", "participants": [{"id": 19643544, "gamerTag": "Zarek", "prefix": "", "user": {"location": {"city": "Atlanta", "state": "GA", "country": "United States"}}, "player": {"id": 405682, "gamerTag": "Zarek", "prefix": "", "user": {"location": {"city": "Atlanta", "state": "GA", "country": "United States"}}}}]}, "standing": {"placement": 2, "stats": {"score": {"value": 0}}}}], "games": null}, {"id": 94269322, "state": 3, "round": 1, "fullRoundText": "Semi-Final", "completedAt": 1758753019, "winnerId": 21369817, "slots": [{"id": "94269322-0", "entrant": {"id": 21368897, "name": "Boo", "participants": [{"id": 19643659, "gamerTag": "Boo", "prefix": "", "user": {"location": {"city": "Cumming", "state": "GA", "country": "United States"}}, "player": {"id": 2647915, "gamerTag": "Boo", "prefix": "", "user": {"location": {"city": "Cumming", "state": "GA", "country": "United States"}}}}]}, "standing": {"placement": 2, "stats": {"score": {"value": 1}}}}, {"id": "94269322-1", "entrant": {"id": 21369817, "name": "Stock Stealers | T.K.O", "participants": [{"id": 19640782, "gamerTag": "T.K.O", "prefix": "Stock Stealers", "user": {"location": {"city": "Smyrna", "state": "GA", "country": "United States"}}, "player": {"id": 4933114, "gamerTag": "T.K.O", "prefix": "Stock Stealer", "user": {"location": {"city": "Smyrna", "state": "GA", "country": "United States"}}}}]}, "standing": {"placement": 1, "stats": {"score": {"value": 2}}}}], "games": null}, {"id": 94269323, "state": 3, "round": 1, "fullRoundText": "Semi-Final", "completedAt": 1758752807, "winnerId": 21368770, "slots": [{"id": "94269323-0", "entrant": {"id": 21368770, "name": "Zarek", "participants": [{"id": 19643544, "gamerTag": "Zarek", "prefix": "", "user": {"location": {"city": "Atlanta", "state": "GA", "country": "United States"}}, "player": {"id": 405682, "gamerTag": "Zarek", "prefix": "", "user": {"location": {"city": "Atlanta", "state": "GA", "country": "United States"}}}}]}, "standing": {"placement": 1, "stats": {"score": {"value": 2}}}}, {"id": "94269323-1", "entrant": {"id": 21363791, "name": "IceWave4", "participants": [{"id": 19639069, "gamerTag": "IceWave4", "prefix": null, "user": {"location": {"city": "Dallas", "state": "GA", "country": "United States"}}, "player": {"id": 4191196, "gamerTag": "IceWave4", "prefix": null, "user": {"location": {"city": "Dallas", "state": "GA", "country": "United States"}}}}]}, "standing": {"placement": 2, "stats": {"score": {"value": 0}}}}], "games": null}]}}}