{"event": {"sets": {"pageInfo": {"totalPages": 6, "total": 76}, "nodes": [{"id": 93440249, "state": 3, "round": -6, "fullRoundText": "Losers Round 3", "completedAt": 1756949010, "winnerId": 21161523, "slots": [{"id": "93440249-0", "entrant": {"id": 21158988, "name": "Armanisaint", "participants": [{"id": 19461138, "gamerTag": "Armanisaint", "prefix": null, "user": {"location": {"city": "Roswell", "state": "GA", "country": "United States"}}, "player": {"id": 3943806, "gamerTag": "Armanisaint", "prefix": null, "user": {"location": {"city": "Roswell", "state": "GA", "country": "United States"}}}}]}, "standing": {"placement": 2, "stats": {"score": {"value": 1}}}}, {"id": "93440249-1", "entrant": {"id": 21161523, "name": "Pokchop", "participants": [{"id": 19463419, "gamerTag": "Pokchop", "prefix": "", "user": {"location": {"city": "Atlanta", "state": "GA", "country": "United States"}}, "player": {"id": 150402, "gamerTag": "Pokchop", "prefix": "", "user": {"location": {"city": "Atlanta", "state": "GA", "country": "United States"}}}}]}, "standing": {"placement": 1, "stats": {"score": {"value": 2}}}}], "games": null}, {"id": 93440250, "state": 3, "round": -6, "fullRoundText": "Losers Round 3", "completedAt": 1756949716, "winnerId": 21157267, "slots": [{"id": "93440250-0", "entrant": {"id": 21157267, "name": "100% | juice", "participants": [{"id": 19459537, "gamerTag": "juice", "prefix": "100%", "user": {"location": {"city": "atlanta", "state": "GA", "country": "United States"}}, "player": {"id": 146905, "gamerTag": "juice", "prefix": "100%", "user": {"location": {"city": "atlanta", "state": "GA", "country": "United States"}}}}]}, "standing": {"placement": 1, "stats": {"score": {"value": 2}}}}, {"id": "93440250-1", "entrant": {"id": 21159078, "name": "Eternia Corp. | HBKdoza", "participants": [{"id": 19461227, "gamerTag": "HBKdoza", "prefix": "Eternia Corp.", "user": {"location": {"city": "Decatur", "state": "GA", "country": "United States"}}, "player": {"id": 3426567, "gamerTag": "HBKdoza", "prefix": "Eternia Corp.", "user": {"location": {"city": "Decatur", "state": "GA", "country": "United States"}}}}]}, "standing": {"placement": 2, "stats": {"score": {"value": 0}}}}], "games": null}, {"id": 93440251, "state": 3, "round": -6, "fullRoundText": "Losers Round 3", "completedAt": 1756949914, "winnerId": 21162371, "slots": [{"id": "93440251-0", "entrant": {"id": 21162371, "name": "Iso.Dgaf", "participants": [{"id": 19464156, "gamerTag": "Iso.Dgaf", "prefix": null, "user": {"location": {"city": "Acworth", "state": "GA", "country": "United States"}}, "player": {"id": 4285541, "gamerTag": "Iso.Dgaf", "prefix": null, "user": {"location": {"city": "Acworth", "state": "GA", "country": "United States"}}}}]}, "standing": {"placement": 1, "stats": {"score": {"value": 2}}}}, {"id": "93440251-1", "entrant": {"id": 21158952, "name": "Momokins", "participants": [{"id": 19461101, "gamerTag": "Momokins", "prefix": "", "user": {"location": {"city": "Atlanta", "state": "GA", "country": "United States"}}, "player": {"id": 612216, "gamerTag": "Momokins", "prefix": "", "user": {"location": {"city": "Atlanta", "state": "GA", "country": "United States"}}}}]}, "standing": {"placement": 2, "stats": {"score": {"value": 0}}}}], "games": null}, {"id": 93440252, "state": 3, "round": -6, "fullRoundText": "Losers Round 3", "completedAt": 1756950000, "winnerId": 21159240, "slots": [{"id": "93440252-0", "entrant": {"id": 21159240, "name": "Myk_JUMP", "participants": [{"id": 19461378, "gamerTag": "Myk_JUMP", "prefix": "", "user": {"location": {"city": "Atlanta", "state": "GA", "country": "United States"}}, "player": {"id": 469002, "gamerTag": "Myk_JUMP", "prefix": "", "user": {"location": {"city": "Atlanta", "state": "GA", "country": "United States"}}}}]}, "standing": {"placement": 1, "stats": {"score": {"value": 2}}}}, {"id": "93440252-1", "entrant": {"id": 21160782, "name": "Greed", "participants": [{"id": 19462748, "gamerTag": "Greed", "prefix": "", "user": {"location": {"city": "Atlanta", "state": "GA", "country": "United States"}}, "player": {"id": 907329, "gamerTag": "Greed", "prefix": "", "user": {"location": {"city": "Atlanta", "state": "GA", "country": "United States"}}}}]}, "standing": {"placement": 2, "stats": {"score": {"value": 1}}}}], "games": null}, {"id": 93440253, "state": 3, "round": -6, "fullRoundText": "Losers Round 3", "completedAt": 1756948978, "winnerId": 21162780, "slots": [{"id": "93440253-0", "entrant": {"id": 21162780, "name": "LogieBear", "participants": [{"id": 19464507, "gamerTag": "LogieBear", "prefix": "", "user": {"location": {"city": "Snellville", "state": "GA", "country": "United States"}}, "player": {"id": 3809706, "gamerTag": "LogieBear", "prefix": "", "user": {"location": {"city": "Snellville", "state": "GA", "country": "United States"}}}}]}, "standing": {"placement": 1, "stats": {"score": {"value": 2}}}}, {"id": "93440253-1", "entrant": {"id": 21162697, "name": "Cloud9Savage", "participants": [{"id": 19464435, "gamerTag": "Cloud9Savage", "prefix": null, "user": {"location": {"city": "McDonough", "state": "GA", "country": "United States"}}, "player": {"id": 4395697, "gamerTag": "Cloud9Savage", "prefix": null, "user": {"location": {"city": "McDonough", "state": "GA", "country": "United States"}}}}]}, "standing": {"placement": 2, "stats": {"score": {"value": 0}}}}], "games": null}, {"id": 93440254, "state": 3, "round": -6, "fullRoundText": "Losers Round 3", "completedAt": 1756950228, "winnerId": 21160635, "slots": [{"id": "93440254-0", "entrant": {"id": 21159488, "name": "REHOO", "participants": [{"id": 19461606, "gamerTag": "REHOO", "prefix": null, "user": {"location": {"city": "jonesboro", "state": "GA", "country": "United States"}}, "player": {"id": 427983, "gamerTag": "REHOO", "prefix": null, "user": {"location": {"city": "jonesboro", "state": "GA", "country": "United States"}}}}]}, "standing": {"placement": 2, "stats": {"score": {"value": 1}}}}, {"id": "93440254-1", "entrant": {"id": 21160635, "name": "Aneubys", "participants": [{"id": 19462631, "gamerTag": "Aneubys", "prefix": "", "user": {"location": {"city": "Smyrna", "state": "GA", "country": "United States"}}, "player": {"id": 3901259, "gamerTag": "Aneubys", "prefix": "", "user": {"location": {"city": "Smyrna", "state": "GA", "country": "United States"}}}}]}, "standing": {"placement": 1, "stats": {"score": {"value": 2}}}}], "games": null}, {"id": 93440255, "state": 3, "round": -6, "fullRoundText": "Losers Round 3", "completedAt": 1756950818, "winnerId": 21159170, "slots": [{"id": "93440255-0", "entrant": {"id": 21162789, "name": "Globberman", "participants": [{"id": 19464512, "gamerTag": "Globberman", "prefix": null, "user": {"location": {"city": "Snellville", "state": "GA", "country": "United States"}}, "player": {"id": 3722235, "gamerTag": "Globberman", "prefix": null, "user": {"location": {"city": "Snellville", "state": "GA", "country": "United States"}}}}]}, "standing": {"placement": 2, "stats": {"score": {"value": 1}}}}, {"id": "93440255-1", "entrant": {"id": 21159170, "name": "Azarlith", "participants": [{"id": 19461309, "gamerTag": "Azarlith", "prefix": "", "user": {"location": {"city": "Lawrenceville", "state": null, "country": "United States"}}, "player": {"id": 3444743, "gamerTag": "Azarlith", "prefix": "", "user": {"location": {"city": "Lawrenceville", "state": null, "country": "United States"}}}}]}, "standing": {"placement": 1, "stats": {"score": {"value": 2}}}}], "games": null}, {"id": 93440256, "state": 3, "round": -6, "fullRoundText": "Losers Round 3", "completedAt": 1756950170, "winnerId": 21161729, "slots": [{"id": "93440256-0", "entrant": {"id": 21159631, "name": "InIt2WynneIt", "participants": [{"id": 19461731, "gamerTag": "InIt2WynneIt", "prefix": "", "user": {"location": {"city": "LAWRENCEVILLE", "state": "GA", "country": "United States"}}, "player": {"id": 260407, "gamerTag": "InIt2WynneIt", "prefix": "", "user": {"location": {"city": "LAWRENCEVILLE", "state": "GA", "country": "United States"}}}}]}, "standing": {"placement": 2, "stats": {"score": {"value": 0}}}}, {"id": "93440256-1", "entrant": {"id": 21161729, "name": "Owen Dos | BlackHeart", "participants": [{"id": 19463601, "gamerTag": "BlackHeart", "prefix": "Owen Dos", "user": {"location": {"city": "Buford", "state": "GA", "country": "United States"}}, "player": {"id": 2228433, "gamerTag": "BlackHeart", "prefix": "Owen Dos", "user": {"location": {"city": "Buford", "state": "GA", "country": "United States"}}}}]}, "standing": {"placement": 1, "stats": {"score": {"value": 2}}}}], "games": null}, {"id": 93440241, "state": 3, "round": -5, "fullRoundText": "Losers Round 2", "completedAt": 1756947990, "winnerId": 21161523, "slots": [{"id": "93440241-0", "entrant": {"id": 21157724, "name": "evosel", "participants": [{"id": 19459948, "gamerTag": "evosel", "prefix": "", "user": {"location": {"city": "Lithonia", "state": "GA", "country": "United States"}}, "player": {"id": 2926943, "gamerTag": "evosel", "prefix": "", "user": {"location": {"city": "Lithonia", "state": "GA", "country": "United States"}}}}]}, "standing": {"placement": 2, "stats": {"score": {"value": 0}}}}, {"id": "93440241-1", "entrant": {"id": 21161523, "name": "Pokchop", "participants": [{"id": 19463419, "gamerTag": "Pokchop", "prefix": "", "user": {"location": {"city": "Atlanta", "state": "GA", "country": "United States"}}, "player": {"id": 150402, "gamerTag": "Pokchop", "prefix": "", "user": {"location": {"city": "Atlanta", "state": "GA", "country": "United States"}}}}]}, "standing": {"placement": 1, "stats": {"score": {"value": 2}}}}], "games": null}, {"id": 93440242, "state": 3, "round": -5, "fullRoundText": "Losers Round 2", "completedAt": 1756948916, "winnerId": 21159078, "slots": [{"id": "93440242-0", "entrant": {"id": 21159078, "name": "Eternia Corp. | HBKdoza", "participants": [{"id": 19461227, "gamerTag": "HBKdoza", "prefix": "Eternia Corp.", "user": {"location": {"city": "Decatur", "state": "GA", "country": "United States"}}, "player": {"id": 3426567, "gamerTag": "HBKdoza", "prefix": "Eternia Corp.", "user": {"location": {"city": "Decatur", "state": "GA", "country": "United States"}}}}]}, "standing": {"placement": 1, "stats": {"score": {"value": 2}}}}, {"id": "93440242-1", "entrant": {"id": 21162278, "name": "scum-xi", "participants": [{"id": 19464069, "gamerTag": "scum-xi", "prefix": "", "user": null, "player": {"id": 4956469, "gamerTag": "scum-xi", "prefix": "", "user": null}}]}, "standing": {"placement": 2, "stats": {"score": {"value": 1}}}}], "games": null}, {"id": 93440243, "state": 3, "round": -5, "fullRoundText": "Losers Round 2", "completedAt": 1756947240, "winnerId": 21158952, "slots": [{"id": "93440243-0", "entrant": {"id": 21158952, "name": "Momokins", "participants": [{"id": 19461101, "gamerTag": "Momokins", "prefix": "", "user": {"location": {"city": "Atlanta", "state": "GA", "country": "United States"}}, "player": {"id": 612216, "gamerTag": "Momokins", "prefix": "", "user": {"location": {"city": "Atlanta", "state": "GA", "country": "United States"}}}}]}, "standing": {"placement": 1, "stats": {"score": {"value": null}}}}, {"id": "93440243-1", "entrant": {"id": 21158735, "name": "duetosideeffects", "participants": [{"id": 19460909, "gamerTag": "duetosideeffects", "prefix": "", "user": {"location": {"city": "Atlanta", "state": "GA", "country": "United States"}}, "player": {"id": 924041, "gamerTag": "duetosideeffects", "prefix": "", "user": {"location": {"city": "Atlanta", "state": "GA", "country": "United States"}}}}]}, "standing": {"placement": 2, "stats": {"score": {"value": -1}}}}], "games": null}, {"id": 93440244, "state": 3, "round": -5, "fullRoundText": "Losers Round 2", "completedAt": 1756949197, "winnerId": 21160782, "slots": [{"id": "93440244-0", "entrant": {"id": 21160782, "name": "Greed", "participants": [{"id": 19462748, "gamerTag": "Greed", "prefix": "", "user": {"location": {"city": "Atlanta", "state": "GA", "country": "United States"}}, "player": {"id": 907329, "gamerTag": "Greed", "prefix": "", "user": {"location": {"city": "Atlanta", "state": "GA", "country": "United States"}}}}]}, "standing": {"placement": 1, "stats": {"score": {"value": 2}}}}, {"id": "93440244-1", "entrant": {"id": 21160990, "name": "Mirize", "participants": [{"id": 19462944, "gamerTag": "Mirize", "prefix": "", "user": {"location": {"city": "Atlanta", "state": "GA", "country": "United States"}}, "player": {"id": 893603, "gamerTag": "Mirize", "prefix": "", "user": {"location": {"city": "Atlanta", "state": "GA", "country": "United States"}}}}]}, "standing": {"placement": 2, "stats": {"score": {"value": 0}}}}], "games": null}, {"id": 93440245, "state": 3, "round": -5, "fullRoundText": "Losers Round 2", "completedAt": 1756948197, "winnerId": 21162697, "slots": [{"id": "93440245-0", "entrant": {"id": 21162261, "name": "Stiah", "participants": [{"id": 19464054, "gamerTag": "Stiah", "prefix": "", "user": {"location": {"city": "ATLANTA ZONE-6", "state": "GA", "country": "United States"}}, "player": {"id": 1563940, "gamerTag": "Stiah", "prefix": "", "user": {"location": {"city": "ATLANTA ZONE-6", "state": "GA", "country": "United States"}}}}]}, "standing": {"placement": 2, "stats": {"score": {"value": 0}}}}, {"id": "93440245-1", "entrant": {"id": 21162697, "name": "Cloud9Savage", "participants": [{"id": 19464435, "gamerTag": "Cloud9Savage", "prefix": null, "user": {"location": {"city": "McDonough", "state": "GA", "country": "United States"}}, "player": {"id": 4395697, "gamerTag": "Cloud9Savage", "prefix": null, "user": {"location": {"city": "McDonough", "state": "GA", "country": "United States"}}}}]}, "standing": {"placement": 1, "stats": {"score": {"value": 2}}}}], "games": null}, {"id": 93440246, "state": 3, "round": -5, "fullRoundText": "Losers Round 2", "completedAt": 1756949547, "winnerId": 21160635, "slots": [{"id": "93440246-0", "entrant": {"id": 21159383, "name": "Macho_Franchise", "participants": [{"id": 19461509, "gamerTag": "Macho_Franchise", "prefix": null, "user": {"location": {"city": "Marietta", "state": "GA", "country": "United States"}}, "player": {"id": 874463, "gamerTag": "Macho_Franchise", "prefix": null, "user": {"location": {"city": "Marietta", "state": "GA", "country": "United States"}}}}]}, "standing": {"placement": 2, "stats": {"score": {"value": 0}}}}, {"id": "93440246-1", "entrant": {"id": 21160635, "name": "Aneubys", "participants": [{"id": 19462631, "gamerTag": "Aneubys", "prefix": "", "user": {"location": {"city": "Smyrna", "state": "GA", "country": "United States"}}, "player": {"id": 3901259, "gamerTag": "Aneubys", "prefix": "", "user": {"location": {"city": "Smyrna", "state": "GA", "country": "United States"}}}}]}, "standing": {"placement": 1, "stats": {"score": {"value": 2}}}}], "games": null}, {"id": 93440247, "state": 3, "round": -5, "fullRoundText": "Losers Round 2", "completedAt": 1756949160, "winnerId": 21159170, "slots": [{"id": "93440247-0", "entrant": {"id": 21159170, "name": "Azarlith", "participants": [{"id": 19461309, "gamerTag": "Azarlith", "prefix": "", "user": {"location": {"city": "Lawrenceville", "state": null, "country": "United States"}}, "player": {"id": 3444743, "gamerTag": "Azarlith", "prefix": "", "user": {"location": {"city": "Lawrenceville", "state": null, "country": "United States"}}}}]}, "standing": {"placement": 1, "stats": {"score": {"value": 2}}}}, {"id": "93440247-1", "entrant": {"id": 21159221, "name": "Oni_Shogi", "participants": [{"id": 19461360, "gamerTag": "Oni_Shogi", "prefix": "", "user": {"location": {"city": "Atlanta", "state": "GA", "country": "United States"}}, "player": {"id": 1400524, "gamerTag": "Oni_Shogi", "prefix": "", "user": {"location": {"city": "Atlanta", "state": "GA", "country": "United States"}}}}]}, "standing": {"placement": 2, "stats": {"score": {"value": 0}}}}], "games": null}]}}}