{"event": {"sets": {"pageInfo": {"totalPages": 3, "total": 34}, "nodes": [{"id": 92749542, "state": 3, "round": -4, "fullRoundText": "Losers Round 1", "completedAt": 1755380468, "winnerId": 20989021, "slots": [{"id": "92749542-0", "entrant": {"id": 20982756, "name": "Evernight", "participants": [{"id": 19302967, "gamerTag": "Evernight", "prefix": null, "user": {"location": {"city": "Macon", "state": "GA", "country": "United States"}}, "player": {"id": 548064, "gamerTag": "Evernight", "prefix": null, "user": {"location": {"city": "Macon", "state": "GA", "country": "United States"}}}}]}, "standing": {"placement": 2, "stats": {"score": {"value": -1}}}}, {"id": "92749542-1", "entrant": {"id": 20989021, "name": "Midira", "participants": [{"id": 19308019, "gamerTag": "Midira", "prefix": null, "user": {"location": {"city": "Kathleen", "state": "GA", "country": "United States"}}, "player": {"id": 779164, "gamerTag": "Midira", "prefix": null, "user": {"location": {"city": "Kathleen", "state": "GA", "country": "United States"}}}}]}, "standing": {"placement": 1, "stats": {"score": {"value": null}}}}], "games": null}, {"id": 92749546, "state": 3, "round": -4, "fullRoundText": "Losers Round 1", "completedAt": 1755382551, "winnerId": 20989455, "slots": [{"id": "92749546-0", "entrant": {"id": 20942796, "name": "SE UNI | Shuri", "participants": [{"id": 19268251, "gamerTag": "Shuri", "prefix": "SE UNI", "user": {"location": {"city": "Bonaire", "state": "GA", "country": "United States"}}, "player": {"id": 183894, "gamerTag": "Shuri", "prefix": "SE UNI", "user": {"location": {"city": "Bonaire", "state": "GA", "country": "United States"}}}}]}, "standing": {"placement": 2, "stats": {"score": {"value": 0}}}}, {"id": "92749546-1", "entrant": {"id": 20989455, "name": "BRUHnana", "participants": [{"id": 19308399, "gamerTag": "BRUHnana", "prefix": null, "user": {"location": {"city": "Warner Robins", "state": "GA", "country": "United States"}}, "player": {"id": 3570019, "gamerTag": "BRUHnana", "prefix": null, "user": {"location": {"city": "Warner Robins", "state": "GA", "country": "United States"}}}}]}, "standing": {"placement": 1, "stats": {"score": {"value": 2}}}}], "games": null}, {"id": 92749470, "state": 3, "round": 1, "fullRoundText": "Winners Round 1", "completedAt": 1755380430, "winnerId": 20989071, "slots": [{"id": "92749470-0", "entrant": {"id": 20989021, "name": "Midira", "participants": [{"id": 19308019, "gamerTag": "Midira", "prefix": null, "user": {"location": {"city": "Kathleen", "state": "GA", "country": "United States"}}, "player": {"id": 779164, "gamerTag": "Midira", "prefix": null, "user": {"location": {"city": "Kathleen", "state": "GA", "country": "United States"}}}}]}, "standing": {"placement": 2, "stats": {"score": {"value": 1}}}}, {"id": "92749470-1", "entrant": {"id": 20989071, "name": "RBG | Cpain20", "participants": [{"id": 19308063, "gamerTag": "Cpain20", "prefix": "RBG", "user": {"location": {"city": "Macon", "state": "GA", "country": "United States"}}, "player": {"id": 1528477, "gamerTag": "Cpain20", "prefix": "RBG", "user": {"location": {"city": "Macon", "state": "GA", "country": "United States"}}}}]}, "standing": {"placement": 1, "stats": {"score": {"value": 2}}}}], "games": null}, {"id": 92749478, "state": 3, "round": 1, "fullRoundText": "Winners Round 1", "completedAt": 1755380140, "winnerId": 20989017, "slots": [{"id": "92749478-0", "entrant": {"id": 20989017, "name": "DirtyDan", "participants": [{"id": 19308016, "gamerTag": "DirtyDan", "prefix": "", "user": {"location": {"city": "Centerville", "state": "GA", "country": "United States"}}, "player": {"id": 1995257, "gamerTag": "DirtyDan", "prefix": "", "user": {"location": {"city": "Centerville", "state": "GA", "country": "United States"}}}}]}, "standing": {"placement": 1, "stats": {"score": {"value": 2}}}}, {"id": "92749478-1", "entrant": {"id": 20989455, "name": "BRUHnana", "participants": [{"id": 19308399, "gamerTag": "BRUHnana", "prefix": null, "user": {"location": {"city": "Warner Robins", "state": "GA", "country": "United States"}}, "player": {"id": 3570019, "gamerTag": "BRUHnana", "prefix": null, "user": {"location": {"city": "Warner Robins", "state": "GA", "country": "United States"}}}}]}, "standing": {"placement": 2, "stats": {"score": {"value": 0}}}}], "games": null}]}}}