{"event": {"sets": {"pageInfo": {"totalPages": 3, "total": 41}, "nodes": [{"id": 94550984, "state": 3, "round": 2, "fullRoundText": "Winners Round 2", "completedAt": 1759365143, "winnerId": 21438218, "slots": [{"id": "94550984-0", "entrant": {"id": 21438218, "name": "Armanisaint", "participants": [{"id": 19703713, "gamerTag": "Armanisaint", "prefix": null, "user": {"location": {"city": "Roswell", "state": "GA", "country": "United States"}}, "player": {"id": 3943806, "gamerTag": "Armanisaint", "prefix": null, "user": {"location": {"city": "Roswell", "state": "GA", "country": "United States"}}}}]}, "standing": {"placement": 1, "stats": {"score": {"value": 2}}}}, {"id": "94550984-1", "entrant": {"id": 21436171, "name": "Azarlith", "participants": [{"id": 19701891, "gamerTag": "Azarlith", "prefix": "", "user": {"location": {"city": "Lawrenceville", "state": null, "country": "United States"}}, "player": {"id": 3444743, "gamerTag": "Azarlith", "prefix": "", "user": {"location": {"city": "Lawrenceville", "state": null, "country": "United States"}}}}]}, "standing": {"placement": 2, "stats": {"score": {"value": 0}}}}], "games": null}, {"id": 94551040, "state": 3, "round": -4, "fullRoundText": "Losers Round 1", "completedAt": 1759365572, "winnerId": 21396196, "slots": [{"id": "94551040-0", "entrant": {"id": 21396196, "name": "finnickyfinn", "participants": [{"id": 19667467, "gamerTag": "finnickyfinn", "prefix": null, "user": {"location": {"city": null, "state": null, "country": "United States"}}, "player": {"id": 3561899, "gamerTag": "finnickyfinn", "prefix": null, "user": {"location": {"city": null, "state": null, "country": "United States"}}}}]}, "standing": {"placement": 1, "stats": {"score": {"value": 2}}}}, {"id": "94551040-1", "entrant": {"id": 21439159, "name": "down4", "participants": [{"id": 19704573, "gamerTag": "down4", "prefix": "", "user": null, "player": {"id": 5002259, "gamerTag": "down4", "prefix": "", "user": null}}]}, "standing": {"placement": 2, "stats": {"score": {"value": 0}}}}], "games": null}, {"id": 94551034, "state": 3, "round": -4, "fullRoundText": "Losers Round 1", "completedAt": 1759366184, "winnerId": 21438462, "slots": [{"id": "94551034-0", "entrant": {"id": 21436171, "name": "Azarlith", "participants": [{"id": 19701891, "gamerTag": "Azarlith", "prefix": "", "user": {"location": {"city": "Lawrenceville", "state": null, "country": "United States"}}, "player": {"id": 3444743, "gamerTag": "Azarlith", "prefix": "", "user": {"location": {"city": "Lawrenceville", "state": null, "country": "United States"}}}}]}, "standing": {"placement": 2, "stats": {"score": {"value": 1}}}}, {"id": "94551034-1", "entrant": {"id": 21438462, "name": "4o4 | blitz", "participants": [{"id": 19703936, "gamerTag": "blitz", "prefix": "4o4", "user": {"location": {"city": "Lawrenceville", "state": "GA", "country": "United States"}}, "player": {"id": 2228539, "gamerTag": "blitz", "prefix": "4o4", "user": {"location": {"city": "Lawrenceville", "state": "GA", "country": "United States"}}}}]}, "standing": {"placement": 1, "stats": {"score": {"value": 2}}}}], "games": null}, {"id": 94551036, "state": 3, "round": -4, "fullRoundText": "Losers Round 1", "completedAt": 1759366258, "winnerId": 21437404, "slots": [{"id": "94551036-0", "entrant": {"id": 21424434, "name": "ItsManiBro", "participants": [{"id": 19692087, "gamerTag": "ItsManiBro", "prefix": null, "user": {"location": {"city": "Cartersville", "state": "GA", "country": "United States"}}, "player": {"id": 3511353, "gamerTag": "ItsManiBro", "prefix": null, "user": {"location": {"city": "Cartersville", "state": "GA", "country": "United States"}}}}]}, "standing": {"placement": 2, "stats": {"score": {"value": 1}}}}, {"id": "94551036-1", "entrant": {"id": 21437404, "name": "Macho_Franchise", "participants": [{"id": 19702987, "gamerTag": "Macho_Franchise", "prefix": null, "user": {"location": {"city": "Marietta", "state": "GA", "country": "United States"}}, "player": {"id": 874463, "gamerTag": "Macho_Franchise", "prefix": null, "user": {"location": {"city": "Marietta", "state": "GA", "country": "United States"}}}}]}, "standing": {"placement": 1, "stats": {"score": {"value": 2}}}}], "games": null}, {"id": 94551037, "state": 3, "round": -4, "fullRoundText": "Losers Round 1", "completedAt": 1759365907, "winnerId": 21438577, "slots": [{"id": "94551037-0", "entrant": {"id": 21438577, "name": "Smoochie", "participants": [{"id": 19704064, "gamerTag": "Smoochie", "prefix": null, "user": {"location": {"city": null, "state": "GA", "country": "United States"}}, "player": {"id": 2877248, "gamerTag": "Smoochie", "prefix": null, "user": {"location": {"city": null, "state": "GA", "country": "United States"}}}}]}, "standing": {"placement": 1, "stats": {"score": {"value": 2}}}}, {"id": "94551037-1", "entrant": {"id": 21439345, "name": "TTMG | IlloriVice", "participants": [{"id": 19704726, "gamerTag": "IlloriVice", "prefix": "TTMG", "user": {"location": {"city": "Atlanta", "state": "GA", "country": "United States"}}, "player": {"id": 4981273, "gamerTag": "IlloriVice", "prefix": "TTMG", "user": {"location": {"city": "Atlanta", "state": "GA", "country": "United States"}}}}]}, "standing": {"placement": 2, "stats": {"score": {"value": 0}}}}], "games": null}, {"id": 94551038, "state": 3, "round": -4, "fullRoundText": "Losers Round 1", "completedAt": 1759366032, "winnerId": 21436623, "slots": [{"id": "94551038-0", "entrant": {"id": 21436623, "name": "Aneubys", "participants": [{"id": 19702278, "gamerTag": "Aneubys", "prefix": "", "user": {"location": {"city": "Smyrna", "state": "GA", "country": "United States"}}, "player": {"id": 3901259, "gamerTag": "Aneubys", "prefix": "", "user": {"location": {"city": "Smyrna", "state": "GA", "country": "United States"}}}}]}, "standing": {"placement": 1, "stats": {"score": {"value": 2}}}}, {"id": "94551038-1", "entrant": {"id": 21437615, "name": "Momokins", "participants": [{"id": 19703179, "gamerTag": "Momokins", "prefix": "", "user": {"location": {"city": "Atlanta", "state": "GA", "country": "United States"}}, "player": {"id": 612216, "gamerTag": "Momokins", "prefix": "", "user": {"location": {"city": "Atlanta", "state": "GA", "country": "United States"}}}}]}, "standing": {"placement": 2, "stats": {"score": {"value": 1}}}}], "games": null}, {"id": 94550962, "state": 3, "round": 1, "fullRoundText": "Winners Round 1", "completedAt": 1759364685, "winnerId": 21438342, "slots": [{"id": "94550962-0", "entrant": {"id": 21438342, "name": "C-2", "participants": [{"id": 19703825, "gamerTag": "C-2", "prefix": "", "user": {"location": {"city": "Atlanta", "state": "GA", "country": "United States"}}, "player": {"id": 1228856, "gamerTag": "C-2", "prefix": "", "user": {"location": {"city": "Atlanta", "state": "GA", "country": "United States"}}}}]}, "standing": {"placement": 1, "stats": {"score": {"value": 2}}}}, {"id": "94550962-1", "entrant": {"id": 21438462, "name": "4o4 | blitz", "participants": [{"id": 19703936, "gamerTag": "blitz", "prefix": "4o4", "user": {"location": {"city": "Lawrenceville", "state": "GA", "country": "United States"}}, "player": {"id": 2228539, "gamerTag": "blitz", "prefix": "4o4", "user": {"location": {"city": "Lawrenceville", "state": "GA", "country": "United States"}}}}]}, "standing": {"placement": 2, "stats": {"score": {"value": 0}}}}], "games": null}, {"id": 94550966, "state": 3, "round": 1, "fullRoundText": "Winners Round 1", "completedAt": 1759364630, "winnerId": 21439183, "slots": [{"id": "94550966-0", "entrant": {"id": 21437404, "name": "Macho_Franchise", "participants": [{"id": 19702987, "gamerTag": "Macho_Franchise", "prefix": null, "user": {"location": {"city": "Marietta", "state": "GA", "country": "United States"}}, "player": {"id": 874463, "gamerTag": "Macho_Franchise", "prefix": null, "user": {"location": {"city": "Marietta", "state": "GA", "country": "United States"}}}}]}, "standing": {"placement": 2, "stats": {"score": {"value": 0}}}}, {"id": "94550966-1", "entrant": {"id": 21439183, "name": "RD | Beans", "participants": [{"id": 19704593, "gamerTag": "Beans", "prefix": "RD", "user": {"location": {"city": "Lawrenceville", "state": "GA", "country": "United States"}}, "player": {"id": 2899057, "gamerTag": "Beans", "prefix": "RD", "user": {"location": {"city": "Lawrenceville", "state": "GA", "country": "United States"}}}}]}, "standing": {"placement": 1, "stats": {"score": {"value": 2}}}}], "games": null}, {"id": 94550968, "state": 3, "round": 1, "fullRoundText": "Winners Round 1", "completedAt": 1759364615, "winnerId": 21436623, "slots": [{"id": "94550968-0", "entrant": {"id": 21436623, "name": "Aneubys", "participants": [{"id": 19702278, "gamerTag": "Aneubys", "prefix": "", "user": {"location": {"city": "Smyrna", "state": "GA", "country": "United States"}}, "player": {"id": 3901259, "gamerTag": "Aneubys", "prefix": "", "user": {"location": {"city": "Smyrna", "state": "GA", "country": "United States"}}}}]}, "standing": {"placement": 1, "stats": {"score": {"value": 2}}}}, {"id": "94550968-1", "entrant": {"id": 21439345, "name": "TTMG | IlloriVice", "participants": [{"id": 19704726, "gamerTag": "IlloriVice", "prefix": "TTMG", "user": {"location": {"city": "Atlanta", "state": "GA", "country": "United States"}}, "player": {"id": 4981273, "gamerTag": "IlloriVice", "prefix": "TTMG", "user": {"location": {"city": "Atlanta", "state": "GA", "country": "United States"}}}}]}, "standing": {"placement": 2, "stats": {"score": {"value": 0}}}}], "games": null}, {"id": 94550970, "state": 3, "round": 1, "fullRoundText": "Winners Round 1", "completedAt": 1759364856, "winnerId": 21438577, "slots": [{"id": "94550970-0", "entrant": {"id": 21437615, "name": "Momokins", "participants": [{"id": 19703179, "gamerTag": "Momokins", "prefix": "", "user": {"location": {"city": "Atlanta", "state": "GA", "country": "United States"}}, "player": {"id": 612216, "gamerTag": "Momokins", "prefix": "", "user": {"location": {"city": "Atlanta", "state": "GA", "country": "United States"}}}}]}, "standing": {"placement": 2, "stats": {"score": {"value": 1}}}}, {"id": "94550970-1", "entrant": {"id": 21438577, "name": "Smoochie", "participants": [{"id": 19704064, "gamerTag": "Smoochie", "prefix": null, "user": {"location": {"city": null, "state": "GA", "country": "United States"}}, "player": {"id": 2877248, "gamerTag": "Smoochie", "prefix": null, "user": {"location": {"city": null, "state": "GA", "country": "United States"}}}}]}, "standing": {"placement": 1, "stats": {"score": {"value": 2}}}}], "games": null}, {"id": 94550974, "state": 3, "round": 1, "fullRoundText": "Winners Round 1", "completedAt": 1759364821, "winnerId": 21437435, "slots": [{"id": "94550974-0", "entrant": {"id": 21437435, "name": "Limitless_GuNzZ", "participants": [{"id": 19703020, "gamerTag": "Limitless_GuNzZ", "prefix": "", "user": {"location": {"city": "Atlanta", "state": "GA", "country": "United States"}}, "player": {"id": 1627766, "gamerTag": "Limitless_GuNzZ", "prefix": "", "user": {"location": {"city": "Atlanta", "state": "GA", "country": "United States"}}}}]}, "standing": {"placement": 1, "stats": {"score": {"value": 2}}}}, {"id": "94550974-1", "entrant": {"id": 21439159, "name": "down4", "participants": [{"id": 19704573, "gamerTag": "down4", "prefix": "", "user": null, "player": {"id": 5002259, "gamerTag": "down4", "prefix": "", "user": null}}]}, "standing": {"placement": 2, "stats": {"score": {"value": 0}}}}], "games": null}]}}}