{"phase": {"seeds": {"pageInfo": {"totalPages": 1, "total": 20}, "nodes": [{"id": 37014239, "seedNum": 1, "entrant": {"id": 21544805, "name": "Colbol", "participants": [{"id": 19797459, "gamerTag": "Colbol", "prefix": "", "user": {"location": {"city": "Tucker", "state": "GA", "country": "United States"}}, "player": {"id": 1009, "gamerTag": "Colbol", "prefix": "", "user": {"location": {"city": "Tucker", "state": "GA", "country": "United States"}}}}]}}, {"id": 37012387, "seedNum": 4, "entrant": {"id": 21543130, "name": "skyguy | Chris Danger", "participants": [{"id": 19795941, "gamerTag": "Chris Danger", "prefix": "skyguy", "user": {"location": {"city": "Atlanta", "state": "GA", "country": "United States"}}, "player": {"id": 2808268, "gamerTag": "Chris Danger", "prefix": "skyguy", "user": {"location": {"city": "Atlanta", "state": "GA", "country": "United States"}}}}]}}, {"id": 37009965, "seedNum": 3, "entrant": {"id": 21541513, "name": "skyguy | bag", "participants": [{"id": 19794491, "gamerTag": "bag", "prefix": "skyguy", "user": {"location": {"city": "Atlanta", "state": "GA", "country": "United States"}}, "player": {"id": 271346, "gamerTag": "bag", "prefix": "skyguy", "user": {"location": {"city": "Atlanta", "state": "GA", "country": "United States"}}}}]}}, {"id": 36975319, "seedNum": 2, "entrant": {"id": 21518013, "name": "Panko", "participants": [{"id": 19773471, "gamerTag": "Panko", "prefix": null, "user": {"location": {"city": "Atlanta", "state": "GA", "country": "United States"}}, "player": {"id": 241093, "gamerTag": "Panko", "prefix": null, "user": {"location": {"city": "Atlanta", "state": "GA", "country": "United States"}}}}]}}, {"id": 36973917, "seedNum": 5, "entrant": {"id": 21516837, "name": "N/a | C$", "participants": [{"id": 19772513, "gamerTag": "C$", "prefix": "N/a", "user": {"location": null}, "player": {"id": 228175, "gamerTag": "C$", "prefix": "N/a", "user": {"location": null}}}]}}, {"id": 37011586, "seedNum": 7, "entrant": {"id": 21542616, "name": "cheeks", "participants": [{"id": 19795487, "gamerTag": "cheeks", "prefix": "", "user": {"location": {"city": "Greenville", "state": "SC", "country": "United States"}}, "player": {"id": 2168044, "gamerTag": "cheeks", "prefix": "", "user": {"location": {"city": "Greenville", "state": "SC", "country": "United States"}}}}]}}, {"id": 37014547, "seedNum": 9, "entrant": {"id": 21545073, "name": "citizendog", "participants": [{"id": 19797704, "gamerTag": "citizendog", "prefix": "", "user": {"location": {"city": "Monroe", "state": "GA", "country": "United States"}}, "player": {"id": 176325, "gamerTag": "citizendog", "prefix": "", "user": {"location": {"city": "Monroe", "state": "GA", "country": "United States"}}}}]}}, {"id": 36984918, "seedNum": 12, "entrant": {"id": 21524854, "name": "Tyme", "participants": [{"id": 19779140, "gamerTag": "Tyme", "prefix": null, "user": {"location": {"city": null, "state": null, "country": null}}, "player": {"id": 325589, "gamerTag": "Tyme", "prefix": null, "user": {"location": {"city": null, "state": null, "country": null}}}}]}}, {"id": 36977569, "seedNum": 6, "entrant": {"id": 21520014, "name": "diremaykr", "participants": [{"id": 19775146, "gamerTag": "diremaykr", "prefix": "", "user": {"location": {"city": "Buford", "state": "GA", "country": "United States"}}, "player": {"id": 3207366, "gamerTag": "diremaykr", "prefix": "", "user": {"location": {"city": "Buford", "state": "GA", "country": "United States"}}}}]}}, {"id": 37013386, "seedNum": 10, "entrant": {"id": 21544024, "name": "Stenaven", "participants": [{"id": 19796742, "gamerTag": "Stenaven", "prefix": "", "user": {"location": {"city": "", "state": "GA", "country": "United States"}}, "player": {"id": 229871, "gamerTag": "Stenaven", "prefix": "", "user": {"location": {"city": "", "state": "GA", "country": "United States"}}}}]}}, {"id": 36999628, "seedNum": 11, "entrant": {"id": 21535012, "name": "blaise", "participants": [{"id": 19788200, "gamerTag": "blaise", "prefix": "", "user": {"location": {"city": "douglasville", "state": "GA", "country": "United States"}}, "player": {"id": 1326121, "gamerTag": "blaise", "prefix": "", "user": {"location": {"city": "douglasville", "state": "GA", "country": "United States"}}}}]}}, {"id": 37007819, "seedNum": 17, "entrant": {"id": 21539980, "name": "TSOAP | MuchOlmec", "participants": [{"id": 19793055, "gamerTag": "MuchOlmec", "prefix": "TSOAP", "user": {"location": {"city": "Athens", "state": "GA", "country": "United States"}}, "player": {"id": 1105460, "gamerTag": "MuchOlmec", "prefix": "TSOAP", "user": {"location": {"city": "Athens", "state": "GA", "country": "United States"}}}}]}}, {"id": 37015376, "seedNum": 13, "entrant": {"id": 21545742, "name": "noided", "participants": [{"id": 19798307, "gamerTag": "noided", "prefix": "", "user": {"location": {"city": "Atlanta", "state": "GA", "country": "United States"}}, "player": {"id": 2586521, "gamerTag": "noided", "prefix": "", "user": {"location": {"city": "Atlanta", "state": "GA", "country": "United States"}}}}]}}, {"id": 37013969, "seedNum": 14, "entrant": {"id": 21544557, "name": "Deign", "participants": [{"id": 19797243, "gamerTag": "Deign", "prefix": "", "user": {"location": {"city": null, "state": null, "country": "United States"}}, "player": {"id": 325595, "gamerTag": "Deign", "prefix": "", "user": {"location": {"city": null, "state": null, "country": "United States"}}}}]}}, {"id": 37011863, "seedNum": 15, "entrant": {"id": 21542849, "name": "KHW | Frumps", "participants": [{"id": 19795692, "gamerTag": "Frumps", "prefix": "KHW", "user": {"location": {"city": "Greenville", "state": "SC", "country": "United States"}}, "player": {"id": 2844590, "gamerTag": "Frumps", "prefix": "KHW", "user": {"location": {"city": "Greenville", "state": "SC", "country": "United States"}}}}]}}, {"id": 37009968, "seedNum": 19, "entrant": {"id": 21541516, "name": "Permafrost", "participants": [{"id": 19794494, "gamerTag": "Permafrost", "prefix": "", "user": {"location": {"city": "Atlanta", "state": "GA", "country": "United States"}}, "player": {"id": 1256898, "gamerTag": "Permafrost", "prefix": "", "user": {"location": {"city": "Atlanta", "state": "GA", "country": "United States"}}}}]}}, {"id": 37010996, "seedNum": 8, "entrant": {"id": 21542221, "name": "Kanye Midwest", "participants": [{"id": 19795174, "gamerTag": "Kanye Midwest", "prefix": "", "user": {"location": {"city": "Bloomington", "state": "IN", "country": "United States"}}, "player": {"id": 23303, "gamerTag": "Kanye Midwest", "prefix": "", "user": {"location": {"city": "Bloomington", "state": "IN", "country": "United States"}}}}]}}, {"id": 37008975, "seedNum": 16, "entrant": {"id": 21540822, "name": "Evil | JackTheGiant", "participants": [{"id": 19793838, "gamerTag": "JackTheGiant", "prefix": "Evil", "user": {"location": {"city": "Woodstock", "state": "GA", "country": "United States"}}, "player": {"id": 2393715, "gamerTag": "JackTheGiant", "prefix": "Evil", "user": {"location": {"city": "Woodstock", "state": "GA", "country": "United States"}}}}]}}, {"id": 37012462, "seedNum": 18, "entrant": {"id": 21543195, "name": "OU | Wiza", "participants": [{"id": 19796002, "gamerTag": "Wiza", "prefix": "OU", "user": {"location": {"city": "Atlanta", "state": "GA", "country": "United States"}}, "player": {"id": 71442, "gamerTag": "Wiza", "prefix": "OU", "user": {"location": {"city": "Atlanta", "state": "GA", "country": "United States"}}}}]}}, {"id": 37015754, "seedNum": 20, "entrant": {"id": 21546049, "name": "Nomad", "participants": [{"id": 19798570, "gamerTag": "Nomad", "prefix": "", "user": {"location": {"city": null, "state": null, "country": "United States"}}, "player": {"id": 2332877, "gamerTag": "Nomad", "prefix": "", "user": {"location": {"city": null, "state": null, "country": "United States"}}}}]}}]}}}