{"event": {"sets": {"pageInfo": {"totalPages": 22, "total": 318}, "nodes": [{"id": 92227496, "state": 3, "round": -4, "fullRoundText": "Losers Round 1", "completedAt": 1754168596, "winnerId": 20511683, "slots": [{"id": "92227496-0", "entrant": {"id": 20511683, "name": "BE | Derp", "participants": [{"id": 18887902, "gamerTag": "Derp", "prefix": "BE", "user": {"location": {"city": "", "state": "GA", "country": "United States"}}, "player": {"id": 2080364, "gamerTag": "Derp", "prefix": "BE", "user": {"location": {"city": "", "state": "GA", "country": "United States"}}}}]}, "standing": {"placement": 1, "stats": {"score": {"value": 2}}}}, {"id": "92227496-1", "entrant": {"id": 20736227, "name": "Wyndeezi", "participants": [{"id": 19082951, "gamerTag": "Wyndeezi", "prefix": "", "user": {"location": {"city": "Lawrenceville", "state": "GA", "country": "United States"}}, "player": {"id": 3254098, "gamerTag": "Wyndeezi", "prefix": "", "user": {"location": {"city": "Lawrenceville", "state": "GA", "country": "United States"}}}}]}, "standing": {"placement": 2, "stats": {"score": {"value": 0}}}}], "games": null}, {"id": 92227734, "state": 3, "round": -4, "fullRoundText": "Losers Round 1", "completedAt": 1754177049, "winnerId": 20489402, "slots": [{"id": "92227734-0", "entrant": {"id": 20489402, "name": "LBE | Savant", "participants": [{"id": 18868251, "gamerTag": "Savant", "prefix": "LBE", "user": {"location": {"city": "Athens", "state": "GA", "country": "United States"}}, "player": {"id": 1944044, "gamerTag": "Savant", "prefix": "LBE | CC", "user": {"location": {"city": "Athens", "state": "GA", "country": "United States"}}}}]}, "standing": {"placement": 1, "stats": {"score": {"value": 2}}}}, {"id": "92227734-1", "entrant": {"id": 20492307, "name": "EDLN | BWU | GOOMBA!", "participants": [{"id": 18870830, "gamerTag": "GOOMBA!", "prefix": "EDLN | BWU", "user": {"location": {"city": "Johns Creek", "state": "GA", "country": "United States"}}, "player": {"id": 1052642, "gamerTag": "GOOMBA!", "prefix": "EDLN | BWU", "user": {"location": {"city": "Johns Creek", "state": "GA", "country": "United States"}}}}]}, "standing": {"placement": 2, "stats": {"score": {"value": 0}}}}], "games": null}, {"id": 92227307, "state": 3, "round": -4, "fullRoundText": "Losers Round 1", "completedAt": 1754169185, "winnerId": 20488008, "slots": [{"id": "92227307-0", "entrant": {"id": 20488008, "name": "Sacred", "participants": [{"id": 18867157, "gamerTag": "Sacred", "prefix": "", "user": {"location": {"city": null, "state": null, "country": "United States"}}, "player": {"id": 1007555, "gamerTag": "Sacred", "prefix": "", "user": {"location": {"city": null, "state": null, "country": "United States"}}}}]}, "standing": {"placement": 1, "stats": {"score": {"value": 2}}}}, {"id": "92227307-1", "entrant": {"id": 20605149, "name": "Scoob", "participants": [{"id": 18969159, "gamerTag": "Scoob", "prefix": null, "user": {"location": {"city": "Birmingham", "state": "AL", "country": "United States"}}, "player": {"id": 2320668, "gamerTag": "Scoob", "prefix": null, "user": {"location": {"city": "Birmingham", "state": "AL", "country": "United States"}}}}]}, "standing": {"placement": 2, "stats": {"score": {"value": 0}}}}], "games": null}, {"id": 92227736, "state": 3, "round": -4, "fullRoundText": "Losers Round 1", "completedAt": 1754176325, "winnerId": 20611006, "slots": [{"id": "92227736-0", "entrant": {"id": 20611006, "name": "REAL | JoseJFB", "participants": [{"id": 18974125, "gamerTag": "JoseJFB", "prefix": "REAL", "user": {"location": {"city": "Atlanta", "state": "GA", "country": "United States"}}, "player": {"id": 29578, "gamerTag": "JoseJFB", "prefix": "REAL", "user": {"location": {"city": "Atlanta", "state": "GA", "country": "United States"}}}}]}, "standing": {"placement": 1, "stats": {"score": {"value": 2}}}}, {"id": "92227736-1", "entrant": {"id": 20803505, "name": "Mr. L", "participants": [{"id": 19145596, "gamerTag": "Mr. L", "prefix": "", "user": {"location": {"city": "Starkville", "state": "MS", "country": "United States"}}, "player": {"id": 3604371, "gamerTag": "Mr. L", "prefix": "", "user": {"location": {"city": "Starkville", "state": "MS", "country": "United States"}}}}]}, "standing": {"placement": 2, "stats": {"score": {"value": 0}}}}], "games": null}, {"id": 92227948, "state": 3, "round": -4, "fullRoundText": "Losers Round 1", "completedAt": 1754175140, "winnerId": 20488729, "slots": [{"id": "92227948-0", "entrant": {"id": 20490196, "name": "Cute Fluffy Puppy Lover", "participants": [{"id": 18868963, "gamerTag": "Cute Fluffy Puppy Lover", "prefix": "", "user": {"location": {"city": "Atlanta", "state": "GA", "country": "United States"}}, "player": {"id": 547843, "gamerTag": "Cute Fluffy Puppy Lover", "prefix": "", "user": {"location": {"city": "Atlanta", "state": "GA", "country": "United States"}}}}]}, "standing": {"placement": 2, "stats": {"score": {"value": 1}}}}, {"id": "92227948-1", "entrant": {"id": 20488729, "name": "BlaZR", "participants": [{"id": 18867672, "gamerTag": "BlaZR", "prefix": "", "user": {"location": {"city": "ur mum", "state": null, "country": "United States"}}, "player": {"id": 1804122, "gamerTag": "BlaZR", "prefix": "", "user": {"location": {"city": "ur mum", "state": null, "country": "United States"}}}}]}, "standing": {"placement": 1, "stats": {"score": {"value": 2}}}}], "games": null}, {"id": 92227498, "state": 3, "round": -4, "fullRoundText": "Losers Round 1", "completedAt": 1754167086, "winnerId": 20699303, "slots": [{"id": "92227498-0", "entrant": {"id": 20745172, "name": "Orion | m0use", "participants": [{"id": 19090916, "gamerTag": "m0use", "prefix": "Orion", "user": {"location": {"city": "Clinton", "state": "TN", "country": "United States"}}, "player": {"id": 1471378, "gamerTag": "m0use", "prefix": "Orion", "user": {"location": {"city": "Clinton", "state": "TN", "country": "United States"}}}}]}, "standing": {"placement": 2, "stats": {"score": {"value": -1}}}}, {"id": "92227498-1", "entrant": {"id": 20699303, "name": "RM | WFF | Sakruoi", "participants": [{"id": 19050928, "gamerTag": "Sakruoi", "prefix": "RM | WFF", "user": {"location": {"city": "atlanta", "state": "GA", "country": "United States"}}, "player": {"id": 1230555, "gamerTag": "Sakruoi", "prefix": "RM | WFF", "user": {"location": {"city": "atlanta", "state": "GA", "country": "United States"}}}}]}, "standing": {"placement": 1, "stats": {"score": {"value": null}}}}], "games": null}, {"id": 92227500, "state": 3, "round": -4, "fullRoundText": "Losers Round 1", "completedAt": 1754168180, "winnerId": 20731023, "slots": [{"id": "92227500-0", "entrant": {"id": 20724332, "name": "FClub | Conner Sanders", "participants": [{"id": 19073026, "gamerTag": "Conner Sanders", "prefix": "FClub", "user": {"location": {"city": "Brandon", "state": "MS", "country": "United States"}}, "player": {"id": 151456, "gamerTag": "Conner Sanders", "prefix": "FClub", "user": {"location": {"city": "Brandon", "state": "MS", "country": "United States"}}}}]}, "standing": {"placement": 2, "stats": {"score": {"value": -1}}}}, {"id": "92227500-1", "entrant": {"id": 20731023, "name": "camcam", "participants": [{"id": 19078662, "gamerTag": "camcam", "prefix": "", "user": {"location": {"city": "Lawrenceville", "state": "GA", "country": "United States"}}, "player": {"id": 3796438, "gamerTag": "camcam", "prefix": "", "user": {"location": {"city": "Lawrenceville", "state": "GA", "country": "United States"}}}}]}, "standing": {"placement": 1, "stats": {"score": {"value": null}}}}], "games": null}, {"id": 92227738, "state": 3, "round": -4, "fullRoundText": "Losers Round 1", "completedAt": 1754176127, "winnerId": 20865147, "slots": [{"id": "92227738-0", "entrant": {"id": 20865147, "name": "KageGato", "participants": [{"id": 19167093, "gamerTag": "KageGato", "prefix": "", "user": {"location": {"city": "Valdosta", "state": "GA", "country": "United States"}}, "player": {"id": 1392649, "gamerTag": "KageGato", "prefix": "", "user": {"location": {"city": "Valdosta", "state": "GA", "country": "United States"}}}}]}, "standing": {"placement": 1, "stats": {"score": {"value": 2}}}}, {"id": "92227738-1", "entrant": {"id": 20750950, "name": "JustVoidzzz", "participants": [{"id": 19096425, "gamerTag": "JustVoidzzz", "prefix": "", "user": {"location": {"city": null, "state": null, "country": "United States"}}, "player": {"id": 4843167, "gamerTag": "JustVoidzzz", "prefix": "", "user": {"location": {"city": null, "state": null, "country": "United States"}}}}]}, "standing": {"placement": 2, "stats": {"score": {"value": 1}}}}], "games": null}, {"id": 92227309, "state": 3, "round": -4, "fullRoundText": "Losers Round 1", "completedAt": 1754167486, "winnerId": 20535710, "slots": [{"id": "92227309-0", "entrant": {"id": 20535710, "name": "Coraz\u00f3nCodi", "participants": [{"id": 18909366, "gamerTag": "Coraz\u00f3nCodi", "prefix": "", "user": {"location": {"city": "Stockbridge", "state": "GA", "country": "United States"}}, "player": {"id": 295892, "gamerTag": "Coraz\u00f3nCodi", "prefix": "", "user": {"location": {"city": "Stockbridge", "state": "GA", "country": "United States"}}}}]}, "standing": {"placement": 1, "stats": {"score": {"value": 0}}}}, {"id": "92227309-1", "entrant": {"id": 20689942, "name": "PL | Ner\u0153", "participants": [{"id": 19042898, "gamerTag": "Ner\u0153", "prefix": "PL", "user": {"location": {"city": "Carrollton", "state": "GA", "country": "United States"}}, "player": {"id": 4349436, "gamerTag": "Ner\u0153", "prefix": "PL", "user": {"location": {"city": "Carrollton", "state": "GA", "country": "United States"}}}}]}, "standing": {"placement": 2, "stats": {"score": {"value": -1}}}}], "games": null}, {"id": 92227950, "state": 3, "round": -4, "fullRoundText": "Losers Round 1", "completedAt": 1754174009, "winnerId": 20842149, "slots": [{"id": "92227950-0", "entrant": {"id": 20842149, "name": "FANN", "participants": [{"id": 19178967, "gamerTag": "FANN", "prefix": "", "user": {"location": {"city": "Valdosta", "state": "GA", "country": "United States"}}, "player": {"id": 2366169, "gamerTag": "crimFANN", "prefix": "", "user": {"location": {"city": "Valdosta", "state": "GA", "country": "United States"}}}}]}, "standing": {"placement": 1, "stats": {"score": {"value": null}}}}, {"id": "92227950-1", "entrant": {"id": 20716782, "name": "LD | Hino", "participants": [{"id": 19066352, "gamerTag": "Hino", "prefix": "LD", "user": {"location": {"city": "Nashville", "state": "TN", "country": "United States"}}, "player": {"id": 1039246, "gamerTag": "Hino", "prefix": "LD", "user": {"location": {"city": "Nashville", "state": "TN", "country": "United States"}}}}]}, "standing": {"placement": 2, "stats": {"score": {"value": -1}}}}], "games": null}, {"id": 92227311, "state": 3, "round": -4, "fullRoundText": "Losers Round 1", "completedAt": 1754168693, "winnerId": 20730088, "slots": [{"id": "92227311-0", "entrant": {"id": 20720503, "name": "cardd", "participants": [{"id": 19069623, "gamerTag": "cardd", "prefix": "", "user": {"location": {"city": "ATL", "state": "GA", "country": "United States"}}, "player": {"id": 34781, "gamerTag": "cardd", "prefix": "", "user": {"location": {"city": "ATL", "state": "GA", "country": "United States"}}}}]}, "standing": {"placement": 2, "stats": {"score": {"value": 1}}}}, {"id": "92227311-1", "entrant": {"id": 20730088, "name": "Mighty Morfin", "participants": [{"id": 19077834, "gamerTag": "Mighty Morfin", "prefix": "", "user": {"location": {"city": "Gainesville", "state": "GA", "country": "United States"}}, "player": {"id": 1630530, "gamerTag": "Mighty Morfin", "prefix": "", "user": {"location": {"city": "Gainesville", "state": "GA", "country": "United States"}}}}]}, "standing": {"placement": 1, "stats": {"score": {"value": 2}}}}], "games": null}, {"id": 92227502, "state": 3, "round": -4, "fullRoundText": "Losers Round 1", "completedAt": 1754169080, "winnerId": 20496275, "slots": [{"id": "92227502-0", "entrant": {"id": 20496275, "name": "BGA | KSU | WhopperFloppers", "participants": [{"id": 18874448, "gamerTag": "WhopperFloppers", "prefix": "BGA | KSU", "user": {"location": {"city": null, "state": null, "country": "United States"}}, "player": {"id": 2564706, "gamerTag": "WhopperFloppers", "prefix": "BGA | KSU", "user": {"location": {"city": null, "state": null, "country": "United States"}}}}]}, "standing": {"placement": 1, "stats": {"score": {"value": null}}}}, {"id": "92227502-1", "entrant": {"id": 20740206, "name": "EL Tiburon", "participants": [{"id": 19086226, "gamerTag": "EL Tiburon", "prefix": "", "user": {"location": {"city": "Cleveland", "state": "OH", "country": "United States"}}, "player": {"id": 3116973, "gamerTag": "EL Tiburon", "prefix": "", "user": {"location": {"city": "Cleveland", "state": "OH", "country": "United States"}}}}]}, "standing": {"placement": 2, "stats": {"score": {"value": -1}}}}], "games": null}, {"id": 92227952, "state": 3, "round": -4, "fullRoundText": "Losers Round 1", "completedAt": 1754174002, "winnerId": 20776795, "slots": [{"id": "92227952-0", "entrant": {"id": 20719697, "name": "YUUM | Fantasia", "participants": [{"id": 19068873, "gamerTag": "Fantasia", "prefix": "YUUM", "user": {"location": {"city": "Gastonia", "state": "NC", "country": "United States"}}, "player": {"id": 2114774, "gamerTag": "Fantasia", "prefix": "", "user": {"location": {"city": "Gastonia", "state": "NC", "country": "United States"}}}}]}, "standing": {"placement": 2, "stats": {"score": {"value": -1}}}}, {"id": "92227952-1", "entrant": {"id": 20776795, "name": "SgtCarson", "participants": [{"id": 19079580, "gamerTag": "SgtCarson", "prefix": null, "user": {"location": {"city": "Cumming", "state": "GA", "country": "United States"}}, "player": {"id": 68213, "gamerTag": "SgtCarson", "prefix": "", "user": {"location": {"city": "Cumming", "state": "GA", "country": "United States"}}}}]}, "standing": {"placement": 1, "stats": {"score": {"value": null}}}}], "games": null}, {"id": 92227740, "state": 3, "round": -4, "fullRoundText": "Losers Round 1", "completedAt": 1754175835, "winnerId": 20512066, "slots": [{"id": "92227740-0", "entrant": {"id": 20512066, "name": "FAT | Phantomtheif", "participants": [{"id": 18888247, "gamerTag": "Phantomtheif", "prefix": "FAT", "user": {"location": {"city": "Columbus", "state": "AL", "country": "United States"}}, "player": {"id": 469237, "gamerTag": "Phantomtheif", "prefix": "FAT", "user": {"location": {"city": "Columbus", "state": "AL", "country": "United States"}}}}]}, "standing": {"placement": 1, "stats": {"score": {"value": 2}}}}, {"id": "92227740-1", "entrant": {"id": 20504534, "name": "Prophett", "participants": [{"id": 18881747, "gamerTag": "Prophett", "prefix": "", "user": {"location": {"city": "Trussville", "state": "AL", "country": "United States"}}, "player": {"id": 1661325, "gamerTag": "Prophet", "prefix": "", "user": {"location": {"city": "Trussville", "state": "AL", "country": "United States"}}}}]}, "standing": {"placement": 2, "stats": {"score": {"value": 0}}}}], "games": null}, {"id": 92227313, "state": 3, "round": -4, "fullRoundText": "Losers Round 1", "completedAt": 1754168682, "winnerId": 20703948, "slots": [{"id": "92227313-0", "entrant": {"id": 20571259, "name": "Argon | Kage", "participants": [{"id": 18940107, "gamerTag": "Kage", "prefix": "Argon", "user": {"location": {"city": "Huntsville", "state": "AL", "country": "United States"}}, "player": {"id": 465685, "gamerTag": "OsamaBin-Ballin", "prefix": "Argon", "user": {"location": {"city": "Huntsville", "state": "AL", "country": "United States"}}}}]}, "standing": {"placement": 2, "stats": {"score": {"value": 0}}}}, {"id": "92227313-1", "entrant": {"id": 20703948, "name": "TTV | JB_Staticxz", "participants": [{"id": 19054848, "gamerTag": "JB_Staticxz", "prefix": "TTV", "user": {"location": {"city": "lawrenceville", "state": "GA", "country": "United States"}}, "player": {"id": 3796232, "gamerTag": "JB_Staticxz", "prefix": "TTV", "user": {"location": {"city": "lawrenceville", "state": "GA", "country": "United States"}}}}]}, "standing": {"placement": 1, "stats": {"score": {"value": 2}}}}], "games": null}]}}}