{"phase": {"seeds": {"pageInfo": {"totalPages": 1, "total": 12}, "nodes": [{"id": 36849802, "seedNum": 1, "entrant": {"id": 21428569, "name": "skyguy | bag", "participants": [{"id": 19695738, "gamerTag": "bag", "prefix": "skyguy", "user": {"location": {"city": "Atlanta", "state": "GA", "country": "United States"}}, "player": {"id": 271346, "gamerTag": "bag", "prefix": "skyguy", "user": {"location": {"city": "Atlanta", "state": "GA", "country": "United States"}}}}]}}, {"id": 36848140, "seedNum": 2, "entrant": {"id": 21427207, "name": "Vic Romano", "participants": [{"id": 19694542, "gamerTag": "Vic Romano", "prefix": "", "user": {"location": {"city": "Greenville", "state": "NC", "country": "United States"}}, "player": {"id": 229281, "gamerTag": "Vic Romano", "prefix": "", "user": {"location": {"city": "Greenville", "state": "NC", "country": "United States"}}}}]}}, {"id": 36860022, "seedNum": 3, "entrant": {"id": 21435643, "name": "skyguy | Chris Danger", "participants": [{"id": 19701439, "gamerTag": "Chris Danger", "prefix": "skyguy", "user": {"location": {"city": "Atlanta", "state": "GA", "country": "United States"}}, "player": {"id": 2808268, "gamerTag": "Chris Danger", "prefix": "skyguy", "user": {"location": {"city": "Atlanta", "state": "GA", "country": "United States"}}}}]}}, {"id": 36880679, "seedNum": 5, "entrant": {"id": 21448497, "name": "JDeems", "participants": [{"id": 19712792, "gamerTag": "JDeems", "prefix": "", "user": null, "player": {"id": 4953679, "gamerTag": "JDeems", "prefix": "", "user": null}}]}}, {"id": 36880466, "seedNum": 4, "entrant": {"id": 21448332, "name": "N/a | C$", "participants": [{"id": 19712650, "gamerTag": "C$", "prefix": "N/a", "user": {"location": null}, "player": {"id": 228175, "gamerTag": "C$", "prefix": "N/a", "user": {"location": null}}}]}}, {"id": 36880661, "seedNum": 6, "entrant": {"id": 21448477, "name": "tomguy", "participants": [{"id": 19712771, "gamerTag": "tomguy", "prefix": "", "user": {"location": {"city": "Atlanta", "state": "GA", "country": "United States"}}, "player": {"id": 147458, "gamerTag": "tomguy", "prefix": "", "user": {"location": {"city": "Atlanta", "state": "GA", "country": "United States"}}}}]}}, {"id": 36845494, "seedNum": 7, "entrant": {"id": 21424931, "name": "EVIL | Alas", "participants": [{"id": 19692540, "gamerTag": "Alas", "prefix": "EVIL", "user": {"location": {"city": null, "state": null, "country": null}}, "player": {"id": 25946, "gamerTag": "Alas", "prefix": "EVIL", "user": {"location": {"city": null, "state": null, "country": null}}}}]}}, {"id": 36845689, "seedNum": 9, "entrant": {"id": 21425093, "name": "DD | Kingpoyothefirst", "participants": [{"id": 19692683, "gamerTag": "Kingpoyothefirst", "prefix": "DD", "user": {"location": {"city": null, "state": null, "country": null}}, "player": {"id": 2934299, "gamerTag": "Kingpoyothefirst", "prefix": "DD", "user": {"location": {"city": null, "state": null, "country": null}}}}]}}, {"id": 36880481, "seedNum": 8, "entrant": {"id": 21448346, "name": "prince leisure", "participants": [{"id": 19712665, "gamerTag": "prince leisure", "prefix": "", "user": null, "player": {"id": 4030013, "gamerTag": "prince leisure", "prefix": "", "user": null}}]}}, {"id": 36845787, "seedNum": 10, "entrant": {"id": 21425177, "name": "The Hive | braxton", "participants": [{"id": 19692759, "gamerTag": "braxton", "prefix": "The Hive", "user": {"location": {"city": "Atlanta", "state": "GA", "country": "United States"}}, "player": {"id": 1037821, "gamerTag": "braxton", "prefix": "The Hive", "user": {"location": {"city": "Atlanta", "state": "GA", "country": "United States"}}}}]}}, {"id": 36876587, "seedNum": 11, "entrant": {"id": 21445942, "name": "blaise", "participants": [{"id": 19710460, "gamerTag": "blaise", "prefix": "", "user": {"location": {"city": "douglasville", "state": "GA", "country": "United States"}}, "player": {"id": 1326121, "gamerTag": "blaise", "prefix": "", "user": {"location": {"city": "douglasville", "state": "GA", "country": "United States"}}}}]}}, {"id": 36879337, "seedNum": 12, "entrant": {"id": 21447484, "name": "soup time", "participants": [{"id": 19711886, "gamerTag": "soup time", "prefix": null, "user": {"location": {"city": "Auburn", "state": "AL", "country": "United States"}}, "player": {"id": 2363610, "gamerTag": "soup time", "prefix": null, "user": {"location": {"city": "Auburn", "state": "AL", "country": "United States"}}}}]}}]}}}