{"event": {"sets": {"pageInfo": {"totalPages": 2, "total": 24}, "nodes": [{"id": 92912840, "state": 3, "round": -4, "fullRoundText": "Losers Round 2", "completedAt": 1755823009, "winnerId": 21010459, "slots": [{"id": "92912840-0", "entrant": {"id": 21010459, "name": "DD | Kingpoyothefirst", "participants": [{"id": 19327842, "gamerTag": "Kingpoyothefirst", "prefix": "DD", "user": {"location": {"city": null, "state": null, "country": null}}, "player": {"id": 2934299, "gamerTag": "Kingpoyothefirst", "prefix": "DD", "user": {"location": {"city": null, "state": null, "country": null}}}}]}, "standing": {"placement": 1, "stats": {"score": {"value": 2}}}}, {"id": "92912840-1", "entrant": {"id": 21011350, "name": "Lalaballs", "participants": [{"id": 19328630, "gamerTag": "Lalaballs", "prefix": "", "user": {"location": {"city": "Atlanta", "state": "GA", "country": "United States"}}, "player": {"id": 2300786, "gamerTag": "Lalaballs", "prefix": "", "user": {"location": {"city": "Atlanta", "state": "GA", "country": "United States"}}}}]}, "standing": {"placement": 2, "stats": {"score": {"value": 0}}}}], "games": null}, {"id": 92912841, "state": 3, "round": -4, "fullRoundText": "Losers Round 2", "completedAt": 1755823176, "winnerId": 21030144, "slots": [{"id": "92912841-0", "entrant": {"id": 21030144, "name": "tomguy", "participants": [{"id": 19345359, "gamerTag": "tomguy", "prefix": "", "user": {"location": {"city": "Atlanta", "state": "GA", "country": "United States"}}, "player": {"id": 147458, "gamerTag": "tomguy", "prefix": "", "user": {"location": {"city": "Atlanta", "state": "GA", "country": "United States"}}}}]}, "standing": {"placement": 1, "stats": {"score": {"value": 2}}}}, {"id": "92912841-1", "entrant": {"id": 21032050, "name": "Juan J. Steven's", "participants": [{"id": 19347166, "gamerTag": "Juan J. Steven's", "prefix": null, "user": {"location": {"city": "atlanta", "state": "GA", "country": "United States"}}, "player": {"id": 3318064, "gamerTag": "Guts", "prefix": "\u72a0\u7272\u306e\u70d9\u5370", "user": {"location": {"city": "atlanta", "state": "GA", "country": "United States"}}}}]}, "standing": {"placement": 2, "stats": {"score": {"value": 0}}}}], "games": null}, {"id": 92912842, "state": 3, "round": -4, "fullRoundText": "Losers Round 2", "completedAt": 1755823183, "winnerId": 21010361, "slots": [{"id": "92912842-0", "entrant": {"id": 21010361, "name": "Tech Chase | braxton", "participants": [{"id": 19327750, "gamerTag": "braxton", "prefix": "Tech Chase", "user": {"location": {"city": "Atlanta", "state": "GA", "country": "United States"}}, "player": {"id": 1037821, "gamerTag": "braxton", "prefix": "The Hive", "user": {"location": {"city": "Atlanta", "state": "GA", "country": "United States"}}}}]}, "standing": {"placement": 1, "stats": {"score": {"value": 2}}}}, {"id": "92912842-1", "entrant": {"id": 21015958, "name": "soup time", "participants": [{"id": 19332596, "gamerTag": "soup time", "prefix": null, "user": {"location": {"city": "Auburn", "state": "AL", "country": "United States"}}, "player": {"id": 2363610, "gamerTag": "soup time", "prefix": null, "user": {"location": {"city": "Auburn", "state": "AL", "country": "United States"}}}}]}, "standing": {"placement": 2, "stats": {"score": {"value": 0}}}}], "games": null}, {"id": 92912836, "state": 3, "round": -3, "fullRoundText": "Losers Round 1", "completedAt": 1755822614, "winnerId": 21011350, "slots": [{"id": "92912836-0", "entrant": {"id": 21022994, "name": "kablooey", "participants": [{"id": 19338890, "gamerTag": "kablooey", "prefix": "", "user": {"location": {"city": "Peachtree City", "state": "GA", "country": "United States"}}, "player": {"id": 220299, "gamerTag": "kablooey", "prefix": "milk", "user": {"location": {"city": "Peachtree City", "state": "GA", "country": "United States"}}}}]}, "standing": {"placement": 2, "stats": {"score": {"value": 0}}}}, {"id": "92912836-1", "entrant": {"id": 21011350, "name": "Lalaballs", "participants": [{"id": 19328630, "gamerTag": "Lalaballs", "prefix": "", "user": {"location": {"city": "Atlanta", "state": "GA", "country": "United States"}}, "player": {"id": 2300786, "gamerTag": "Lalaballs", "prefix": "", "user": {"location": {"city": "Atlanta", "state": "GA", "country": "United States"}}}}]}, "standing": {"placement": 1, "stats": {"score": {"value": 2}}}}], "games": null}, {"id": 92912803, "state": 3, "round": 1, "fullRoundText": "Winners Round 1", "completedAt": 1755821681, "winnerId": 21010361, "slots": [{"id": "92912803-0", "entrant": {"id": 21010361, "name": "Tech Chase | braxton", "participants": [{"id": 19327750, "gamerTag": "braxton", "prefix": "Tech Chase", "user": {"location": {"city": "Atlanta", "state": "GA", "country": "United States"}}, "player": {"id": 1037821, "gamerTag": "braxton", "prefix": "The Hive", "user": {"location": {"city": "Atlanta", "state": "GA", "country": "United States"}}}}]}, "standing": {"placement": 1, "stats": {"score": {"value": 2}}}}, {"id": "92912803-1", "entrant": {"id": 21027221, "name": "blaise", "participants": [{"id": 19342663, "gamerTag": "blaise", "prefix": "", "user": {"location": {"city": "douglasville", "state": "GA", "country": "United States"}}, "player": {"id": 1326121, "gamerTag": "blaise", "prefix": "", "user": {"location": {"city": "douglasville", "state": "GA", "country": "United States"}}}}]}, "standing": {"placement": 2, "stats": {"score": {"value": 0}}}}], "games": null}, {"id": 92912804, "state": 3, "round": 1, "fullRoundText": "Winners Round 1", "completedAt": 1755822063, "winnerId": 21031265, "slots": [{"id": "92912804-0", "entrant": {"id": 21031265, "name": "sanrio enjoyer", "participants": [{"id": 19346417, "gamerTag": "sanrio enjoyer", "prefix": null, "user": {"location": {"city": "Atlanta", "state": "GA", "country": "United States"}}, "player": {"id": 4933308, "gamerTag": "sanrio enjoyer", "prefix": null, "user": {"location": {"city": "Atlanta", "state": "GA", "country": "United States"}}}}]}, "standing": {"placement": 1, "stats": {"score": {"value": 2}}}}, {"id": "92912804-1", "entrant": {"id": 21022994, "name": "kablooey", "participants": [{"id": 19338890, "gamerTag": "kablooey", "prefix": "", "user": {"location": {"city": "Peachtree City", "state": "GA", "country": "United States"}}, "player": {"id": 220299, "gamerTag": "kablooey", "prefix": "milk", "user": {"location": {"city": "Peachtree City", "state": "GA", "country": "United States"}}}}]}, "standing": {"placement": 2, "stats": {"score": {"value": 0}}}}], "games": null}, {"id": 92912805, "state": 3, "round": 1, "fullRoundText": "Winners Round 1", "completedAt": 1755821498, "winnerId": 21030144, "slots": [{"id": "92912805-0", "entrant": {"id": 21030144, "name": "tomguy", "participants": [{"id": 19345359, "gamerTag": "tomguy", "prefix": "", "user": {"location": {"city": "Atlanta", "state": "GA", "country": "United States"}}, "player": {"id": 147458, "gamerTag": "tomguy", "prefix": "", "user": {"location": {"city": "Atlanta", "state": "GA", "country": "United States"}}}}]}, "standing": {"placement": 1, "stats": {"score": {"value": 2}}}}, {"id": "92912805-1", "entrant": {"id": 21011350, "name": "Lalaballs", "participants": [{"id": 19328630, "gamerTag": "Lalaballs", "prefix": "", "user": {"location": {"city": "Atlanta", "state": "GA", "country": "United States"}}, "player": {"id": 2300786, "gamerTag": "Lalaballs", "prefix": "", "user": {"location": {"city": "Atlanta", "state": "GA", "country": "United States"}}}}]}, "standing": {"placement": 2, "stats": {"score": {"value": 0}}}}], "games": null}, {"id": 92912807, "state": 3, "round": 1, "fullRoundText": "Winners Round 1", "completedAt": 1755821874, "winnerId": 21010459, "slots": [{"id": "92912807-0", "entrant": {"id": 21010459, "name": "DD | Kingpoyothefirst", "participants": [{"id": 19327842, "gamerTag": "Kingpoyothefirst", "prefix": "DD", "user": {"location": {"city": null, "state": null, "country": null}}, "player": {"id": 2934299, "gamerTag": "Kingpoyothefirst", "prefix": "DD", "user": {"location": {"city": null, "state": null, "country": null}}}}]}, "standing": {"placement": 1, "stats": {"score": {"value": 2}}}}, {"id": "92912807-1", "entrant": {"id": 21032050, "name": "Juan J. Steven's", "participants": [{"id": 19347166, "gamerTag": "Juan J. Steven's", "prefix": null, "user": {"location": {"city": "atlanta", "state": "GA", "country": "United States"}}, "player": {"id": 3318064, "gamerTag": "Guts", "prefix": "\u72a0\u7272\u306e\u70d9\u5370", "user": {"location": {"city": "atlanta", "state": "GA", "country": "United States"}}}}]}, "standing": {"placement": 2, "stats": {"score": {"value": 1}}}}], "games": null}, {"id": 92912809, "state": 3, "round": 1, "fullRoundText": "Winners Round 1", "completedAt": 1755821518, "winnerId": 21034002, "slots": [{"id": "92912809-0", "entrant": {"id": 21034002, "name": "Blank", "participants": [{"id": 19349066, "gamerTag": "Blank", "prefix": null, "user": {"location": {"city": "Snellville", "state": "GA", "country": "United States"}}, "player": {"id": 216554, "gamerTag": "Blank", "prefix": null, "user": {"location": {"city": "Snellville", "state": "GA", "country": "United States"}}}}]}, "standing": {"placement": 1, "stats": {"score": {"value": 2}}}}, {"id": "92912809-1", "entrant": {"id": 21015958, "name": "soup time", "participants": [{"id": 19332596, "gamerTag": "soup time", "prefix": null, "user": {"location": {"city": "Auburn", "state": "AL", "country": "United States"}}, "player": {"id": 2363610, "gamerTag": "soup time", "prefix": null, "user": {"location": {"city": "Auburn", "state": "AL", "country": "United States"}}}}]}, "standing": {"placement": 2, "stats": {"score": {"value": 0}}}}], "games": null}]}}}