{"phase": {"seeds": {"pageInfo": {"totalPages": 1, "total": 31}, "nodes": [{"id": 36561689, "seedNum": 1, "entrant": {"id": 21228021, "name": "Ghost | NOMAR", "participants": [{"id": 19521804, "gamerTag": "NOMAR", "prefix": "Ghost", "user": {"location": {"city": "Jonesboro", "state": "GA", "country": "United States"}}, "player": {"id": 427989, "gamerTag": "NOMAR", "prefix": "Ghost", "user": {"location": {"city": "Jonesboro", "state": "GA", "country": "United States"}}}}]}}, {"id": 36509819, "seedNum": 10, "entrant": {"id": 21194527, "name": "Pokchop", "participants": [{"id": 19492025, "gamerTag": "Pokchop", "prefix": "", "user": {"location": {"city": "Atlanta", "state": "GA", "country": "United States"}}, "player": {"id": 150402, "gamerTag": "Pokchop", "prefix": "", "user": {"location": {"city": "Atlanta", "state": "GA", "country": "United States"}}}}]}}, {"id": 36559993, "seedNum": 5, "entrant": {"id": 21226824, "name": "Sativicaa", "participants": [{"id": 19520729, "gamerTag": "Sativicaa", "prefix": "", "user": {"location": {"city": "Atlanta", "state": null, "country": "United States"}}, "player": {"id": 1706244, "gamerTag": "Sativicaa", "prefix": "", "user": {"location": {"city": "Atlanta", "state": null, "country": "United States"}}}}]}}, {"id": 36561236, "seedNum": 4, "entrant": {"id": 21227681, "name": "duetosideeffects", "participants": [{"id": 19521510, "gamerTag": "duetosideeffects", "prefix": "", "user": {"location": {"city": "Atlanta", "state": "GA", "country": "United States"}}, "player": {"id": 924041, "gamerTag": "duetosideeffects", "prefix": "", "user": {"location": {"city": "Atlanta", "state": "GA", "country": "United States"}}}}]}}, {"id": 36560973, "seedNum": 2, "entrant": {"id": 21227486, "name": "JJBREEZE", "participants": [{"id": 19521327, "gamerTag": "JJBREEZE", "prefix": "", "user": {"location": {"city": "Atlanta", "state": "GA", "country": "United States"}}, "player": {"id": 688460, "gamerTag": "JJBREEZE", "prefix": "", "user": {"location": {"city": "Atlanta", "state": "GA", "country": "United States"}}}}]}}, {"id": 36561431, "seedNum": 11, "entrant": {"id": 21227822, "name": "InIt2WynneIt", "participants": [{"id": 19521639, "gamerTag": "InIt2WynneIt", "prefix": "", "user": {"location": {"city": "LAWRENCEVILLE", "state": "GA", "country": "United States"}}, "player": {"id": 260407, "gamerTag": "InIt2WynneIt", "prefix": "", "user": {"location": {"city": "LAWRENCEVILLE", "state": "GA", "country": "United States"}}}}]}}, {"id": 36553525, "seedNum": 8, "entrant": {"id": 21222397, "name": "BOLT | KhalRhaego", "participants": [{"id": 19516809, "gamerTag": "KhalRhaego", "prefix": "BOLT", "user": {"location": {"city": "Jonesboro", "state": "GA", "country": "United States"}}, "player": {"id": 4076327, "gamerTag": "KhalRhaego", "prefix": "BOLT", "user": {"location": {"city": "Jonesboro", "state": "GA", "country": "United States"}}}}]}}, {"id": 36560778, "seedNum": 13, "entrant": {"id": 21227334, "name": "LogieBear", "participants": [{"id": 19521200, "gamerTag": "LogieBear", "prefix": "", "user": {"location": {"city": "Snellville", "state": "GA", "country": "United States"}}, "player": {"id": 3809706, "gamerTag": "LogieBear", "prefix": "", "user": {"location": {"city": "Snellville", "state": "GA", "country": "United States"}}}}]}}, {"id": 36559314, "seedNum": 6, "entrant": {"id": 21226375, "name": "100% | juice", "participants": [{"id": 19520303, "gamerTag": "juice", "prefix": "100%", "user": {"location": {"city": "atlanta", "state": "GA", "country": "United States"}}, "player": {"id": 146905, "gamerTag": "juice", "prefix": "100%", "user": {"location": {"city": "atlanta", "state": "GA", "country": "United States"}}}}]}}, {"id": 36561111, "seedNum": 7, "entrant": {"id": 21227597, "name": "Iso.Dgaf", "participants": [{"id": 19521440, "gamerTag": "Iso.Dgaf", "prefix": null, "user": {"location": {"city": "Acworth", "state": "GA", "country": "United States"}}, "player": {"id": 4285541, "gamerTag": "Iso.Dgaf", "prefix": null, "user": {"location": {"city": "Acworth", "state": "GA", "country": "United States"}}}}]}}, {"id": 36560085, "seedNum": 14, "entrant": {"id": 21226907, "name": "Armanisaint", "participants": [{"id": 19520805, "gamerTag": "Armanisaint", "prefix": null, "user": {"location": {"city": "Roswell", "state": "GA", "country": "United States"}}, "player": {"id": 3943806, "gamerTag": "Armanisaint", "prefix": null, "user": {"location": {"city": "Roswell", "state": "GA", "country": "United States"}}}}]}}, {"id": 36559103, "seedNum": 24, "entrant": {"id": 21226238, "name": "HEAVENER", "participants": [{"id": 19520179, "gamerTag": "HEAVENER", "prefix": "", "user": {"location": {"city": "Marietta", "state": "GA", "country": "United States"}}, "player": {"id": 1829744, "gamerTag": "HEAVENER", "prefix": "", "user": {"location": {"city": "Marietta", "state": "GA", "country": "United States"}}}}]}}, {"id": 36556930, "seedNum": 3, "entrant": {"id": 21224680, "name": "O.N.2", "participants": [{"id": 19518833, "gamerTag": "O.N.2", "prefix": "", "user": {"location": {"city": "SNELLVILLE", "state": "GA", "country": "United States"}}, "player": {"id": 1042436, "gamerTag": "O.N.2", "prefix": "", "user": {"location": {"city": "SNELLVILLE", "state": "GA", "country": "United States"}}}}]}}, {"id": 36561687, "seedNum": 18, "entrant": {"id": 21228017, "name": "REHOO", "participants": [{"id": 19521800, "gamerTag": "REHOO", "prefix": null, "user": {"location": {"city": "jonesboro", "state": "GA", "country": "United States"}}, "player": {"id": 427983, "gamerTag": "REHOO", "prefix": null, "user": {"location": {"city": "jonesboro", "state": "GA", "country": "United States"}}}}]}}, {"id": 36561476, "seedNum": 21, "entrant": {"id": 21227866, "name": "4o4 | ToastyATL", "participants": [{"id": 19521678, "gamerTag": "ToastyATL", "prefix": "4o4", "user": {"location": {"city": "Atlanta", "state": "GA", "country": "United States"}}, "player": {"id": 368352, "gamerTag": "ToastyATL", "prefix": "4o4", "user": {"location": {"city": "Atlanta", "state": "GA", "country": "United States"}}}}]}}, {"id": 36561425, "seedNum": 27, "entrant": {"id": 21227818, "name": "4o4 | blitz", "participants": [{"id": 19521635, "gamerTag": "blitz", "prefix": "4o4", "user": {"location": {"city": "Lawrenceville", "state": "GA", "country": "United States"}}, "player": {"id": 2228539, "gamerTag": "blitz", "prefix": "4o4", "user": {"location": {"city": "Lawrenceville", "state": "GA", "country": "United States"}}}}]}}, {"id": 36561448, "seedNum": 12, "entrant": {"id": 21227837, "name": "StrataJay", "participants": [{"id": 19521654, "gamerTag": "StrataJay", "prefix": "", "user": {"location": {"city": "Grayson", "state": "GA", "country": "United States"}}, "player": {"id": 1112189, "gamerTag": "StrataJay", "prefix": "", "user": {"location": {"city": "Grayson", "state": "GA", "country": "United States"}}}}]}}, {"id": 36518581, "seedNum": 16, "entrant": {"id": 21199914, "name": "Bronzjo", "participants": [{"id": 19496878, "gamerTag": "Bronzjo", "prefix": null, "user": {"location": {"city": "Lula", "state": "GA", "country": "United States"}}, "player": {"id": 4622459, "gamerTag": "Bronzjo", "prefix": null, "user": {"location": {"city": "Lula", "state": "GA", "country": "United States"}}}}]}}, {"id": 36559003, "seedNum": 17, "entrant": {"id": 21226104, "name": "Aneubys", "participants": [{"id": 19520140, "gamerTag": "Aneubys", "prefix": "", "user": {"location": {"city": "Smyrna", "state": "GA", "country": "United States"}}, "player": {"id": 3901259, "gamerTag": "Aneubys", "prefix": "", "user": {"location": {"city": "Smyrna", "state": "GA", "country": "United States"}}}}]}}, {"id": 36557883, "seedNum": 19, "entrant": {"id": 21225523, "name": "PAR | Romanova", "participants": [{"id": 19519587, "gamerTag": "Romanova", "prefix": "PAR", "user": {"location": {"city": "Atlanta", "state": "GA", "country": "United States"}}, "player": {"id": 228245, "gamerTag": "Romanova", "prefix": "PAR", "user": {"location": {"city": "Atlanta", "state": "GA", "country": "United States"}}}}]}}, {"id": 36557035, "seedNum": 20, "entrant": {"id": 21224787, "name": "Free | Sereni", "participants": [{"id": 19518926, "gamerTag": "Sereni", "prefix": "Free", "user": {"location": {"city": null, "state": null, "country": "United States"}}, "player": {"id": 482535, "gamerTag": "Sereni", "prefix": "Free", "user": {"location": {"city": null, "state": null, "country": "United States"}}}}]}}, {"id": 36553845, "seedNum": 23, "entrant": {"id": 21222650, "name": "Momokins", "participants": [{"id": 19517023, "gamerTag": "Momokins", "prefix": "", "user": {"location": {"city": "Atlanta", "state": "GA", "country": "United States"}}, "player": {"id": 612216, "gamerTag": "Momokins", "prefix": "", "user": {"location": {"city": "Atlanta", "state": "GA", "country": "United States"}}}}]}}, {"id": 36559643, "seedNum": 25, "entrant": {"id": 21226605, "name": "Jet Midder", "participants": [{"id": 19520512, "gamerTag": "Jet Midder", "prefix": null, "user": {"location": {"city": null, "state": null, "country": null}}, "player": {"id": 2363656, "gamerTag": "Jet Dayo", "prefix": null, "user": {"location": {"city": null, "state": null, "country": null}}}}]}}, {"id": 36561597, "seedNum": 31, "entrant": {"id": 21227955, "name": "WVSH", "participants": [{"id": 19521749, "gamerTag": "WVSH", "prefix": null, "user": {"location": {"city": "Atlanta", "state": "GA", "country": "United States"}}, "player": {"id": 4660025, "gamerTag": "WVSH", "prefix": null, "user": {"location": {"city": "Atlanta", "state": "GA", "country": "United States"}}}}]}}, {"id": 36557942, "seedNum": 9, "entrant": {"id": 21225549, "name": "Azarlith", "participants": [{"id": 19519607, "gamerTag": "Azarlith", "prefix": "", "user": {"location": {"city": "Lawrenceville", "state": null, "country": "United States"}}, "player": {"id": 3444743, "gamerTag": "Azarlith", "prefix": "", "user": {"location": {"city": "Lawrenceville", "state": null, "country": "United States"}}}}]}}, {"id": 36554784, "seedNum": 15, "entrant": {"id": 21223389, "name": "C-2", "participants": [{"id": 19517695, "gamerTag": "C-2", "prefix": "", "user": {"location": {"city": "Atlanta", "state": "GA", "country": "United States"}}, "player": {"id": 1228856, "gamerTag": "C-2", "prefix": "", "user": {"location": {"city": "Atlanta", "state": "GA", "country": "United States"}}}}]}}, {"id": 36553901, "seedNum": 22, "entrant": {"id": 21222697, "name": "Hipster Lion", "participants": [{"id": 19517072, "gamerTag": "Hipster Lion", "prefix": "", "user": {"location": {"city": "College Park", "state": "GA", "country": "United States"}}, "player": {"id": 897409, "gamerTag": "Hipster Lion", "prefix": "", "user": {"location": {"city": "College Park", "state": "GA", "country": "United States"}}}}]}}, {"id": 36560261, "seedNum": 26, "entrant": {"id": 21227066, "name": "Fiji | 100 Latinas", "participants": [{"id": 19520955, "gamerTag": "100 Latinas", "prefix": "Fiji", "user": {"location": {"city": "Lithonia", "state": "GA", "country": "United States"}}, "player": {"id": 1890427, "gamerTag": "100 Latinas", "prefix": "Fiji", "user": {"location": {"city": "Lithonia", "state": "GA", "country": "United States"}}}}]}}, {"id": 36560328, "seedNum": 28, "entrant": {"id": 21227136, "name": "Playmanji", "participants": [{"id": 19521016, "gamerTag": "Playmanji", "prefix": null, "user": {"location": {"city": "Loganville", "state": "GA", "country": "United States"}}, "player": {"id": 3442605, "gamerTag": "Playmanji", "prefix": null, "user": {"location": {"city": "Loganville", "state": "GA", "country": "United States"}}}}]}}, {"id": 36560337, "seedNum": 29, "entrant": {"id": 21227145, "name": "SpaceSong", "participants": [{"id": 19521024, "gamerTag": "SpaceSong", "prefix": null, "user": {"location": {"city": "Norcross", "state": "GA", "country": "United States"}}, "player": {"id": 4530151, "gamerTag": "SpaceSong", "prefix": null, "user": {"location": {"city": "Norcross", "state": "GA", "country": "United States"}}}}]}}, {"id": 36561343, "seedNum": 30, "entrant": {"id": 21227749, "name": "Spiral", "participants": [{"id": 19521576, "gamerTag": "Spiral", "prefix": "", "user": {"location": {"city": "LITHONIA", "state": "GA", "country": "United States"}}, "player": {"id": 957192, "gamerTag": "Spiral", "prefix": "", "user": {"location": {"city": "LITHONIA", "state": "GA", "country": "United States"}}}}]}}]}}}