{"phase": {"seeds": {"pageInfo": {"totalPages": 1, "total": 23}, "nodes": [{"id": 35840994, "seedNum": 1, "entrant": {"id": 20769470, "name": "audrey", "participants": [{"id": 19114415, "gamerTag": "audrey", "prefix": null, "user": {"location": {"city": "Dunwoody", "state": "GA", "country": "United States"}}, "player": {"id": 1335864, "gamerTag": "audrey", "prefix": null, "user": {"location": {"city": "Dunwoody", "state": "GA", "country": "United States"}}}}]}}, {"id": 35933446, "seedNum": 2, "entrant": {"id": 20826872, "name": "vivesthesia", "participants": [{"id": 19165605, "gamerTag": "vivesthesia", "prefix": null, "user": {"location": {"city": "Atlanta", "state": "GA", "country": "United States"}}, "player": {"id": 4395171, "gamerTag": "vivesthesia", "prefix": null, "user": {"location": {"city": "Atlanta", "state": "GA", "country": "United States"}}}}]}}, {"id": 35841451, "seedNum": 4, "entrant": {"id": 20769668, "name": "Wolven", "participants": [{"id": 19114601, "gamerTag": "Wolven", "prefix": null, "user": {"location": {"city": "Atlanta", "state": "GA", "country": "United States"}}, "player": {"id": 126978, "gamerTag": "Wolven", "prefix": null, "user": {"location": {"city": "Atlanta", "state": "GA", "country": "United States"}}}}]}}, {"id": 35934875, "seedNum": 6, "entrant": {"id": 20828049, "name": "sanrio enjoyer", "participants": [{"id": 19166656, "gamerTag": "sanrio enjoyer", "prefix": "", "user": {"location": {"city": "Atlanta", "state": "GA", "country": "United States"}}, "player": {"id": 3792585, "gamerTag": "sanrio enjoyer", "prefix": "", "user": {"location": {"city": "Atlanta", "state": "GA", "country": "United States"}}}}]}}, {"id": 35839651, "seedNum": 5, "entrant": {"id": 20769190, "name": "N/a | C$", "participants": [{"id": 19114280, "gamerTag": "C$", "prefix": "N/a", "user": {"location": null}, "player": {"id": 228175, "gamerTag": "C$", "prefix": "N/a", "user": {"location": null}}}]}}, {"id": 35934163, "seedNum": 7, "entrant": {"id": 20827436, "name": "cheeks", "participants": [{"id": 19164601, "gamerTag": "cheeks", "prefix": "", "user": {"location": {"city": "Greenville", "state": "SC", "country": "United States"}}, "player": {"id": 2168044, "gamerTag": "cheeks", "prefix": "", "user": {"location": {"city": "Greenville", "state": "SC", "country": "United States"}}}}]}}, {"id": 35840310, "seedNum": 10, "entrant": {"id": 20769436, "name": "SKRUNT | diremaykr", "participants": [{"id": 19114383, "gamerTag": "diremaykr", "prefix": "SKRUNT", "user": {"location": {"city": "Buford", "state": "GA", "country": "United States"}}, "player": {"id": 3207366, "gamerTag": "diremaykr", "prefix": "", "user": {"location": {"city": "Buford", "state": "GA", "country": "United States"}}}}]}}, {"id": 35933877, "seedNum": 14, "entrant": {"id": 20827168, "name": "blaise", "participants": [{"id": 19165872, "gamerTag": "blaise", "prefix": "", "user": {"location": {"city": "douglasville", "state": "GA", "country": "United States"}}, "player": {"id": 1326121, "gamerTag": "blaise", "prefix": "", "user": {"location": {"city": "douglasville", "state": "GA", "country": "United States"}}}}]}}, {"id": 35934545, "seedNum": 8, "entrant": {"id": 20827808, "name": "BRON FOR ALL", "participants": [{"id": 19166447, "gamerTag": "BRON FOR ALL", "prefix": "", "user": null, "player": {"id": 4898364, "gamerTag": "BRON FOR ALL", "prefix": "", "user": null}}]}}, {"id": 35921000, "seedNum": 9, "entrant": {"id": 20818594, "name": "tushar!", "participants": [{"id": 19157992, "gamerTag": "tushar!", "prefix": "", "user": {"location": {"city": "Dunwoody", "state": "GA", "country": "United States"}}, "player": {"id": 1549795, "gamerTag": "tushar!", "prefix": "", "user": {"location": {"city": "Dunwoody", "state": "GA", "country": "United States"}}}}]}}, {"id": 35935162, "seedNum": 11, "entrant": {"id": 20828241, "name": "citizendog", "participants": [{"id": 19166822, "gamerTag": "citizendog", "prefix": "", "user": {"location": {"city": "Monroe", "state": "GA", "country": "United States"}}, "player": {"id": 176325, "gamerTag": "citizendog", "prefix": "", "user": {"location": {"city": "Monroe", "state": "GA", "country": "United States"}}}}]}}, {"id": 35845275, "seedNum": 13, "entrant": {"id": 20772883, "name": "Deign", "participants": [{"id": 19117389, "gamerTag": "Deign", "prefix": "", "user": {"location": {"city": null, "state": null, "country": "United States"}}, "player": {"id": 325595, "gamerTag": "Deign", "prefix": "", "user": {"location": {"city": null, "state": null, "country": "United States"}}}}]}}, {"id": 35904530, "seedNum": 3, "entrant": {"id": 20808535, "name": "Tipped Off | GAwes", "participants": [{"id": 19149804, "gamerTag": "GAwes", "prefix": "Tipped Off", "user": {"location": {"city": "Decatur", "state": "GA", "country": "United States"}}, "player": {"id": 19690, "gamerTag": "GAwes", "prefix": "Tipped Off", "user": {"location": {"city": "Decatur", "state": "GA", "country": "United States"}}}}]}}, {"id": 35934066, "seedNum": 12, "entrant": {"id": 20827345, "name": "Tyme", "participants": [{"id": 19166048, "gamerTag": "Tyme", "prefix": null, "user": {"location": {"city": null, "state": null, "country": null}}, "player": {"id": 325589, "gamerTag": "Tyme", "prefix": null, "user": {"location": {"city": null, "state": null, "country": null}}}}]}}, {"id": 35932581, "seedNum": 15, "entrant": {"id": 20826124, "name": "KHW | Frumps", "participants": [{"id": 19164919, "gamerTag": "Frumps", "prefix": "KHW", "user": {"location": {"city": "Greenville", "state": "SC", "country": "United States"}}, "player": {"id": 2844590, "gamerTag": "Frumps", "prefix": "KHW", "user": {"location": {"city": "Greenville", "state": "SC", "country": "United States"}}}}]}}, {"id": 35928083, "seedNum": 17, "entrant": {"id": 20823322, "name": "TSOAP | MuchOlmec", "participants": [{"id": 19162307, "gamerTag": "MuchOlmec", "prefix": "TSOAP", "user": {"location": {"city": "Athens", "state": "GA", "country": "United States"}}, "player": {"id": 1105460, "gamerTag": "MuchOlmec", "prefix": "TSOAP", "user": {"location": {"city": "Athens", "state": "GA", "country": "United States"}}}}]}}, {"id": 35934286, "seedNum": 16, "entrant": {"id": 20827557, "name": "Carrit", "participants": [{"id": 19166231, "gamerTag": "Carrit", "prefix": null, "user": {"location": {"city": "Hoschton", "state": "GA", "country": "United States"}}, "player": {"id": 4298609, "gamerTag": "Carrit", "prefix": null, "user": {"location": {"city": "Hoschton", "state": "GA", "country": "United States"}}}}]}}, {"id": 35933404, "seedNum": 18, "entrant": {"id": 20826830, "name": "Newt Man", "participants": [{"id": 19165564, "gamerTag": "Newt Man", "prefix": "", "user": {"location": {"city": null, "state": null, "country": "United States"}}, "player": {"id": 4726806, "gamerTag": "Newt Man", "prefix": "", "user": {"location": {"city": null, "state": null, "country": "United States"}}}}]}}, {"id": 35922003, "seedNum": 19, "entrant": {"id": 20819414, "name": "drimys", "participants": [{"id": 19158714, "gamerTag": "drimys", "prefix": null, "user": {"location": {"city": "Cumming", "state": "GA", "country": "United States"}}, "player": {"id": 2436958, "gamerTag": "drimys", "prefix": null, "user": {"location": {"city": "Cumming", "state": "GA", "country": "United States"}}}}]}}, {"id": 35933147, "seedNum": 20, "entrant": {"id": 20826573, "name": "TSOAP | Slothy", "participants": [{"id": 19165337, "gamerTag": "Slothy", "prefix": "TSOAP", "user": {"location": {"city": "", "state": "GA", "country": "United States"}}, "player": {"id": 3475413, "gamerTag": "Slothy", "prefix": "TSOAP", "user": {"location": {"city": "", "state": "GA", "country": "United States"}}}}]}}, {"id": 35928298, "seedNum": 21, "entrant": {"id": 20823472, "name": "TPS | cryptonic", "participants": [{"id": 19162477, "gamerTag": "cryptonic", "prefix": "TPS", "user": {"location": {"city": "Acworth", "state": "GA", "country": "United States"}}, "player": {"id": 3422494, "gamerTag": "$CAITLIN", "prefix": "TPS", "user": {"location": {"city": "Acworth", "state": "GA", "country": "United States"}}}}]}}, {"id": 35933183, "seedNum": 22, "entrant": {"id": 20826609, "name": "Dad's | daemay", "participants": [{"id": 19165365, "gamerTag": "daemay", "prefix": "Dad's", "user": {"location": {"city": "Tampa", "state": "FL", "country": "United States"}}, "player": {"id": 4370594, "gamerTag": "daemay", "prefix": "Dad's", "user": {"location": {"city": "Tampa", "state": "FL", "country": "United States"}}}}]}}, {"id": 35922898, "seedNum": 23, "entrant": {"id": 20819865, "name": "afterimage", "participants": [{"id": 19159075, "gamerTag": "afterimage", "prefix": "", "user": {"location": {"city": "Atlanta", "state": "GA", "country": "United States"}}, "player": {"id": 4435133, "gamerTag": "popsicle", "prefix": "", "user": {"location": {"city": "Atlanta", "state": "GA", "country": "United States"}}}}]}}]}}}