{"event": {"sets": {"pageInfo": {"totalPages": 9, "total": 123}, "nodes": [{"id": 92091671, "state": 3, "round": -3, "fullRoundText": "Losers Round 1", "completedAt": 1754011970, "winnerId": 20853849, "slots": [{"id": "92091671-0", "entrant": {"id": 20854014, "name": "REV 14:6 | 3AM", "participants": [{"id": 19189958, "gamerTag": "3AM", "prefix": "REV 14:6", "user": {"location": {"city": "Duluth", "state": "GA", "country": "United States"}}, "player": {"id": 2331696, "gamerTag": "3AM", "prefix": "REV 14:6", "user": {"location": {"city": "Duluth", "state": "GA", "country": "United States"}}}}]}, "standing": {"placement": 2, "stats": {"score": {"value": 0}}}}, {"id": "92091671-1", "entrant": {"id": 20853849, "name": "WFF | Minty", "participants": [{"id": 19189811, "gamerTag": "Minty", "prefix": "WFF", "user": {"location": {"city": "Atlanta", "state": "GA", "country": "United States"}}, "player": {"id": 1193981, "gamerTag": "Minty", "prefix": "WFF", "user": {"location": {"city": "Atlanta", "state": "GA", "country": "United States"}}}}]}, "standing": {"placement": 1, "stats": {"score": {"value": 2}}}}], "games": null}, {"id": 92091672, "state": 3, "round": -3, "fullRoundText": "Losers Round 1", "completedAt": 1754011123, "winnerId": 20852120, "slots": [{"id": "92091672-0", "entrant": {"id": 20852087, "name": "Kattoro", "participants": [{"id": 19188198, "gamerTag": "Kattoro", "prefix": "", "user": {"location": {"city": "Atlanta", "state": "GA", "country": "United States"}}, "player": {"id": 343463, "gamerTag": "Kattoro", "prefix": "", "user": {"location": {"city": "Atlanta", "state": "GA", "country": "United States"}}}}]}, "standing": {"placement": 2, "stats": {"score": {"value": 0}}}}, {"id": "92091672-1", "entrant": {"id": 20852120, "name": "carlop", "participants": [{"id": 19188228, "gamerTag": "carlop", "prefix": null, "user": {"location": {"city": "Johns Creek", "state": "GA", "country": "United States"}}, "player": {"id": 3431919, "gamerTag": "carlop", "prefix": null, "user": {"location": {"city": "Johns Creek", "state": "GA", "country": "United States"}}}}]}, "standing": {"placement": 1, "stats": {"score": {"value": 2}}}}], "games": null}, {"id": 92091673, "state": 3, "round": -3, "fullRoundText": "Losers Round 1", "completedAt": 1754010745, "winnerId": 20853661, "slots": [{"id": "92091673-0", "entrant": {"id": 20829799, "name": "Flan", "participants": [{"id": 19168093, "gamerTag": "Flan", "prefix": "", "user": {"location": {"city": null, "state": null, "country": "United States"}}, "player": {"id": 1992615, "gamerTag": "Flan", "prefix": "", "user": {"location": {"city": null, "state": null, "country": "United States"}}}}]}, "standing": {"placement": 2, "stats": {"score": {"value": -1}}}}, {"id": "92091673-1", "entrant": {"id": 20853661, "name": "lugardo", "participants": [{"id": 19189658, "gamerTag": "lugardo", "prefix": "", "user": {"location": {"city": null, "state": null, "country": "United States"}}, "player": {"id": 2690580, "gamerTag": "lugardo", "prefix": "", "user": {"location": {"city": null, "state": null, "country": "United States"}}}}]}, "standing": {"placement": 1, "stats": {"score": {"value": null}}}}], "games": null}, {"id": 92091530, "state": 3, "round": 1, "fullRoundText": "Winners Round 1", "completedAt": 1754008551, "winnerId": 20853564, "slots": [{"id": "92091530-0", "entrant": {"id": 20853564, "name": "ACE | Ace_CMH", "participants": [{"id": 19189571, "gamerTag": "Ace_CMH", "prefix": "ACE", "user": {"location": {"city": "Marietta", "state": "GA", "country": "United States"}}, "player": {"id": 1990149, "gamerTag": "Ace_CMH", "prefix": "ACE", "user": {"location": {"city": "Marietta", "state": "GA", "country": "United States"}}}}]}, "standing": {"placement": 1, "stats": {"score": {"value": 2}}}}, {"id": "92091530-1", "entrant": {"id": 20853526, "name": "Rain~", "participants": [{"id": 19189536, "gamerTag": "Rain~", "prefix": null, "user": {"location": {"city": "Atlanta", "state": "GA", "country": "United States"}}, "player": {"id": 4240164, "gamerTag": "Rain~", "prefix": null, "user": {"location": {"city": "Atlanta", "state": "GA", "country": "United States"}}}}]}, "standing": {"placement": 2, "stats": {"score": {"value": 1}}}}], "games": null}, {"id": 92091557, "state": 3, "round": 1, "fullRoundText": "Winners Round 1", "completedAt": 1754009315, "winnerId": 20852779, "slots": [{"id": "92091557-0", "entrant": {"id": 20852779, "name": "GUMP2 | Eleven", "participants": [{"id": 19188857, "gamerTag": "Eleven", "prefix": "GUMP2", "user": {"location": {"city": null, "state": null, "country": null}}, "player": {"id": 2348605, "gamerTag": "Ryu from Streets", "prefix": "GUMP2", "user": {"location": {"city": null, "state": null, "country": null}}}}]}, "standing": {"placement": 1, "stats": {"score": {"value": 2}}}}, {"id": "92091557-1", "entrant": {"id": 20852087, "name": "Kattoro", "participants": [{"id": 19188198, "gamerTag": "Kattoro", "prefix": "", "user": {"location": {"city": "Atlanta", "state": "GA", "country": "United States"}}, "player": {"id": 343463, "gamerTag": "Kattoro", "prefix": "", "user": {"location": {"city": "Atlanta", "state": "GA", "country": "United States"}}}}]}, "standing": {"placement": 2, "stats": {"score": {"value": 0}}}}], "games": null}, {"id": 92091558, "state": 3, "round": 1, "fullRoundText": "Winners Round 1", "completedAt": 1754009925, "winnerId": 20853383, "slots": [{"id": "92091558-0", "entrant": {"id": 20853383, "name": "red dot", "participants": [{"id": 19189403, "gamerTag": "red dot", "prefix": "", "user": {"location": {"city": "Milton", "state": "GA", "country": "United States"}}, "player": {"id": 1812177, "gamerTag": "red dot", "prefix": "", "user": {"location": {"city": "Milton", "state": "GA", "country": "United States"}}}}]}, "standing": {"placement": 1, "stats": {"score": {"value": 2}}}}, {"id": "92091558-1", "entrant": {"id": 20852120, "name": "carlop", "participants": [{"id": 19188228, "gamerTag": "carlop", "prefix": null, "user": {"location": {"city": "Johns Creek", "state": "GA", "country": "United States"}}, "player": {"id": 3431919, "gamerTag": "carlop", "prefix": null, "user": {"location": {"city": "Johns Creek", "state": "GA", "country": "United States"}}}}]}, "standing": {"placement": 2, "stats": {"score": {"value": 1}}}}], "games": null}, {"id": 92091559, "state": 3, "round": 1, "fullRoundText": "Winners Round 1", "completedAt": 1754008422, "winnerId": 20853046, "slots": [{"id": "92091559-0", "entrant": {"id": 20853046, "name": "Kailen", "participants": [{"id": 19189087, "gamerTag": "Kailen", "prefix": "", "user": {"location": {"city": "Atlanta", "state": "GA", "country": "United States"}}, "player": {"id": 1647157, "gamerTag": "Kailen", "prefix": "", "user": {"location": {"city": "Atlanta", "state": "GA", "country": "United States"}}}}]}, "standing": {"placement": 1, "stats": {"score": {"value": null}}}}, {"id": "92091559-1", "entrant": {"id": 20829799, "name": "Flan", "participants": [{"id": 19168093, "gamerTag": "Flan", "prefix": "", "user": {"location": {"city": null, "state": null, "country": "United States"}}, "player": {"id": 1992615, "gamerTag": "Flan", "prefix": "", "user": {"location": {"city": null, "state": null, "country": "United States"}}}}]}, "standing": {"placement": 2, "stats": {"score": {"value": -1}}}}], "games": null}, {"id": 92091560, "state": 3, "round": 1, "fullRoundText": "Winners Round 1", "completedAt": 1754009969, "winnerId": 20845383, "slots": [{"id": "92091560-0", "entrant": {"id": 20845383, "name": "CeR | scruffie:))", "participants": [{"id": 19182033, "gamerTag": "scruffie:))", "prefix": "CeR", "user": {"location": {"city": "Boca raton", "state": "FL", "country": "United States"}}, "player": {"id": 1894348, "gamerTag": "scruffie:))", "prefix": "", "user": {"location": {"city": "Boca raton", "state": "FL", "country": "United States"}}}}]}, "standing": {"placement": 1, "stats": {"score": {"value": 2}}}}, {"id": "92091560-1", "entrant": {"id": 20853661, "name": "lugardo", "participants": [{"id": 19189658, "gamerTag": "lugardo", "prefix": "", "user": {"location": {"city": null, "state": null, "country": "United States"}}, "player": {"id": 2690580, "gamerTag": "lugardo", "prefix": "", "user": {"location": {"city": null, "state": null, "country": "United States"}}}}]}, "standing": {"placement": 2, "stats": {"score": {"value": 0}}}}], "games": null}, {"id": 92091531, "state": 3, "round": 1, "fullRoundText": "Winners Round 1", "completedAt": 1754008274, "winnerId": 20845877, "slots": [{"id": "92091531-0", "entrant": {"id": 20845877, "name": "GUMP2 | STiCK", "participants": [{"id": 19182495, "gamerTag": "STiCK", "prefix": "GUMP2", "user": {"location": {"city": "Woodstock", "state": "GA", "country": "United States"}}, "player": {"id": 282674, "gamerTag": "STiCK", "prefix": "GUMP2", "user": {"location": {"city": "Woodstock", "state": "GA", "country": "United States"}}}}]}, "standing": {"placement": 1, "stats": {"score": {"value": 2}}}}, {"id": "92091531-1", "entrant": {"id": 20853430, "name": "SamRice", "participants": [{"id": 19189446, "gamerTag": "SamRice", "prefix": "", "user": {"location": {"city": "Norcross", "state": "GA", "country": "United States"}}, "player": {"id": 2387403, "gamerTag": "SamRice", "prefix": "", "user": {"location": {"city": "Norcross", "state": "GA", "country": "United States"}}}}]}, "standing": {"placement": 2, "stats": {"score": {"value": 0}}}}], "games": null}, {"id": 92091532, "state": 3, "round": 1, "fullRoundText": "Winners Round 1", "completedAt": 1754008206, "winnerId": 20853301, "slots": [{"id": "92091532-0", "entrant": {"id": 20853301, "name": "RM | GUMP2 | Kr!stal:0", "participants": [{"id": 19189326, "gamerTag": "Kr!stal:0", "prefix": "RM | GUMP2", "user": {"location": {"city": "Lawrenceville", "state": "GA", "country": "United States"}}, "player": {"id": 2409815, "gamerTag": "AO ASHI SEASON 2 2026", "prefix": "RM | GUMP2", "user": {"location": {"city": "Lawrenceville", "state": "GA", "country": "United States"}}}}]}, "standing": {"placement": 1, "stats": {"score": {"value": 2}}}}, {"id": "92091532-1", "entrant": {"id": 20852847, "name": "Haps_idot", "participants": [{"id": 19188918, "gamerTag": "Haps_idot", "prefix": null, "user": {"location": {"city": "Atlanta", "state": "GA", "country": "United States"}}, "player": {"id": 3709056, "gamerTag": "Haps_idot", "prefix": null, "user": {"location": {"city": "Atlanta", "state": "GA", "country": "United States"}}}}]}, "standing": {"placement": 2, "stats": {"score": {"value": 0}}}}], "games": null}, {"id": 92091533, "state": 3, "round": 1, "fullRoundText": "Winners Round 1", "completedAt": 1754009100, "winnerId": 20794047, "slots": [{"id": "92091533-0", "entrant": {"id": 20794047, "name": "Ave~", "participants": [{"id": 19137049, "gamerTag": "Ave~", "prefix": "", "user": {"location": {"city": null, "state": null, "country": null}}, "player": {"id": 38830, "gamerTag": "Ave~", "prefix": "", "user": {"location": {"city": null, "state": null, "country": null}}}}]}, "standing": {"placement": 1, "stats": {"score": {"value": 2}}}}, {"id": "92091533-1", "entrant": {"id": 20854175, "name": "D.King79", "participants": [{"id": 19190083, "gamerTag": "D.King79", "prefix": null, "user": {"location": {"city": "Mt. Olympus", "state": "GA", "country": "United States"}}, "player": {"id": 534660, "gamerTag": "D.King79", "prefix": null, "user": {"location": {"city": "Mt. Olympus", "state": "GA", "country": "United States"}}}}]}, "standing": {"placement": 2, "stats": {"score": {"value": 0}}}}], "games": [{"id": 31644368, "orderNum": 1, "winnerId": 20794047, "entrant1Score": null, "entrant2Score": 0, "stage": null, "selections": [{"id": 46585487, "selectionType": "CHARACTER", "selectionValue": 1311, "entrant": {"id": 20794047}, "character": {"id": 1311, "name": "Mii Brawler"}}, {"id": 46585488, "selectionType": "CHARACTER", "selectionValue": 1526, "entrant": {"id": 20854175}, "character": {"id": 1526, "name": "Hero"}}]}, {"id": 31644369, "orderNum": 2, "winnerId": 20794047, "entrant1Score": null, "entrant2Score": 0, "stage": null, "selections": [{"id": 46585489, "selectionType": "CHARACTER", "selectionValue": 1311, "entrant": {"id": 20794047}, "character": {"id": 1311, "name": "Mii Brawler"}}, {"id": 46585490, "selectionType": "CHARACTER", "selectionValue": 1526, "entrant": {"id": 20854175}, "character": {"id": 1526, "name": "Hero"}}]}]}, {"id": 92091534, "state": 3, "round": 1, "fullRoundText": "Winners Round 1", "completedAt": 1754008562, "winnerId": 20853422, "slots": [{"id": "92091534-0", "entrant": {"id": 20853422, "name": "WFF | Olive", "participants": [{"id": 19189439, "gamerTag": "Olive", "prefix": "WFF", "user": {"location": {"city": "Atlanta", "state": "GA", "country": "United States"}}, "player": {"id": 1810274, "gamerTag": "Planet Of Da", "prefix": "WeFarmFrank", "user": {"location": {"city": "Atlanta", "state": "GA", "country": "United States"}}}}]}, "standing": {"placement": 1, "stats": {"score": {"value": 2}}}}, {"id": "92091534-1", "entrant": {"id": 20853218, "name": "KSU | colorful\u029a\u025e", "participants": [{"id": 19189247, "gamerTag": "colorful\u029a\u025e", "prefix": "KSU", "user": {"location": {"city": "Kennesaw", "state": "GA", "country": "United States"}}, "player": {"id": 1783074, "gamerTag": "colorful\u029a\u025e", "prefix": "KSU | RM", "user": {"location": {"city": "Kennesaw", "state": "GA", "country": "United States"}}}}]}, "standing": {"placement": 2, "stats": {"score": {"value": 1}}}}], "games": null}, {"id": 92091535, "state": 3, "round": 1, "fullRoundText": "Winners Round 1", "completedAt": 1754008298, "winnerId": 20844264, "slots": [{"id": "92091535-0", "entrant": {"id": 20844264, "name": "ROK | Karu!", "participants": [{"id": 19180983, "gamerTag": "Karu!", "prefix": "ROK", "user": {"location": {"city": null, "state": null, "country": "United States"}}, "player": {"id": 1964751, "gamerTag": "Super Awesome Duck", "prefix": "ROK", "user": {"location": {"city": null, "state": null, "country": "United States"}}}}]}, "standing": {"placement": 1, "stats": {"score": {"value": 2}}}}, {"id": "92091535-1", "entrant": {"id": 20853570, "name": "Pleeploploop", "participants": [{"id": 19189578, "gamerTag": "Pleeploploop", "prefix": "", "user": {"location": {"city": "Snellville", "state": null, "country": "United States"}}, "player": {"id": 1739676, "gamerTag": "Pleeploploop", "prefix": "", "user": {"location": {"city": "Snellville", "state": null, "country": "United States"}}}}]}, "standing": {"placement": 2, "stats": {"score": {"value": 0}}}}], "games": null}, {"id": 92091536, "state": 3, "round": 1, "fullRoundText": "Winners Round 1", "completedAt": 1754008572, "winnerId": 20851536, "slots": [{"id": "92091536-0", "entrant": {"id": 20851536, "name": "Trout~", "participants": [{"id": 19187652, "gamerTag": "Trout~", "prefix": "", "user": {"location": {"city": "Lawrenceville", "state": "GA", "country": "United States"}}, "player": {"id": 905410, "gamerTag": "Primary Trout~", "prefix": "", "user": {"location": {"city": "Lawrenceville", "state": "GA", "country": "United States"}}}}]}, "standing": {"placement": 1, "stats": {"score": {"value": 2}}}}, {"id": "92091536-1", "entrant": {"id": 20853043, "name": "Andromeda", "participants": [{"id": 19189082, "gamerTag": "Andromeda", "prefix": "", "user": {"location": {"city": "Columbus", "state": "GA", "country": "United States"}}, "player": {"id": 1458791, "gamerTag": "Andromeda", "prefix": "", "user": {"location": {"city": "Columbus", "state": "GA", "country": "United States"}}}}]}, "standing": {"placement": 2, "stats": {"score": {"value": 1}}}}], "games": null}, {"id": 92091537, "state": 3, "round": 1, "fullRoundText": "Winners Round 1", "completedAt": 1754008288, "winnerId": 20853726, "slots": [{"id": "92091537-0", "entrant": {"id": 20853726, "name": "HyperKirby", "participants": [{"id": 19189706, "gamerTag": "HyperKirby", "prefix": null, "user": {"location": {"city": "Lawrenceville", "state": "GA", "country": "United States"}}, "player": {"id": 71079, "gamerTag": "HyperKirby", "prefix": null, "user": {"location": {"city": "Lawrenceville", "state": "GA", "country": "United States"}}}}]}, "standing": {"placement": 1, "stats": {"score": {"value": 2}}}}, {"id": "92091537-1", "entrant": {"id": 20853127, "name": "Bwup", "participants": [{"id": 19189162, "gamerTag": "Bwup", "prefix": "", "user": {"location": {"city": null, "state": null, "country": "United States"}}, "player": {"id": 4903487, "gamerTag": "Bwup", "prefix": "", "user": {"location": {"city": null, "state": null, "country": "United States"}}}}]}, "standing": {"placement": 2, "stats": {"score": {"value": 0}}}}], "games": null}]}}}