{"phase": {"seeds": {"pageInfo": {"totalPages": 1, "total": 25}, "nodes": [{"id": 36528094, "seedNum": 1, "entrant": {"id": 21206498, "name": "Colbol", "participants": [{"id": 19502971, "gamerTag": "Colbol", "prefix": "", "user": {"location": {"city": "Tucker", "state": "GA", "country": "United States"}}, "player": {"id": 1009, "gamerTag": "Colbol", "prefix": "", "user": {"location": {"city": "Tucker", "state": "GA", "country": "United States"}}}}]}}, {"id": 36528349, "seedNum": 9, "entrant": {"id": 21206752, "name": "Emu", "participants": [{"id": 19503167, "gamerTag": "Emu", "prefix": "", "user": {"location": {"city": null, "state": null, "country": "United States"}}, "player": {"id": 25608, "gamerTag": "Emu", "prefix": "", "user": {"location": {"city": null, "state": null, "country": "United States"}}}}]}}, {"id": 36519790, "seedNum": 3, "entrant": {"id": 21200892, "name": "swaggerbee", "participants": [{"id": 19497768, "gamerTag": "swaggerbee", "prefix": "", "user": {"location": {"city": "Atlanta", "state": "GA", "country": "United States"}}, "player": {"id": 1687384, "gamerTag": "swaggerbee", "prefix": "", "user": {"location": {"city": "Atlanta", "state": "GA", "country": "United States"}}}}]}}, {"id": 36525140, "seedNum": 2, "entrant": {"id": 21204202, "name": "Austintacious", "participants": [{"id": 19500844, "gamerTag": "Austintacious", "prefix": "", "user": {"location": {"city": "Atlanta", "state": "GA", "country": "United States"}}, "player": {"id": 14025, "gamerTag": "Austintacious", "prefix": "", "user": {"location": {"city": "Atlanta", "state": "GA", "country": "United States"}}}}]}}, {"id": 36529592, "seedNum": 4, "entrant": {"id": 21207792, "name": "skyguy | Chris Danger", "participants": [{"id": 19504110, "gamerTag": "Chris Danger", "prefix": "skyguy", "user": {"location": {"city": "Atlanta", "state": "GA", "country": "United States"}}, "player": {"id": 2808268, "gamerTag": "Chris Danger", "prefix": "skyguy", "user": {"location": {"city": "Atlanta", "state": "GA", "country": "United States"}}}}]}}, {"id": 36463880, "seedNum": 7, "entrant": {"id": 21165347, "name": "N/a | C$", "participants": [{"id": 19466535, "gamerTag": "C$", "prefix": "N/a", "user": {"location": null}, "player": {"id": 228175, "gamerTag": "C$", "prefix": "N/a", "user": {"location": null}}}]}}, {"id": 36529628, "seedNum": 6, "entrant": {"id": 21207812, "name": "Joseph", "participants": [{"id": 19504131, "gamerTag": "Joseph", "prefix": "", "user": {"location": {"city": "", "state": "AL", "country": "United States"}}, "player": {"id": 22422, "gamerTag": "Joseph", "prefix": "", "user": {"location": {"city": "", "state": "AL", "country": "United States"}}}}]}}, {"id": 36519621, "seedNum": 11, "entrant": {"id": 21200766, "name": "EVIL | Alas", "participants": [{"id": 19497660, "gamerTag": "Alas", "prefix": "EVIL", "user": {"location": {"city": null, "state": null, "country": null}}, "player": {"id": 25946, "gamerTag": "Alas", "prefix": "EVIL", "user": {"location": {"city": null, "state": null, "country": null}}}}]}}, {"id": 36523515, "seedNum": 5, "entrant": {"id": 21202952, "name": "Monolithic", "participants": [{"id": 19499679, "gamerTag": "Monolithic", "prefix": "", "user": {"location": {"city": "", "state": "GA", "country": "United States"}}, "player": {"id": 1926775, "gamerTag": "Monolithic", "prefix": "", "user": {"location": {"city": "", "state": "GA", "country": "United States"}}}}]}}, {"id": 36468746, "seedNum": 8, "entrant": {"id": 21168304, "name": "Wolven", "participants": [{"id": 19469234, "gamerTag": "Wolven", "prefix": null, "user": {"location": {"city": "Atlanta", "state": "GA", "country": "United States"}}, "player": {"id": 126978, "gamerTag": "Wolven", "prefix": null, "user": {"location": {"city": "Atlanta", "state": "GA", "country": "United States"}}}}]}}, {"id": 36529280, "seedNum": 10, "entrant": {"id": 21207588, "name": "Ronan", "participants": [{"id": 19503927, "gamerTag": "Ronan", "prefix": "", "user": {"location": {"city": "Atlanta", "state": "GA", "country": "United States"}}, "player": {"id": 147384, "gamerTag": "Ronan", "prefix": "", "user": {"location": {"city": "Atlanta", "state": "GA", "country": "United States"}}}}]}}, {"id": 36528275, "seedNum": 12, "entrant": {"id": 21206679, "name": "citizendog", "participants": [{"id": 19503116, "gamerTag": "citizendog", "prefix": "", "user": {"location": {"city": "Monroe", "state": "GA", "country": "United States"}}, "player": {"id": 176325, "gamerTag": "citizendog", "prefix": "", "user": {"location": {"city": "Monroe", "state": "GA", "country": "United States"}}}}]}}, {"id": 36520159, "seedNum": 14, "entrant": {"id": 21201175, "name": "blaise", "participants": [{"id": 19498007, "gamerTag": "blaise", "prefix": "", "user": {"location": {"city": "douglasville", "state": "GA", "country": "United States"}}, "player": {"id": 1326121, "gamerTag": "blaise", "prefix": "", "user": {"location": {"city": "douglasville", "state": "GA", "country": "United States"}}}}]}}, {"id": 36527960, "seedNum": 15, "entrant": {"id": 21206375, "name": "Tyme", "participants": [{"id": 19502858, "gamerTag": "Tyme", "prefix": null, "user": {"location": {"city": null, "state": null, "country": null}}, "player": {"id": 325589, "gamerTag": "Tyme", "prefix": null, "user": {"location": {"city": null, "state": null, "country": null}}}}]}}, {"id": 36468338, "seedNum": 17, "entrant": {"id": 21167949, "name": "Deign", "participants": [{"id": 19468901, "gamerTag": "Deign", "prefix": "", "user": {"location": {"city": null, "state": null, "country": "United States"}}, "player": {"id": 325595, "gamerTag": "Deign", "prefix": "", "user": {"location": {"city": null, "state": null, "country": "United States"}}}}]}}, {"id": 36525178, "seedNum": 20, "entrant": {"id": 21204240, "name": "Newt Man", "participants": [{"id": 19500872, "gamerTag": "Newt Man", "prefix": "", "user": {"location": {"city": null, "state": null, "country": "United States"}}, "player": {"id": 4726806, "gamerTag": "Newt Man", "prefix": "", "user": {"location": {"city": null, "state": null, "country": "United States"}}}}]}}, {"id": 36519894, "seedNum": 13, "entrant": {"id": 21200980, "name": "Juan J. Steven's", "participants": [{"id": 19497848, "gamerTag": "Juan J. Steven's", "prefix": null, "user": {"location": {"city": "atlanta", "state": "GA", "country": "United States"}}, "player": {"id": 3318064, "gamerTag": "Guts", "prefix": "\u72a0\u7272\u306e\u70d9\u5370", "user": {"location": {"city": "atlanta", "state": "GA", "country": "United States"}}}}]}}, {"id": 36529540, "seedNum": 16, "entrant": {"id": 21207743, "name": "noided", "participants": [{"id": 19504063, "gamerTag": "noided", "prefix": "", "user": {"location": {"city": "Atlanta", "state": "GA", "country": "United States"}}, "player": {"id": 2586521, "gamerTag": "noided", "prefix": "", "user": {"location": {"city": "Atlanta", "state": "GA", "country": "United States"}}}}]}}, {"id": 36527912, "seedNum": 18, "entrant": {"id": 21206333, "name": "16 Galindo Ledgedashes", "participants": [{"id": 19502824, "gamerTag": "16 Galindo Ledgedashes", "prefix": null, "user": {"location": {"city": null, "state": null, "country": null}}, "player": {"id": 4964787, "gamerTag": "16 Galindo Ledgedashes", "prefix": null, "user": {"location": {"city": null, "state": null, "country": null}}}}]}}, {"id": 36463897, "seedNum": 19, "entrant": {"id": 21165364, "name": "Kain Dewey", "participants": [{"id": 19466549, "gamerTag": "Kain Dewey", "prefix": "", "user": {"location": {"city": "", "state": "MD", "country": "United States"}}, "player": {"id": 281086, "gamerTag": "Kain Dewey", "prefix": "", "user": {"location": {"city": "", "state": "MD", "country": "United States"}}}}]}}, {"id": 36524887, "seedNum": 21, "entrant": {"id": 21203983, "name": "STEEZY", "participants": [{"id": 19500656, "gamerTag": "STEEZY", "prefix": null, "user": {"location": {"city": "HELL", "state": "GA", "country": "United States"}}, "player": {"id": 2496238, "gamerTag": "STEEZY", "prefix": null, "user": {"location": {"city": "HELL", "state": "GA", "country": "United States"}}}}]}}, {"id": 36520045, "seedNum": 22, "entrant": {"id": 21201076, "name": "TSOAP | MuchOlmec", "participants": [{"id": 19497927, "gamerTag": "MuchOlmec", "prefix": "TSOAP", "user": {"location": {"city": "Athens", "state": "GA", "country": "United States"}}, "player": {"id": 1105460, "gamerTag": "MuchOlmec", "prefix": "TSOAP", "user": {"location": {"city": "Athens", "state": "GA", "country": "United States"}}}}]}}, {"id": 36527408, "seedNum": 23, "entrant": {"id": 21205923, "name": "OU | Wiza", "participants": [{"id": 19502424, "gamerTag": "Wiza", "prefix": "OU", "user": {"location": {"city": "Atlanta", "state": "GA", "country": "United States"}}, "player": {"id": 71442, "gamerTag": "Wiza", "prefix": "OU", "user": {"location": {"city": "Atlanta", "state": "GA", "country": "United States"}}}}]}}, {"id": 36519607, "seedNum": 24, "entrant": {"id": 21200752, "name": "Permafrost", "participants": [{"id": 19497647, "gamerTag": "Permafrost", "prefix": "", "user": {"location": {"city": "Atlanta", "state": "GA", "country": "United States"}}, "player": {"id": 1256898, "gamerTag": "Permafrost", "prefix": "", "user": {"location": {"city": "Atlanta", "state": "GA", "country": "United States"}}}}]}}, {"id": 36520028, "seedNum": 25, "entrant": {"id": 21201059, "name": "TPS | $CAIT", "participants": [{"id": 19497918, "gamerTag": "$CAIT", "prefix": "TPS", "user": {"location": {"city": "Acworth", "state": "GA", "country": "United States"}}, "player": {"id": 3422494, "gamerTag": "$CAITLIN", "prefix": "TPS", "user": {"location": {"city": "Acworth", "state": "GA", "country": "United States"}}}}]}}]}}}