{"phase": {"seeds": {"pageInfo": {"totalPages": 1, "total": 8}, "nodes": [{"id": 35921429, "seedNum": 1, "entrant": {"id": 20818912, "name": "GUMP2 | ToxiC", "participants": [{"id": 19158266, "gamerTag": "ToxiC", "prefix": "GUMP2", "user": {"location": {"city": "Marietta", "state": "GA", "country": "United States"}}, "player": {"id": 2585804, "gamerTag": "ToxiC", "prefix": "GUMP2", "user": {"location": {"city": "Marietta", "state": "GA", "country": "United States"}}}}]}}, {"id": 35921434, "seedNum": 2, "entrant": {"id": 20818917, "name": "red dot", "participants": [{"id": 19158271, "gamerTag": "red dot", "prefix": "", "user": {"location": {"city": "Milton", "state": "GA", "country": "United States"}}, "player": {"id": 1812177, "gamerTag": "red dot", "prefix": "", "user": {"location": {"city": "Milton", "state": "GA", "country": "United States"}}}}]}}, {"id": 35921436, "seedNum": 3, "entrant": {"id": 20818919, "name": "Whaley", "participants": [{"id": 19158272, "gamerTag": "Whaley", "prefix": "", "user": {"location": {"city": "Stone Mountain", "state": "GA", "country": "United States"}}, "player": {"id": 2016149, "gamerTag": "Whaley", "prefix": "KSU|UTO|BLZE", "user": {"location": {"city": "Stone Mountain", "state": "GA", "country": "United States"}}}}]}}, {"id": 35921457, "seedNum": 6, "entrant": {"id": 20818928, "name": "KSU | Subzero", "participants": [{"id": 19158281, "gamerTag": "Subzero", "prefix": "KSU", "user": {"location": {"city": "Acworth", "state": "GA", "country": "United States"}}, "player": {"id": 1808159, "gamerTag": "Subzero", "prefix": "KSU", "user": {"location": {"city": "Acworth", "state": "GA", "country": "United States"}}}}]}}, {"id": 35921437, "seedNum": 4, "entrant": {"id": 20818920, "name": "carlop", "participants": [{"id": 19158274, "gamerTag": "carlop", "prefix": null, "user": {"location": {"city": "Johns Creek", "state": "GA", "country": "United States"}}, "player": {"id": 3431919, "gamerTag": "carlop", "prefix": null, "user": {"location": {"city": "Johns Creek", "state": "GA", "country": "United States"}}}}]}}, {"id": 35921452, "seedNum": 5, "entrant": {"id": 20818923, "name": "KSU | colorful\u029a\u025e", "participants": [{"id": 19158277, "gamerTag": "colorful\u029a\u025e", "prefix": "KSU", "user": {"location": {"city": "Kennesaw", "state": "GA", "country": "United States"}}, "player": {"id": 1783074, "gamerTag": "colorful\u029a\u025e", "prefix": "KSU | RM", "user": {"location": {"city": "Kennesaw", "state": "GA", "country": "United States"}}}}]}}, {"id": 35921459, "seedNum": 7, "entrant": {"id": 20818930, "name": "SaggyMilkJug", "participants": [{"id": 19158283, "gamerTag": "SaggyMilkJug", "prefix": "", "user": {"location": {"city": "Atlanta", "state": "GA", "country": "United States"}}, "player": {"id": 4651404, "gamerTag": "SaggyMilkJug", "prefix": "", "user": {"location": {"city": "Atlanta", "state": "GA", "country": "United States"}}}}]}}, {"id": 35921495, "seedNum": 8, "entrant": {"id": 20818968, "name": "RM | GUMP2 | Kr!stal:0", "participants": [{"id": 19158315, "gamerTag": "Kr!stal:0", "prefix": "RM | GUMP2", "user": {"location": {"city": "Lawrenceville", "state": "GA", "country": "United States"}}, "player": {"id": 2409815, "gamerTag": "AO ASHI SEASON 2 2026", "prefix": "RM | GUMP2", "user": {"location": {"city": "Lawrenceville", "state": "GA", "country": "United States"}}}}]}}]}}}