{"event": {"sets": {"pageInfo": {"totalPages": 4, "total": 50}, "nodes": [{"id": 93125687, "state": 3, "round": -4, "fullRoundText": "Losers Round 2", "completedAt": 1756256744, "winnerId": 21083577, "slots": [{"id": "93125687-0", "entrant": {"id": 21083577, "name": "BOLT | KhalRhaego", "participants": [{"id": 19393791, "gamerTag": "KhalRhaego", "prefix": "BOLT", "user": {"location": {"city": "Jonesboro", "state": "GA", "country": "United States"}}, "player": {"id": 4076327, "gamerTag": "KhalRhaego", "prefix": "BOLT", "user": {"location": {"city": "Jonesboro", "state": "GA", "country": "United States"}}}}]}, "standing": {"placement": 1, "stats": {"score": {"value": 3}}}}, {"id": "93125687-1", "entrant": {"id": 21083022, "name": "Cupp!", "participants": [{"id": 19393308, "gamerTag": "Cupp!", "prefix": "", "user": {"location": {"city": "Atlanta", "state": "GA", "country": "United States"}}, "player": {"id": 3779462, "gamerTag": "Cupp!", "prefix": "", "user": {"location": {"city": "Atlanta", "state": "GA", "country": "United States"}}}}]}, "standing": {"placement": 2, "stats": {"score": {"value": 0}}}}], "games": null}, {"id": 93125688, "state": 3, "round": -4, "fullRoundText": "Losers Round 2", "completedAt": 1756255938, "winnerId": 21082337, "slots": [{"id": "93125688-0", "entrant": {"id": 21082337, "name": "Air | Airplanes", "participants": [{"id": 19392684, "gamerTag": "Airplanes", "prefix": "Air", "user": {"location": {"city": "Dacula", "state": "GA", "country": "United States"}}, "player": {"id": 3872614, "gamerTag": "Airplanes", "prefix": "Air", "user": {"location": {"city": "Dacula", "state": "GA", "country": "United States"}}}}]}, "standing": {"placement": 1, "stats": {"score": {"value": 3}}}}, {"id": "93125688-1", "entrant": {"id": 21083446, "name": "jwhighwind", "participants": [{"id": 19393675, "gamerTag": "jwhighwind", "prefix": null, "user": {"location": {"city": "", "state": "GA", "country": "United States"}}, "player": {"id": 3416836, "gamerTag": "jwhighwind", "prefix": null, "user": {"location": {"city": "", "state": "GA", "country": "United States"}}}}]}, "standing": {"placement": 2, "stats": {"score": {"value": 0}}}}], "games": null}, {"id": 93125689, "state": 3, "round": -4, "fullRoundText": "Losers Round 2", "completedAt": 1756256526, "winnerId": 21083672, "slots": [{"id": "93125689-0", "entrant": {"id": 21083672, "name": "Archway", "participants": [{"id": 19393885, "gamerTag": "Archway", "prefix": "", "user": {"location": {"city": "Sandy Springs", "state": "GA", "country": "United States"}}, "player": {"id": 1435251, "gamerTag": "Archway", "prefix": "", "user": {"location": {"city": "Sandy Springs", "state": "GA", "country": "United States"}}}}]}, "standing": {"placement": 1, "stats": {"score": {"value": 3}}}}, {"id": "93125689-1", "entrant": {"id": 21083875, "name": "MBossProductions", "participants": [{"id": 19394063, "gamerTag": "MBossProductions", "prefix": "", "user": {"location": {"city": "Norcross", "state": "GA", "country": "United States"}}, "player": {"id": 1997490, "gamerTag": "MBossProductions", "prefix": "", "user": {"location": {"city": "Norcross", "state": "GA", "country": "United States"}}}}]}, "standing": {"placement": 2, "stats": {"score": {"value": 1}}}}], "games": null}, {"id": 93125690, "state": 3, "round": -4, "fullRoundText": "Losers Round 2", "completedAt": 1756256589, "winnerId": 21083576, "slots": [{"id": "93125690-0", "entrant": {"id": 21083576, "name": "Xangief", "participants": [{"id": 19393790, "gamerTag": "Xangief", "prefix": null, "user": {"location": {"city": "Atlanta", "state": "GA", "country": "United States"}}, "player": {"id": 135082, "gamerTag": "Xangief", "prefix": null, "user": {"location": {"city": "Atlanta", "state": "GA", "country": "United States"}}}}]}, "standing": {"placement": 1, "stats": {"score": {"value": 3}}}}, {"id": "93125690-1", "entrant": {"id": 21080722, "name": "WFG | ChaosDunk", "participants": [{"id": 19391191, "gamerTag": "ChaosDunk", "prefix": "WFG", "user": {"location": {"city": "Woodstock", "state": "GA", "country": "United States"}}, "player": {"id": 24721, "gamerTag": "ChaosDunk", "prefix": "WFG", "user": {"location": {"city": "Woodstock", "state": "GA", "country": "United States"}}}}]}, "standing": {"placement": 2, "stats": {"score": {"value": 1}}}}], "games": null}, {"id": 93125691, "state": 3, "round": -4, "fullRoundText": "Losers Round 2", "completedAt": 1756256267, "winnerId": 21083698, "slots": [{"id": "93125691-0", "entrant": {"id": 21077635, "name": "4o4 | Bakuryu", "participants": [{"id": 19388356, "gamerTag": "Bakuryu", "prefix": "4o4", "user": {"location": {"city": "Marietta", "state": "GA", "country": "United States"}}, "player": {"id": 337943, "gamerTag": "Bakuryu", "prefix": "4o4", "user": {"location": {"city": "Marietta", "state": "GA", "country": "United States"}}}}]}, "standing": {"placement": 2, "stats": {"score": {"value": 2}}}}, {"id": "93125691-1", "entrant": {"id": 21083698, "name": "LukeWarm", "participants": [{"id": 19393908, "gamerTag": "LukeWarm", "prefix": "", "user": {"location": {"city": "Alpharetta", "state": "GA", "country": "United States"}}, "player": {"id": 1348903, "gamerTag": "LukeWarm", "prefix": "", "user": {"location": {"city": "Alpharetta", "state": "GA", "country": "United States"}}}}]}, "standing": {"placement": 1, "stats": {"score": {"value": 3}}}}], "games": null}, {"id": 93125692, "state": 3, "round": -4, "fullRoundText": "Losers Round 2", "completedAt": 1756256578, "winnerId": 21083877, "slots": [{"id": "93125692-0", "entrant": {"id": 21083877, "name": "stylesK", "participants": [{"id": 19394065, "gamerTag": "stylesK", "prefix": "", "user": {"location": {"city": "Sandy Springs", "state": "GA", "country": "United States"}}, "player": {"id": 3475419, "gamerTag": "stylesK", "prefix": "", "user": {"location": {"city": "Sandy Springs", "state": "GA", "country": "United States"}}}}]}, "standing": {"placement": 1, "stats": {"score": {"value": 3}}}}, {"id": "93125692-1", "entrant": {"id": 21083866, "name": "Barky", "participants": [{"id": 19394054, "gamerTag": "Barky", "prefix": null, "user": {"location": {"city": "Orlando", "state": "FL", "country": "United States"}}, "player": {"id": 1460695, "gamerTag": "Barky", "prefix": null, "user": {"location": {"city": "Orlando", "state": "FL", "country": "United States"}}}}]}, "standing": {"placement": 2, "stats": {"score": {"value": 0}}}}], "games": null}, {"id": 93125693, "state": 3, "round": -4, "fullRoundText": "Losers Round 2", "completedAt": 1756256393, "winnerId": 21083822, "slots": [{"id": "93125693-0", "entrant": {"id": 21083829, "name": "EEK!", "participants": [{"id": 19394025, "gamerTag": "EEK!", "prefix": null, "user": {"location": {"city": "Atlanta", "state": "GA", "country": "United States"}}, "player": {"id": 148794, "gamerTag": "EEK!", "prefix": null, "user": {"location": {"city": "Atlanta", "state": "GA", "country": "United States"}}}}]}, "standing": {"placement": 2, "stats": {"score": {"value": 1}}}}, {"id": "93125693-1", "entrant": {"id": 21083822, "name": "Leon Nights", "participants": [{"id": 19394020, "gamerTag": "Leon Nights", "prefix": null, "user": {"location": {"city": "Atlanta", "state": "GA", "country": "United States"}}, "player": {"id": 4752335, "gamerTag": "Leon Nights", "prefix": null, "user": {"location": {"city": "Atlanta", "state": "GA", "country": "United States"}}}}]}, "standing": {"placement": 1, "stats": {"score": {"value": 3}}}}], "games": null}, {"id": 93125694, "state": 3, "round": -4, "fullRoundText": "Losers Round 2", "completedAt": 1756256187, "winnerId": 21082887, "slots": [{"id": "93125694-0", "entrant": {"id": 21082887, "name": "C$", "participants": [{"id": 19393187, "gamerTag": "C$", "prefix": "", "user": {"location": {"city": "Stone mountain", "state": "GA", "country": "United States"}}, "player": {"id": 1532681, "gamerTag": "C$", "prefix": "", "user": {"location": {"city": "Stone mountain", "state": "GA", "country": "United States"}}}}]}, "standing": {"placement": 1, "stats": {"score": {"value": 3}}}}, {"id": "93125694-1", "entrant": {"id": 21081586, "name": "Pazure", "participants": [{"id": 19391992, "gamerTag": "Pazure", "prefix": null, "user": {"location": {"city": null, "state": null, "country": "United States"}}, "player": {"id": 72218, "gamerTag": "Pazure", "prefix": null, "user": {"location": {"city": null, "state": null, "country": "United States"}}}}]}, "standing": {"placement": 2, "stats": {"score": {"value": 0}}}}], "games": null}, {"id": 93125680, "state": 3, "round": -3, "fullRoundText": "Losers Round 1", "completedAt": 1756255137, "winnerId": 21083446, "slots": [{"id": "93125680-0", "entrant": {"id": 21084006, "name": "WhatMike", "participants": [{"id": 19394179, "gamerTag": "WhatMike", "prefix": "", "user": {"location": {"city": "Oakwood", "state": "GA", "country": "United States"}}, "player": {"id": 154427, "gamerTag": "WhatMike", "prefix": "", "user": {"location": {"city": "Oakwood", "state": "GA", "country": "United States"}}}}]}, "standing": {"placement": 2, "stats": {"score": {"value": 0}}}}, {"id": "93125680-1", "entrant": {"id": 21083446, "name": "jwhighwind", "participants": [{"id": 19393675, "gamerTag": "jwhighwind", "prefix": null, "user": {"location": {"city": "", "state": "GA", "country": "United States"}}, "player": {"id": 3416836, "gamerTag": "jwhighwind", "prefix": null, "user": {"location": {"city": "", "state": "GA", "country": "United States"}}}}]}, "standing": {"placement": 1, "stats": {"score": {"value": 3}}}}], "games": null}, {"id": 93125684, "state": 3, "round": -3, "fullRoundText": "Losers Round 1", "completedAt": 1756255431, "winnerId": 21083866, "slots": [{"id": "93125684-0", "entrant": {"id": 21083866, "name": "Barky", "participants": [{"id": 19394054, "gamerTag": "Barky", "prefix": null, "user": {"location": {"city": "Orlando", "state": "FL", "country": "United States"}}, "player": {"id": 1460695, "gamerTag": "Barky", "prefix": null, "user": {"location": {"city": "Orlando", "state": "FL", "country": "United States"}}}}]}, "standing": {"placement": 1, "stats": {"score": {"value": 3}}}}, {"id": "93125684-1", "entrant": {"id": 21082899, "name": "WFG | MondoLad", "participants": [{"id": 19393196, "gamerTag": "MondoLad", "prefix": "WFG", "user": {"location": {"city": "Atlanta", "state": "GA", "country": "United States"}}, "player": {"id": 180028, "gamerTag": "MondoLad", "prefix": "WFG", "user": {"location": {"city": "Atlanta", "state": "GA", "country": "United States"}}}}]}, "standing": {"placement": 2, "stats": {"score": {"value": 0}}}}], "games": null}, {"id": 93125615, "state": 3, "round": 1, "fullRoundText": "Winners Round 1", "completedAt": 1756254609, "winnerId": 21082887, "slots": [{"id": "93125615-0", "entrant": {"id": 21082887, "name": "C$", "participants": [{"id": 19393187, "gamerTag": "C$", "prefix": "", "user": {"location": {"city": "Stone mountain", "state": "GA", "country": "United States"}}, "player": {"id": 1532681, "gamerTag": "C$", "prefix": "", "user": {"location": {"city": "Stone mountain", "state": "GA", "country": "United States"}}}}]}, "standing": {"placement": 1, "stats": {"score": {"value": 3}}}}, {"id": "93125615-1", "entrant": {"id": 21083022, "name": "Cupp!", "participants": [{"id": 19393308, "gamerTag": "Cupp!", "prefix": "", "user": {"location": {"city": "Atlanta", "state": "GA", "country": "United States"}}, "player": {"id": 3779462, "gamerTag": "Cupp!", "prefix": "", "user": {"location": {"city": "Atlanta", "state": "GA", "country": "United States"}}}}]}, "standing": {"placement": 2, "stats": {"score": {"value": 2}}}}], "games": null}, {"id": 93125616, "state": 3, "round": 1, "fullRoundText": "Winners Round 1", "completedAt": 1756254554, "winnerId": 21083829, "slots": [{"id": "93125616-0", "entrant": {"id": 21083829, "name": "EEK!", "participants": [{"id": 19394025, "gamerTag": "EEK!", "prefix": null, "user": {"location": {"city": "Atlanta", "state": "GA", "country": "United States"}}, "player": {"id": 148794, "gamerTag": "EEK!", "prefix": null, "user": {"location": {"city": "Atlanta", "state": "GA", "country": "United States"}}}}]}, "standing": {"placement": 1, "stats": {"score": {"value": 3}}}}, {"id": "93125616-1", "entrant": {"id": 21084006, "name": "WhatMike", "participants": [{"id": 19394179, "gamerTag": "WhatMike", "prefix": "", "user": {"location": {"city": "Oakwood", "state": "GA", "country": "United States"}}, "player": {"id": 154427, "gamerTag": "WhatMike", "prefix": "", "user": {"location": {"city": "Oakwood", "state": "GA", "country": "United States"}}}}]}, "standing": {"placement": 2, "stats": {"score": {"value": 1}}}}], "games": null}, {"id": 93125617, "state": 3, "round": 1, "fullRoundText": "Winners Round 1", "completedAt": 1756254272, "winnerId": 21082695, "slots": [{"id": "93125617-0", "entrant": {"id": 21082695, "name": "4o4 | chrisymandias", "participants": [{"id": 19393011, "gamerTag": "chrisymandias", "prefix": "4o4", "user": {"location": {"city": "Dacula", "state": "GA", "country": "United States"}}, "player": {"id": 258173, "gamerTag": "chrisymandias", "prefix": "4o4", "user": {"location": {"city": "Dacula", "state": "GA", "country": "United States"}}}}]}, "standing": {"placement": 1, "stats": {"score": {"value": 3}}}}, {"id": "93125617-1", "entrant": {"id": 21083446, "name": "jwhighwind", "participants": [{"id": 19393675, "gamerTag": "jwhighwind", "prefix": null, "user": {"location": {"city": "", "state": "GA", "country": "United States"}}, "player": {"id": 3416836, "gamerTag": "jwhighwind", "prefix": null, "user": {"location": {"city": "", "state": "GA", "country": "United States"}}}}]}, "standing": {"placement": 2, "stats": {"score": {"value": 0}}}}], "games": null}, {"id": 93125619, "state": 3, "round": 1, "fullRoundText": "Winners Round 1", "completedAt": 1756254594, "winnerId": 21083877, "slots": [{"id": "93125619-0", "entrant": {"id": 21083875, "name": "MBossProductions", "participants": [{"id": 19394063, "gamerTag": "MBossProductions", "prefix": "", "user": {"location": {"city": "Norcross", "state": "GA", "country": "United States"}}, "player": {"id": 1997490, "gamerTag": "MBossProductions", "prefix": "", "user": {"location": {"city": "Norcross", "state": "GA", "country": "United States"}}}}]}, "standing": {"placement": 2, "stats": {"score": {"value": 1}}}}, {"id": "93125619-1", "entrant": {"id": 21083877, "name": "stylesK", "participants": [{"id": 19394065, "gamerTag": "stylesK", "prefix": "", "user": {"location": {"city": "Sandy Springs", "state": "GA", "country": "United States"}}, "player": {"id": 3475419, "gamerTag": "stylesK", "prefix": "", "user": {"location": {"city": "Sandy Springs", "state": "GA", "country": "United States"}}}}]}, "standing": {"placement": 1, "stats": {"score": {"value": 3}}}}], "games": null}, {"id": 93125621, "state": 3, "round": 1, "fullRoundText": "Winners Round 1", "completedAt": 1756254465, "winnerId": 21077635, "slots": [{"id": "93125621-0", "entrant": {"id": 21077635, "name": "4o4 | Bakuryu", "participants": [{"id": 19388356, "gamerTag": "Bakuryu", "prefix": "4o4", "user": {"location": {"city": "Marietta", "state": "GA", "country": "United States"}}, "player": {"id": 337943, "gamerTag": "Bakuryu", "prefix": "4o4", "user": {"location": {"city": "Marietta", "state": "GA", "country": "United States"}}}}]}, "standing": {"placement": 1, "stats": {"score": {"value": 3}}}}, {"id": "93125621-1", "entrant": {"id": 21080722, "name": "WFG | ChaosDunk", "participants": [{"id": 19391191, "gamerTag": "ChaosDunk", "prefix": "WFG", "user": {"location": {"city": "Woodstock", "state": "GA", "country": "United States"}}, "player": {"id": 24721, "gamerTag": "ChaosDunk", "prefix": "WFG", "user": {"location": {"city": "Woodstock", "state": "GA", "country": "United States"}}}}]}, "standing": {"placement": 2, "stats": {"score": {"value": 0}}}}], "games": null}]}}}