{"event": {"sets": {"pageInfo": {"totalPages": 2, "total": 16}, "nodes": [{"id": 92300731, "state": 3, "round": 1, "fullRoundText": "Winners Round 1", "completedAt": 1754358544, "winnerId": 20884061, "slots": [{"id": "92300731-0", "entrant": {"id": 20884061, "name": "TPS | cryptonic", "participants": [{"id": 19209421, "gamerTag": "cryptonic", "prefix": "TPS", "user": {"location": {"city": "Acworth", "state": "GA", "country": "United States"}}, "player": {"id": 3422494, "gamerTag": "$CAITLIN", "prefix": "TPS", "user": {"location": {"city": "Acworth", "state": "GA", "country": "United States"}}}}]}, "standing": {"placement": 1, "stats": {"score": {"value": 2}}}}, {"id": "92300731-1", "entrant": {"id": 20883870, "name": "afterimage", "participants": [{"id": 19186722, "gamerTag": "afterimage", "prefix": "", "user": {"location": {"city": "Atlanta", "state": "GA", "country": "United States"}}, "player": {"id": 4435133, "gamerTag": "popsicle", "prefix": "", "user": {"location": {"city": "Atlanta", "state": "GA", "country": "United States"}}}}]}, "standing": {"placement": 2, "stats": {"score": {"value": 0}}}}], "games": [{"id": 31717527, "orderNum": 1, "winnerId": 20884061, "entrant1Score": null, "entrant2Score": 0, "stage": null, "selections": [{"id": 46713376, "selectionType": "CHARACTER", "selectionValue": 2, "entrant": {"id": 20884061}, "character": {"id": 2, "name": "Captain Falcon"}}, {"id": 46713377, "selectionType": "CHARACTER", "selectionValue": 23, "entrant": {"id": 20883870}, "character": {"id": 23, "name": "Sheik"}}]}, {"id": 31717528, "orderNum": 2, "winnerId": 20884061, "entrant1Score": null, "entrant2Score": 0, "stage": null, "selections": [{"id": 46713378, "selectionType": "CHARACTER", "selectionValue": 2, "entrant": {"id": 20884061}, "character": {"id": 2, "name": "Captain Falcon"}}, {"id": 46713379, "selectionType": "CHARACTER", "selectionValue": 23, "entrant": {"id": 20883870}, "character": {"id": 23, "name": "Sheik"}}]}]}]}}}