{"event": {"sets": {"pageInfo": {"totalPages": 4, "total": 57}, "nodes": [{"id": 91976383, "state": 3, "round": 1, "fullRoundText": "Winners Round 1", "completedAt": 1753664680, "winnerId": 20819579, "slots": [{"id": "91976383-0", "entrant": {"id": 20819434, "name": "RAMS | RussianJesus", "participants": [{"id": 19158723, "gamerTag": "RussianJesus", "prefix": "RAMS", "user": {"location": {"city": "Atlanta", "state": "GA", "country": "United States"}}, "player": {"id": 1140567, "gamerTag": "RussianJesus", "prefix": "RAMS", "user": {"location": {"city": "Atlanta", "state": "GA", "country": "United States"}}}}]}, "standing": {"placement": 2, "stats": {"score": {"value": -1}}}}, {"id": "91976383-1", "entrant": {"id": 20819579, "name": "Jahku$ha", "participants": [{"id": 19158806, "gamerTag": "Jahku$ha", "prefix": "", "user": {"location": {"city": "Atlanta", "state": "GA", "country": "United States"}}, "player": {"id": 4559746, "gamerTag": "Jahku$ha", "prefix": "", "user": {"location": {"city": "Atlanta", "state": "GA", "country": "United States"}}}}]}, "standing": {"placement": 1, "stats": {"score": {"value": 0}}}}], "games": null}, {"id": 91976306, "state": 3, "round": 1, "fullRoundText": "Winners Round 1", "completedAt": 1753664178, "winnerId": 20819855, "slots": [{"id": "91976306-0", "entrant": {"id": 20819855, "name": "WFF | Olive", "participants": [{"id": 19159065, "gamerTag": "Olive", "prefix": "WFF", "user": {"location": {"city": "Atlanta", "state": "GA", "country": "United States"}}, "player": {"id": 1810274, "gamerTag": "Planet Of Da", "prefix": "WeFarmFrank", "user": {"location": {"city": "Atlanta", "state": "GA", "country": "United States"}}}}]}, "standing": {"placement": 1, "stats": {"score": {"value": 2}}}}, {"id": "91976306-1", "entrant": {"id": 20819861, "name": "buffer1", "participants": [{"id": 19159071, "gamerTag": "buffer1", "prefix": "", "user": null, "player": {"id": 4042082, "gamerTag": "buffer1", "prefix": "", "user": null}}]}, "standing": {"placement": 2, "stats": {"score": {"value": -1}}}}], "games": null}, {"id": 91976385, "state": 3, "round": 1, "fullRoundText": "Winners Round 1", "completedAt": 1753664150, "winnerId": 20818960, "slots": [{"id": "91976385-0", "entrant": {"id": 20819584, "name": "TFT | Handsome Squidward", "participants": [{"id": 19158811, "gamerTag": "Handsome Squidward", "prefix": "TFT", "user": {"location": {"city": "Calhoun", "state": "GA", "country": "United States"}}, "player": {"id": 2241471, "gamerTag": "lil munch", "prefix": "TFT", "user": {"location": {"city": "Calhoun", "state": "GA", "country": "United States"}}}}]}, "standing": {"placement": 2, "stats": {"score": {"value": -1}}}}, {"id": "91976385-1", "entrant": {"id": 20818960, "name": "TFT | Juug$tarr", "participants": [{"id": 19158307, "gamerTag": "Juug$tarr", "prefix": "TFT", "user": {"location": {"city": "Atlanta", "state": "GA", "country": "United States"}}, "player": {"id": 3621035, "gamerTag": "Juug$tarr", "prefix": "TFT", "user": {"location": {"city": "Atlanta", "state": "GA", "country": "United States"}}}}]}, "standing": {"placement": 1, "stats": {"score": {"value": 0}}}}], "games": null}, {"id": 91976307, "state": 3, "round": 1, "fullRoundText": "Winners Round 1", "completedAt": 1753663509, "winnerId": 20819703, "slots": [{"id": "91976307-0", "entrant": {"id": 20819703, "name": "TFT | BigCheese", "participants": [{"id": 19158919, "gamerTag": "BigCheese", "prefix": "TFT", "user": {"location": {"city": null, "state": null, "country": null}}, "player": {"id": 3991446, "gamerTag": "BigCheese", "prefix": "TFT", "user": {"location": {"city": null, "state": null, "country": null}}}}]}, "standing": {"placement": 1, "stats": {"score": {"value": 2}}}}, {"id": "91976307-1", "entrant": {"id": 20819793, "name": "RAMS | XL Dukie AF", "participants": [{"id": 19159009, "gamerTag": "XL Dukie AF", "prefix": "RAMS", "user": {"location": {"city": "Peachtree Corners", "state": "GA", "country": "United States"}}, "player": {"id": 2374690, "gamerTag": "XL Dukie AF", "prefix": "RAMS", "user": {"location": {"city": "Peachtree Corners", "state": "GA", "country": "United States"}}}}]}, "standing": {"placement": 2, "stats": {"score": {"value": 0}}}}], "games": null}, {"id": 91976386, "state": 3, "round": 1, "fullRoundText": "Winners Round 1", "completedAt": 1753664077, "winnerId": 20758052, "slots": [{"id": "91976386-0", "entrant": {"id": 20758052, "name": "TFT | Frank", "participants": [{"id": 19103805, "gamerTag": "Frank", "prefix": "TFT", "user": {"location": {"city": "Doraville", "state": "GA", "country": "United States"}}, "player": {"id": 1227401, "gamerTag": "Terry Labonte", "prefix": "TFT", "user": {"location": {"city": "Doraville", "state": "GA", "country": "United States"}}}}]}, "standing": {"placement": 1, "stats": {"score": {"value": 2}}}}, {"id": "91976386-1", "entrant": {"id": 20819691, "name": "4o4 | Kokuren", "participants": [{"id": 19158907, "gamerTag": "Kokuren", "prefix": "4o4", "user": {"location": {"city": "Marietta", "state": "GA", "country": "United States"}}, "player": {"id": 2282482, "gamerTag": "Kokuren", "prefix": "4o4", "user": {"location": {"city": "Marietta", "state": "GA", "country": "United States"}}}}]}, "standing": {"placement": 2, "stats": {"score": {"value": 0}}}}], "games": null}, {"id": 91976308, "state": 3, "round": 1, "fullRoundText": "Winners Round 1", "completedAt": 1753663709, "winnerId": 20819856, "slots": [{"id": "91976308-0", "entrant": {"id": 20819856, "name": "WFF | Happy", "participants": [{"id": 19159066, "gamerTag": "Happy", "prefix": "WFF", "user": {"location": {"city": "Peachtree CIty", "state": "GA", "country": "United States"}}, "player": {"id": 1383907, "gamerTag": "Happy", "prefix": "WFF", "user": {"location": {"city": "Peachtree CIty", "state": "GA", "country": "United States"}}}}]}, "standing": {"placement": 1, "stats": {"score": {"value": 2}}}}, {"id": "91976308-1", "entrant": {"id": 20819818, "name": "Guupp", "participants": [{"id": 19159028, "gamerTag": "Guupp", "prefix": "", "user": null, "player": {"id": 4897050, "gamerTag": "Guupp", "prefix": "", "user": null}}]}, "standing": {"placement": 2, "stats": {"score": {"value": 0}}}}], "games": null}, {"id": 91976387, "state": 3, "round": 1, "fullRoundText": "Winners Round 1", "completedAt": 1753663961, "winnerId": 20819696, "slots": [{"id": "91976387-0", "entrant": {"id": 20819805, "name": "RAMS | Bragmuffin", "participants": [{"id": 19159020, "gamerTag": "Bragmuffin", "prefix": "RAMS", "user": {"location": {"city": "Alpharetta", "state": "GA", "country": "United States"}}, "player": {"id": 2354073, "gamerTag": "Bragmuffin", "prefix": "RAMS", "user": {"location": {"city": "Alpharetta", "state": "GA", "country": "United States"}}}}]}, "standing": {"placement": 2, "stats": {"score": {"value": 0}}}}, {"id": "91976387-1", "entrant": {"id": 20819696, "name": "Mrbray30", "participants": [{"id": 19158912, "gamerTag": "Mrbray30", "prefix": "", "user": {"location": {"city": "Atlanta", "state": "GA", "country": "United States"}}, "player": {"id": 4664413, "gamerTag": "Mrbray30", "prefix": "", "user": {"location": {"city": "Atlanta", "state": "GA", "country": "United States"}}}}]}, "standing": {"placement": 1, "stats": {"score": {"value": 2}}}}], "games": null}, {"id": 91976309, "state": 3, "round": 1, "fullRoundText": "Winners Round 1", "completedAt": 1753663558, "winnerId": 20819287, "slots": [{"id": "91976309-0", "entrant": {"id": 20819287, "name": "Jdaddy", "participants": [{"id": 19158611, "gamerTag": "Jdaddy", "prefix": null, "user": {"location": {"city": "Atlanta", "state": "GA", "country": "United States"}}, "player": {"id": 4384721, "gamerTag": "Jdaddy", "prefix": null, "user": {"location": {"city": "Atlanta", "state": "GA", "country": "United States"}}}}]}, "standing": {"placement": 1, "stats": {"score": {"value": 2}}}}, {"id": "91976309-1", "entrant": {"id": 20819591, "name": "TFT | yxngcyborg", "participants": [{"id": 19158816, "gamerTag": "yxngcyborg", "prefix": "TFT", "user": {"location": {"city": "Atlanta", "state": "GA", "country": "United States"}}, "player": {"id": 1751817, "gamerTag": "Ricky Rudd", "prefix": "TFT", "user": {"location": {"city": "Atlanta", "state": "GA", "country": "United States"}}}}]}, "standing": {"placement": 2, "stats": {"score": {"value": 1}}}}], "games": null}, {"id": 91977819, "state": 3, "round": -4, "fullRoundText": "Losers Quarter-Final", "completedAt": 1753670827, "winnerId": 20819855, "slots": [{"id": "91977819-0", "entrant": {"id": 20819696, "name": "Mrbray30", "participants": [{"id": 19158912, "gamerTag": "Mrbray30", "prefix": "", "user": {"location": {"city": "Atlanta", "state": "GA", "country": "United States"}}, "player": {"id": 4664413, "gamerTag": "Mrbray30", "prefix": "", "user": {"location": {"city": "Atlanta", "state": "GA", "country": "United States"}}}}]}, "standing": {"placement": 2, "stats": {"score": {"value": 1}}}}, {"id": "91977819-1", "entrant": {"id": 20819855, "name": "WFF | Olive", "participants": [{"id": 19159065, "gamerTag": "Olive", "prefix": "WFF", "user": {"location": {"city": "Atlanta", "state": "GA", "country": "United States"}}, "player": {"id": 1810274, "gamerTag": "Planet Of Da", "prefix": "WeFarmFrank", "user": {"location": {"city": "Atlanta", "state": "GA", "country": "United States"}}}}]}, "standing": {"placement": 1, "stats": {"score": {"value": 3}}}}], "games": null}, {"id": 91977820, "state": 3, "round": -4, "fullRoundText": "Losers Quarter-Final", "completedAt": 1753670643, "winnerId": 20819856, "slots": [{"id": "91977820-0", "entrant": {"id": 20819856, "name": "WFF | Happy", "participants": [{"id": 19159066, "gamerTag": "Happy", "prefix": "WFF", "user": {"location": {"city": "Peachtree CIty", "state": "GA", "country": "United States"}}, "player": {"id": 1383907, "gamerTag": "Happy", "prefix": "WFF", "user": {"location": {"city": "Peachtree CIty", "state": "GA", "country": "United States"}}}}]}, "standing": {"placement": 1, "stats": {"score": {"value": 3}}}}, {"id": "91977820-1", "entrant": {"id": 20815645, "name": "TFT | ALLEYCAT", "participants": [{"id": 19155511, "gamerTag": "ALLEYCAT", "prefix": "TFT", "user": {"location": {"city": "Atlanta", "state": "GA", "country": "United States"}}, "player": {"id": 1940654, "gamerTag": "ALLEYCAT", "prefix": "TFT", "user": {"location": {"city": "Atlanta", "state": "GA", "country": "United States"}}}}]}, "standing": {"placement": 2, "stats": {"score": {"value": 1}}}}], "games": null}, {"id": 91977817, "state": 3, "round": -3, "fullRoundText": "Losers Round 1", "completedAt": 1753669470, "winnerId": 20819855, "slots": [{"id": "91977817-0", "entrant": {"id": 20819703, "name": "TFT | BigCheese", "participants": [{"id": 19158919, "gamerTag": "BigCheese", "prefix": "TFT", "user": {"location": {"city": null, "state": null, "country": null}}, "player": {"id": 3991446, "gamerTag": "BigCheese", "prefix": "TFT", "user": {"location": {"city": null, "state": null, "country": null}}}}]}, "standing": {"placement": 2, "stats": {"score": {"value": 0}}}}, {"id": "91977817-1", "entrant": {"id": 20819855, "name": "WFF | Olive", "participants": [{"id": 19159065, "gamerTag": "Olive", "prefix": "WFF", "user": {"location": {"city": "Atlanta", "state": "GA", "country": "United States"}}, "player": {"id": 1810274, "gamerTag": "Planet Of Da", "prefix": "WeFarmFrank", "user": {"location": {"city": "Atlanta", "state": "GA", "country": "United States"}}}}]}, "standing": {"placement": 1, "stats": {"score": {"value": 2}}}}], "games": null}, {"id": 91977818, "state": 3, "round": -3, "fullRoundText": "Losers Round 1", "completedAt": 1753669705, "winnerId": 20815645, "slots": [{"id": "91977818-0", "entrant": {"id": 20818960, "name": "TFT | Juug$tarr", "participants": [{"id": 19158307, "gamerTag": "Juug$tarr", "prefix": "TFT", "user": {"location": {"city": "Atlanta", "state": "GA", "country": "United States"}}, "player": {"id": 3621035, "gamerTag": "Juug$tarr", "prefix": "TFT", "user": {"location": {"city": "Atlanta", "state": "GA", "country": "United States"}}}}]}, "standing": {"placement": 2, "stats": {"score": {"value": 0}}}}, {"id": "91977818-1", "entrant": {"id": 20815645, "name": "TFT | ALLEYCAT", "participants": [{"id": 19155511, "gamerTag": "ALLEYCAT", "prefix": "TFT", "user": {"location": {"city": "Atlanta", "state": "GA", "country": "United States"}}, "player": {"id": 1940654, "gamerTag": "ALLEYCAT", "prefix": "TFT", "user": {"location": {"city": "Atlanta", "state": "GA", "country": "United States"}}}}]}, "standing": {"placement": 1, "stats": {"score": {"value": 2}}}}], "games": null}]}}}