{"event": {"sets": {"pageInfo": {"totalPages": 1, "total": 4}, "nodes": [{"id": 93144042, "state": 3, "round": 3, "fullRoundText": "Final", "completedAt": 1756335667, "winnerId": 21091259, "slots": [{"id": "93144042-0", "entrant": {"id": 21092183, "name": "promamamia", "participants": [{"id": 19401435, "gamerTag": "promamamia", "prefix": "", "user": {"location": {"city": "Alpharetta", "state": "GA", "country": "United States"}}, "player": {"id": 3548468, "gamerTag": "promamamia", "prefix": "", "user": {"location": {"city": "Alpharetta", "state": "GA", "country": "United States"}}}}]}, "standing": {"placement": 2, "stats": {"score": {"value": 0}}}}, {"id": "93144042-1", "entrant": {"id": 21091259, "name": "Boo", "participants": [{"id": 19400603, "gamerTag": "Boo", "prefix": "", "user": {"location": {"city": "Cumming", "state": "GA", "country": "United States"}}, "player": {"id": 2647915, "gamerTag": "Boo", "prefix": "", "user": {"location": {"city": "Cumming", "state": "GA", "country": "United States"}}}}]}, "standing": {"placement": 1, "stats": {"score": {"value": 3}}}}], "games": null}, {"id": 93144040, "state": 3, "round": 2, "fullRoundText": "Semi-Final", "completedAt": 1756334995, "winnerId": 21092183, "slots": [{"id": "93144040-0", "entrant": {"id": 21093250, "name": "GUMP2 | JankTrees!", "participants": [{"id": 19400634, "gamerTag": "JankTrees!", "prefix": "GUMP2", "user": {"location": {"city": "Cartersville", "state": "GA", "country": "United States"}}, "player": {"id": 35695, "gamerTag": "JankTrees!", "prefix": "GUMP2", "user": {"location": {"city": "Cartersville", "state": "GA", "country": "United States"}}}}]}, "standing": {"placement": 2, "stats": {"score": {"value": 0}}}}, {"id": "93144040-1", "entrant": {"id": 21092183, "name": "promamamia", "participants": [{"id": 19401435, "gamerTag": "promamamia", "prefix": "", "user": {"location": {"city": "Alpharetta", "state": "GA", "country": "United States"}}, "player": {"id": 3548468, "gamerTag": "promamamia", "prefix": "", "user": {"location": {"city": "Alpharetta", "state": "GA", "country": "United States"}}}}]}, "standing": {"placement": 1, "stats": {"score": {"value": 3}}}}], "games": null}, {"id": 93144041, "state": 3, "round": 2, "fullRoundText": "Semi-Final", "completedAt": 1756334999, "winnerId": 21091259, "slots": [{"id": "93144041-0", "entrant": {"id": 21093456, "name": "Barbashop", "participants": [{"id": 19402230, "gamerTag": "Barbashop", "prefix": "", "user": {"location": {"city": null, "state": null, "country": null}}, "player": {"id": 2537853, "gamerTag": "Barbashop", "prefix": "", "user": {"location": {"city": null, "state": null, "country": null}}}}]}, "standing": {"placement": 2, "stats": {"score": {"value": 2}}}}, {"id": "93144041-1", "entrant": {"id": 21091259, "name": "Boo", "participants": [{"id": 19400603, "gamerTag": "Boo", "prefix": "", "user": {"location": {"city": "Cumming", "state": "GA", "country": "United States"}}, "player": {"id": 2647915, "gamerTag": "Boo", "prefix": "", "user": {"location": {"city": "Cumming", "state": "GA", "country": "United States"}}}}]}, "standing": {"placement": 1, "stats": {"score": {"value": 3}}}}], "games": null}, {"id": 93144037, "state": 3, "round": 1, "fullRoundText": "Quarter-Final", "completedAt": 1756334991, "winnerId": 21092183, "slots": [{"id": "93144037-0", "entrant": {"id": 21092183, "name": "promamamia", "participants": [{"id": 19401435, "gamerTag": "promamamia", "prefix": "", "user": {"location": {"city": "Alpharetta", "state": "GA", "country": "United States"}}, "player": {"id": 3548468, "gamerTag": "promamamia", "prefix": "", "user": {"location": {"city": "Alpharetta", "state": "GA", "country": "United States"}}}}]}, "standing": {"placement": 1, "stats": {"score": {"value": 3}}}}, {"id": "93144037-1", "entrant": {"id": 21093439, "name": "Zarek", "participants": [{"id": 19402585, "gamerTag": "Zarek", "prefix": "", "user": {"location": {"city": "Atlanta", "state": "GA", "country": "United States"}}, "player": {"id": 405682, "gamerTag": "Zarek", "prefix": "", "user": {"location": {"city": "Atlanta", "state": "GA", "country": "United States"}}}}]}, "standing": {"placement": 2, "stats": {"score": {"value": 1}}}}], "games": null}]}}}