{"event": {"sets": {"pageInfo": {"totalPages": 1, "total": 7}, "nodes": [{"id": 91951309, "state": 3, "round": 3, "fullRoundText": "Final", "completedAt": 1753642011, "winnerId": 20815704, "slots": [{"id": "91951309-0", "entrant": {"id": 20815704, "name": "omega", "participants": [{"id": 18700557, "gamerTag": "omega", "prefix": null, "user": {"location": {"city": "Suwanee", "state": "GA", "country": "United States"}}, "player": {"id": 24638, "gamerTag": "omega", "prefix": "", "user": {"location": {"city": "Suwanee", "state": "GA", "country": "United States"}}}}]}, "standing": {"placement": 1, "stats": {"score": {"value": 3}}}}, {"id": "91951309-1", "entrant": {"id": 20816303, "name": "GUMP2 | Eleven", "participants": [{"id": 19156091, "gamerTag": "Eleven", "prefix": "GUMP2", "user": {"location": {"city": null, "state": null, "country": null}}, "player": {"id": 2348605, "gamerTag": "Ryu from Streets", "prefix": "GUMP2", "user": {"location": {"city": null, "state": null, "country": null}}}}]}, "standing": {"placement": 2, "stats": {"score": {"value": 0}}}}], "games": null}, {"id": 91951307, "state": 3, "round": 2, "fullRoundText": "Semi-Final", "completedAt": 1753640412, "winnerId": 20815704, "slots": [{"id": "91951307-0", "entrant": {"id": 20815704, "name": "omega", "participants": [{"id": 18700557, "gamerTag": "omega", "prefix": null, "user": {"location": {"city": "Suwanee", "state": "GA", "country": "United States"}}, "player": {"id": 24638, "gamerTag": "omega", "prefix": "", "user": {"location": {"city": "Suwanee", "state": "GA", "country": "United States"}}}}]}, "standing": {"placement": 1, "stats": {"score": {"value": 2}}}}, {"id": "91951307-1", "entrant": {"id": 20816091, "name": "Osh9", "participants": [{"id": 18869307, "gamerTag": "Osh9", "prefix": null, "user": {"location": {"city": "Lubbock", "state": "TX", "country": "United States"}}, "player": {"id": 1215186, "gamerTag": "Osh9", "prefix": "LCU", "user": {"location": {"city": "Lubbock", "state": "TX", "country": "United States"}}}}]}, "standing": {"placement": 2, "stats": {"score": {"value": 0}}}}], "games": null}, {"id": 91951308, "state": 3, "round": 2, "fullRoundText": "Semi-Final", "completedAt": 1753641262, "winnerId": 20816303, "slots": [{"id": "91951308-0", "entrant": {"id": 20816303, "name": "GUMP2 | Eleven", "participants": [{"id": 19156091, "gamerTag": "Eleven", "prefix": "GUMP2", "user": {"location": {"city": null, "state": null, "country": null}}, "player": {"id": 2348605, "gamerTag": "Ryu from Streets", "prefix": "GUMP2", "user": {"location": {"city": null, "state": null, "country": null}}}}]}, "standing": {"placement": 1, "stats": {"score": {"value": 2}}}}, {"id": "91951308-1", "entrant": {"id": 20816028, "name": "Krishna", "participants": [{"id": 18687952, "gamerTag": "Krishna", "prefix": null, "user": {"location": {"city": null, "state": null, "country": "United States"}}, "player": {"id": 2282949, "gamerTag": "Krishna", "prefix": "417", "user": {"location": {"city": null, "state": null, "country": "United States"}}}}]}, "standing": {"placement": 2, "stats": {"score": {"value": 0}}}}], "games": null}, {"id": 91951303, "state": 3, "round": 1, "fullRoundText": "Quarter-Final", "completedAt": 1753635834, "winnerId": 20815704, "slots": [{"id": "91951303-0", "entrant": {"id": 20815704, "name": "omega", "participants": [{"id": 18700557, "gamerTag": "omega", "prefix": null, "user": {"location": {"city": "Suwanee", "state": "GA", "country": "United States"}}, "player": {"id": 24638, "gamerTag": "omega", "prefix": "", "user": {"location": {"city": "Suwanee", "state": "GA", "country": "United States"}}}}]}, "standing": {"placement": 1, "stats": {"score": {"value": 2}}}}, {"id": "91951303-1", "entrant": {"id": 20816081, "name": "ImPhenyl", "participants": [{"id": 17930159, "gamerTag": "ImPhenyl", "prefix": null, "user": {"location": {"city": "Lawrenceville", "state": "GA", "country": "United States"}}, "player": {"id": 3256876, "gamerTag": "ImPhenyl", "prefix": "AO5", "user": {"location": {"city": "Lawrenceville", "state": "GA", "country": "United States"}}}}]}, "standing": {"placement": 2, "stats": {"score": {"value": 0}}}}], "games": null}, {"id": 91951304, "state": 3, "round": 1, "fullRoundText": "Quarter-Final", "completedAt": 1753638997, "winnerId": 20816091, "slots": [{"id": "91951304-0", "entrant": {"id": 20816091, "name": "Osh9", "participants": [{"id": 18869307, "gamerTag": "Osh9", "prefix": null, "user": {"location": {"city": "Lubbock", "state": "TX", "country": "United States"}}, "player": {"id": 1215186, "gamerTag": "Osh9", "prefix": "LCU", "user": {"location": {"city": "Lubbock", "state": "TX", "country": "United States"}}}}]}, "standing": {"placement": 1, "stats": {"score": {"value": 2}}}}, {"id": "91951304-1", "entrant": {"id": 20815657, "name": "Kr!stal:0", "participants": [{"id": 18687949, "gamerTag": "Kr!stal:0", "prefix": null, "user": {"location": {"city": "Lawrenceville", "state": "GA", "country": "United States"}}, "player": {"id": 2409815, "gamerTag": "AO ASHI SEASON 2 2026", "prefix": "RM | GUMP2", "user": {"location": {"city": "Lawrenceville", "state": "GA", "country": "United States"}}}}]}, "standing": {"placement": 2, "stats": {"score": {"value": 1}}}}], "games": null}, {"id": 91951305, "state": 3, "round": 1, "fullRoundText": "Quarter-Final", "completedAt": 1753639792, "winnerId": 20816303, "slots": [{"id": "91951305-0", "entrant": {"id": 20816303, "name": "GUMP2 | Eleven", "participants": [{"id": 19156091, "gamerTag": "Eleven", "prefix": "GUMP2", "user": {"location": {"city": null, "state": null, "country": null}}, "player": {"id": 2348605, "gamerTag": "Ryu from Streets", "prefix": "GUMP2", "user": {"location": {"city": null, "state": null, "country": null}}}}]}, "standing": {"placement": 1, "stats": {"score": {"value": 2}}}}, {"id": "91951305-1", "entrant": {"id": 20815440, "name": "Maverick", "participants": [{"id": 17934648, "gamerTag": "Maverick", "prefix": null, "user": {"location": {"city": "Columbus", "state": "GA", "country": "United States"}}, "player": {"id": 1058777, "gamerTag": "Maverick", "prefix": "", "user": {"location": {"city": "Columbus", "state": "GA", "country": "United States"}}}}]}, "standing": {"placement": 2, "stats": {"score": {"value": 1}}}}], "games": null}, {"id": 91951306, "state": 3, "round": 1, "fullRoundText": "Quarter-Final", "completedAt": 1753636890, "winnerId": 20816028, "slots": [{"id": "91951306-0", "entrant": {"id": 20816101, "name": "ROB Slayer", "participants": [{"id": 17930153, "gamerTag": "ROB Slayer", "prefix": null, "user": {"location": {"city": "Atlanta", "state": "GA", "country": "United States"}}, "player": {"id": 2414381, "gamerTag": "ROB Slayer", "prefix": "Hell Mode", "user": {"location": {"city": "Atlanta", "state": "GA", "country": "United States"}}}}]}, "standing": {"placement": 2, "stats": {"score": {"value": 1}}}}, {"id": "91951306-1", "entrant": {"id": 20816028, "name": "Krishna", "participants": [{"id": 18687952, "gamerTag": "Krishna", "prefix": null, "user": {"location": {"city": null, "state": null, "country": "United States"}}, "player": {"id": 2282949, "gamerTag": "Krishna", "prefix": "417", "user": {"location": {"city": null, "state": null, "country": "United States"}}}}]}, "standing": {"placement": 1, "stats": {"score": {"value": 2}}}}], "games": null}]}}}