{"phase": {"seeds": {"pageInfo": {"totalPages": 1, "total": 24}, "nodes": [{"id": 36363786, "seedNum": 1, "entrant": {"id": 21096735, "name": "Nia", "participants": [{"id": 19405326, "gamerTag": "Nia", "prefix": null, "user": {"location": {"city": "Buford", "state": "GA", "country": "United States"}}, "player": {"id": 428070, "gamerTag": "Nia", "prefix": null, "user": {"location": {"city": "Buford", "state": "GA", "country": "United States"}}}}]}}, {"id": 36697429, "seedNum": 2, "entrant": {"id": 21325115, "name": "LBE | CC | Savant", "participants": [{"id": 19604335, "gamerTag": "Savant", "prefix": "LBE | CC", "user": {"location": {"city": "Athens", "state": "GA", "country": "United States"}}, "player": {"id": 1944044, "gamerTag": "Savant", "prefix": "LBE | CC", "user": {"location": {"city": "Athens", "state": "GA", "country": "United States"}}}}]}}, {"id": 36362953, "seedNum": 3, "entrant": {"id": 21096074, "name": "jack | jazzman", "participants": [{"id": 19404825, "gamerTag": "jazzman", "prefix": "jack", "user": {"location": {"city": "Athens", "state": "GA", "country": "United States"}}, "player": {"id": 3883272, "gamerTag": "jazzman", "prefix": "jack", "user": {"location": {"city": "Athens", "state": "GA", "country": "United States"}}}}]}}, {"id": 36703997, "seedNum": 13, "entrant": {"id": 21328842, "name": "JustVoidzzz", "participants": [{"id": 19607506, "gamerTag": "JustVoidzzz", "prefix": "", "user": {"location": {"city": null, "state": null, "country": "United States"}}, "player": {"id": 4843167, "gamerTag": "JustVoidzzz", "prefix": "", "user": {"location": {"city": null, "state": null, "country": "United States"}}}}]}}, {"id": 36690285, "seedNum": 8, "entrant": {"id": 21319292, "name": "Vxsor", "participants": [{"id": 19599295, "gamerTag": "Vxsor", "prefix": "", "user": {"location": {"city": null, "state": null, "country": null}}, "player": {"id": 4984095, "gamerTag": "Vxsor", "prefix": "", "user": {"location": {"city": null, "state": null, "country": null}}}}]}}, {"id": 36362869, "seedNum": 9, "entrant": {"id": 21095989, "name": "CHS | Saibotmain", "participants": [{"id": 19404745, "gamerTag": "Saibotmain", "prefix": "CHS", "user": {"location": {"city": "Commerce", "state": "GA", "country": "United States"}}, "player": {"id": 3943600, "gamerTag": "Saibotmain", "prefix": "CHS", "user": {"location": {"city": "Commerce", "state": "GA", "country": "United States"}}}}]}}, {"id": 36525594, "seedNum": 6, "entrant": {"id": 21204573, "name": "UGA | | samtwo", "participants": [{"id": 19501164, "gamerTag": "samtwo", "prefix": "UGA |", "user": {"location": {"city": "Athens", "state": "GA", "country": "United States"}}, "player": {"id": 1246662, "gamerTag": "samtwo", "prefix": "UGA |", "user": {"location": {"city": "Athens", "state": "GA", "country": "United States"}}}}]}}, {"id": 36704204, "seedNum": 22, "entrant": {"id": 21329033, "name": "Dragon Clanker", "participants": [{"id": 19607659, "gamerTag": "Dragon Clanker", "prefix": null, "user": {"location": {"city": null, "state": null, "country": null}}, "player": {"id": 2321344, "gamerTag": "Dragon Clanker", "prefix": null, "user": {"location": {"city": null, "state": null, "country": null}}}}]}}, {"id": 36697161, "seedNum": 4, "entrant": {"id": 21324860, "name": "LBE | Lumin!", "participants": [{"id": 19604202, "gamerTag": "Lumin!", "prefix": "LBE", "user": {"location": {"city": "Athens", "state": "GA", "country": "United States"}}, "player": {"id": 2737569, "gamerTag": "Lumin!", "prefix": "LBE", "user": {"location": {"city": "Athens", "state": "GA", "country": "United States"}}}}]}}, {"id": 36378824, "seedNum": 7, "entrant": {"id": 21105482, "name": "Awal", "participants": [{"id": 19413425, "gamerTag": "Awal", "prefix": null, "user": {"location": {"city": null, "state": null, "country": "United States"}}, "player": {"id": 4836236, "gamerTag": "Awal", "prefix": null, "user": {"location": {"city": null, "state": null, "country": "United States"}}}}]}}, {"id": 36509423, "seedNum": 10, "entrant": {"id": 21194275, "name": "architect", "participants": [{"id": 19491805, "gamerTag": "architect", "prefix": null, "user": {"location": {"city": "Commerce", "state": "GA", "country": "United States"}}, "player": {"id": 4870349, "gamerTag": "architect", "prefix": null, "user": {"location": {"city": "Commerce", "state": "GA", "country": "United States"}}}}]}}, {"id": 36679673, "seedNum": 12, "entrant": {"id": 21313274, "name": "CHS | logan", "participants": [{"id": 19593717, "gamerTag": "logan", "prefix": "CHS", "user": {"location": {"city": null, "state": "CA", "country": "United States"}}, "player": {"id": 4982996, "gamerTag": "logan", "prefix": "CHS", "user": {"location": {"city": null, "state": "CA", "country": "United States"}}}}]}}, {"id": 36427361, "seedNum": 5, "entrant": {"id": 21138445, "name": "BigBreakFast", "participants": [{"id": 19443253, "gamerTag": "BigBreakFast", "prefix": "", "user": {"location": {"city": "Loganville", "state": "GA", "country": "United States"}}, "player": {"id": 2719362, "gamerTag": "BigBreakFast", "prefix": "", "user": {"location": {"city": "Loganville", "state": "GA", "country": "United States"}}}}]}}, {"id": 36362856, "seedNum": 11, "entrant": {"id": 21095977, "name": "Tzvi", "participants": [{"id": 19404738, "gamerTag": "Tzvi", "prefix": null, "user": {"location": {"city": "Commerce", "state": "GA", "country": "United States"}}, "player": {"id": 3940923, "gamerTag": "Tzvi", "prefix": null, "user": {"location": {"city": "Commerce", "state": "GA", "country": "United States"}}}}]}}, {"id": 36708447, "seedNum": 14, "entrant": {"id": 21329736, "name": "Just Aubrey", "participants": [{"id": 19608512, "gamerTag": "Just Aubrey", "prefix": "", "user": null, "player": {"id": 4985916, "gamerTag": "Just Aubrey", "prefix": "", "user": null}}]}}, {"id": 36704604, "seedNum": 18, "entrant": {"id": 21329384, "name": "Lazyrus", "participants": [{"id": 19607961, "gamerTag": "Lazyrus", "prefix": null, "user": {"location": {"city": null, "state": "GA", "country": "United States"}}, "player": {"id": 2949780, "gamerTag": "Lazyrus", "prefix": null, "user": {"location": {"city": null, "state": "GA", "country": "United States"}}}}]}}, {"id": 36691996, "seedNum": 15, "entrant": {"id": 21320746, "name": "Balockay", "participants": [{"id": 19600665, "gamerTag": "Balockay", "prefix": "", "user": {"location": {"city": null, "state": null, "country": "United States"}}, "player": {"id": 4984253, "gamerTag": "Balockay", "prefix": "", "user": {"location": {"city": null, "state": null, "country": "United States"}}}}]}}, {"id": 36704176, "seedNum": 16, "entrant": {"id": 21329005, "name": "G-rady", "participants": [{"id": 19607639, "gamerTag": "G-rady", "prefix": "", "user": {"location": {"city": null, "state": null, "country": "United States"}}, "player": {"id": 2605639, "gamerTag": "G-rady", "prefix": "", "user": {"location": {"city": null, "state": null, "country": "United States"}}}}]}}, {"id": 36703488, "seedNum": 17, "entrant": {"id": 21328571, "name": "Bowowser", "participants": [{"id": 19607288, "gamerTag": "Bowowser", "prefix": "", "user": {"location": {"city": null, "state": null, "country": "United States"}}, "player": {"id": 4985405, "gamerTag": "Bowowser", "prefix": "", "user": {"location": {"city": null, "state": null, "country": "United States"}}}}]}}, {"id": 36708441, "seedNum": 19, "entrant": {"id": 21329730, "name": "Death Rite", "participants": [{"id": 19608506, "gamerTag": "Death Rite", "prefix": "", "user": null, "player": {"id": 4985914, "gamerTag": "Death Rite", "prefix": "", "user": null}}]}}, {"id": 36708707, "seedNum": 20, "entrant": {"id": 21329949, "name": "Sambo", "participants": [{"id": 19608677, "gamerTag": "Sambo", "prefix": "", "user": null, "player": {"id": 4985948, "gamerTag": "Sambo", "prefix": "", "user": null}}]}}, {"id": 36708794, "seedNum": 21, "entrant": {"id": 21330038, "name": "Kirby", "participants": [{"id": 19608750, "gamerTag": "Kirby", "prefix": "", "user": null, "player": {"id": 4985958, "gamerTag": "Kirby", "prefix": "", "user": null}}]}}, {"id": 36708696, "seedNum": 23, "entrant": {"id": 21329938, "name": "Lil Tisim", "participants": [{"id": 19608668, "gamerTag": "Lil Tisim", "prefix": "", "user": null, "player": {"id": 4985945, "gamerTag": "Lil Tisim", "prefix": "", "user": null}}]}}, {"id": 36708699, "seedNum": 24, "entrant": {"id": 21329941, "name": "Big Tisim", "participants": [{"id": 19608671, "gamerTag": "Big Tisim", "prefix": "", "user": null, "player": {"id": 4985946, "gamerTag": "Big Tisim", "prefix": "", "user": null}}]}}]}}}