{"phase": {"seeds": {"pageInfo": {"totalPages": 1, "total": 19}, "nodes": [{"id": 35751205, "seedNum": 1, "entrant": {"id": 20716470, "name": "Free Puli | Maverick", "participants": [{"id": 19066097, "gamerTag": "Maverick", "prefix": "Free Puli", "user": {"location": {"city": "Columbus", "state": "GA", "country": "United States"}}, "player": {"id": 1058777, "gamerTag": "Maverick", "prefix": "", "user": {"location": {"city": "Columbus", "state": "GA", "country": "United States"}}}}]}}, {"id": 35770855, "seedNum": 2, "entrant": {"id": 20729610, "name": "iNGenius", "participants": [{"id": 19077427, "gamerTag": "iNGenius", "prefix": null, "user": {"location": {"city": null, "state": null, "country": null}}, "player": {"id": 3194293, "gamerTag": "iNGenius", "prefix": "", "user": {"location": {"city": null, "state": null, "country": null}}}}]}}, {"id": 35752187, "seedNum": 3, "entrant": {"id": 20717048, "name": "FAT | Phantomtheif", "participants": [{"id": 19066531, "gamerTag": "Phantomtheif", "prefix": "FAT", "user": {"location": {"city": "Columbus", "state": "AL", "country": "United States"}}, "player": {"id": 469237, "gamerTag": "Phantomtheif", "prefix": "FAT", "user": {"location": {"city": "Columbus", "state": "AL", "country": "United States"}}}}]}}, {"id": 35756518, "seedNum": 5, "entrant": {"id": 20719876, "name": "BE/JLE | CaptainMilkMan", "participants": [{"id": 19069054, "gamerTag": "CaptainMilkMan", "prefix": "BE/JLE", "user": {"location": {"city": "Albany", "state": "GA", "country": "United States"}}, "player": {"id": 1101654, "gamerTag": "CaptainMilkMan", "prefix": "BE/JLE", "user": {"location": {"city": "Albany", "state": "GA", "country": "United States"}}}}]}}, {"id": 35842215, "seedNum": 4, "entrant": {"id": 20770330, "name": "AshNoJoy", "participants": [{"id": 19115211, "gamerTag": "AshNoJoy", "prefix": "", "user": {"location": {"city": "Phenix City", "state": "AL", "country": "United States"}}, "player": {"id": 3141674, "gamerTag": "AshNoJoy", "prefix": "", "user": {"location": {"city": "Phenix City", "state": "AL", "country": "United States"}}}}]}}, {"id": 35762633, "seedNum": 6, "entrant": {"id": 20724064, "name": "VES | OGS Dog", "participants": [{"id": 19072782, "gamerTag": "OGS Dog", "prefix": "VES", "user": {"location": {"city": "Columbus", "state": "GA", "country": "United States"}}, "player": {"id": 2152632, "gamerTag": "OGS Dog", "prefix": "VES", "user": {"location": {"city": "Columbus", "state": "GA", "country": "United States"}}}}]}}, {"id": 35762821, "seedNum": 7, "entrant": {"id": 20724208, "name": "SPLY-350 | Yeezus", "participants": [{"id": 19072914, "gamerTag": "Yeezus", "prefix": "SPLY-350", "user": {"location": {"city": "Fort Moore", "state": "GA", "country": "United States"}}, "player": {"id": 3988141, "gamerTag": "Yeezus", "prefix": "SPLY-350", "user": {"location": {"city": "Fort Moore", "state": "GA", "country": "United States"}}}}]}}, {"id": 35756643, "seedNum": 9, "entrant": {"id": 20719970, "name": "Free Puli | jigglypuff", "participants": [{"id": 19069146, "gamerTag": "jigglypuff", "prefix": "Free Puli", "user": {"location": {"city": "Columbus", "state": "GA", "country": "United States"}}, "player": {"id": 2592456, "gamerTag": "jigglypuff", "prefix": null, "user": {"location": {"city": "Columbus", "state": "GA", "country": "United States"}}}}]}}, {"id": 35843247, "seedNum": 8, "entrant": {"id": 20771256, "name": "Andromeda", "participants": [{"id": 19116044, "gamerTag": "Andromeda", "prefix": "", "user": {"location": {"city": "Columbus", "state": "GA", "country": "United States"}}, "player": {"id": 1458791, "gamerTag": "Andromeda", "prefix": "", "user": {"location": {"city": "Columbus", "state": "GA", "country": "United States"}}}}]}}, {"id": 35777403, "seedNum": 11, "entrant": {"id": 20733923, "name": "Katnip", "participants": [{"id": 19081148, "gamerTag": "Katnip", "prefix": "", "user": {"location": {"city": "Columbus", "state": "GA", "country": "United States"}}, "player": {"id": 951915, "gamerTag": "Katnip", "prefix": "", "user": {"location": {"city": "Columbus", "state": "GA", "country": "United States"}}}}]}}, {"id": 35770073, "seedNum": 12, "entrant": {"id": 20729063, "name": "WFHS | iByte", "participants": [{"id": 19076975, "gamerTag": "iByte", "prefix": "WFHS", "user": {"location": {"city": "PENSACOLA", "state": "FL", "country": "United States"}}, "player": {"id": 4089478, "gamerTag": "iByte", "prefix": "WFHS", "user": {"location": {"city": "PENSACOLA", "state": "FL", "country": "United States"}}}}]}}, {"id": 35836518, "seedNum": 15, "entrant": {"id": 20767346, "name": "Funkin'", "participants": [{"id": 19112566, "gamerTag": "Funkin'", "prefix": "", "user": {"location": {"city": "Columbus", "state": "GA", "country": "United States"}}, "player": {"id": 1894071, "gamerTag": "Funkin'", "prefix": "", "user": {"location": {"city": "Columbus", "state": "GA", "country": "United States"}}}}]}}, {"id": 35785801, "seedNum": 10, "entrant": {"id": 20740049, "name": "Decoder", "participants": [{"id": 19086092, "gamerTag": "Decoder", "prefix": "", "user": {"location": {"city": "Columbus", "state": "GA", "country": "United States"}}, "player": {"id": 254488, "gamerTag": "Decoder", "prefix": "", "user": {"location": {"city": "Columbus", "state": "GA", "country": "United States"}}}}]}}, {"id": 35755626, "seedNum": 13, "entrant": {"id": 20719634, "name": "SKINNY | Cryptonite", "participants": [{"id": 19068814, "gamerTag": "Cryptonite", "prefix": "SKINNY", "user": {"location": {"city": "Hamilton", "state": "GA", "country": "United States"}}, "player": {"id": 2300323, "gamerTag": "Cryptonite", "prefix": "Ashm", "user": {"location": {"city": "Hamilton", "state": "GA", "country": "United States"}}}}]}}, {"id": 35790087, "seedNum": 14, "entrant": {"id": 20743703, "name": "INHALE | Hurzt", "participants": [{"id": 19089598, "gamerTag": "Hurzt", "prefix": "INHALE", "user": {"location": {"city": null, "state": "GA", "country": "United States"}}, "player": {"id": 2717522, "gamerTag": "Hurzt", "prefix": "INHALE", "user": {"location": {"city": null, "state": "GA", "country": "United States"}}}}]}}, {"id": 35782013, "seedNum": 16, "entrant": {"id": 20737410, "name": "LevL", "participants": [{"id": 19083854, "gamerTag": "LevL", "prefix": "", "user": {"location": {"city": "Columbus", "state": "GA", "country": "United States"}}, "player": {"id": 36461, "gamerTag": "LevL", "prefix": "", "user": {"location": {"city": "Columbus", "state": "GA", "country": "United States"}}}}]}}, {"id": 35815284, "seedNum": 17, "entrant": {"id": 20757764, "name": "CSU | OfficeWalrus", "participants": [{"id": 19103518, "gamerTag": "OfficeWalrus", "prefix": "CSU", "user": {"location": {"city": "Columbus", "state": "GA", "country": "United States"}}, "player": {"id": 3860050, "gamerTag": "OfficeWalrus", "prefix": "CSU", "user": {"location": {"city": "Columbus", "state": "GA", "country": "United States"}}}}]}}, {"id": 35838155, "seedNum": 18, "entrant": {"id": 20768260, "name": "ddogg26", "participants": [{"id": 19113450, "gamerTag": "ddogg26", "prefix": "", "user": {"location": {"city": null, "state": null, "country": "United States"}}, "player": {"id": 3859990, "gamerTag": "ddogg26", "prefix": "", "user": {"location": {"city": null, "state": null, "country": "United States"}}}}]}}, {"id": 35843039, "seedNum": 19, "entrant": {"id": 20771075, "name": "Trenchkiller", "participants": [{"id": 19115872, "gamerTag": "Trenchkiller", "prefix": "", "user": {"location": {"city": null, "state": null, "country": "United States"}}, "player": {"id": 3846238, "gamerTag": "Trenchkiller", "prefix": "", "user": {"location": {"city": null, "state": null, "country": "United States"}}}}]}}]}}}