{"phase": {"seeds": {"pageInfo": {"totalPages": 4, "total": 160}, "nodes": [{"id": 35682432, "seedNum": 1, "entrant": {"id": 20666441, "name": "WIN | Peabnut", "participants": [{"id": 19022842, "gamerTag": "Peabnut", "prefix": "WIN", "user": {"location": {"city": "Rock Hill", "state": "SC", "country": "United States"}}, "player": {"id": 49302, "gamerTag": "Peabnut", "prefix": "WIN", "user": {"location": {"city": "Rock Hill", "state": "SC", "country": "United States"}}}}]}}, {"id": 35716348, "seedNum": 2, "entrant": {"id": 20690838, "name": "SR | Kola", "participants": [{"id": 19043759, "gamerTag": "Kola", "prefix": "SR", "user": {"location": {"city": "Duluth", "state": "GA", "country": "United States"}}, "player": {"id": 18802, "gamerTag": "Kola", "prefix": "SR", "user": {"location": {"city": "Duluth", "state": "GA", "country": "United States"}}}}]}}, {"id": 35801377, "seedNum": 3, "entrant": {"id": 20749158, "name": "NS | BeastModePaul", "participants": [{"id": 19094723, "gamerTag": "BeastModePaul", "prefix": "NS", "user": {"location": {"city": null, "state": null, "country": null}}, "player": {"id": 1868170, "gamerTag": "BeastModePaul", "prefix": "NS", "user": {"location": {"city": null, "state": null, "country": null}}}}]}}, {"id": 35501476, "seedNum": 4, "entrant": {"id": 20555293, "name": "omega", "participants": [{"id": 18925691, "gamerTag": "omega", "prefix": "", "user": {"location": {"city": "Suwanee", "state": "GA", "country": "United States"}}, "player": {"id": 24638, "gamerTag": "omega", "prefix": "", "user": {"location": {"city": "Suwanee", "state": "GA", "country": "United States"}}}}]}}, {"id": 35754580, "seedNum": 6, "entrant": {"id": 20718910, "name": "HyperKirby", "participants": [{"id": 19068181, "gamerTag": "HyperKirby", "prefix": null, "user": {"location": {"city": "Lawrenceville", "state": "GA", "country": "United States"}}, "player": {"id": 71079, "gamerTag": "HyperKirby", "prefix": null, "user": {"location": {"city": "Lawrenceville", "state": "GA", "country": "United States"}}}}]}}, {"id": 35759057, "seedNum": 7, "entrant": {"id": 20721570, "name": "SmU5h | Vendetta", "participants": [{"id": 19070584, "gamerTag": "Vendetta", "prefix": "SmU5h", "user": {"location": {"city": "Duluth", "state": "GA", "country": "United States"}}, "player": {"id": 343421, "gamerTag": "Vendetta", "prefix": "SmU5h", "user": {"location": {"city": "Duluth", "state": "GA", "country": "United States"}}}}]}}, {"id": 35702221, "seedNum": 8, "entrant": {"id": 20680949, "name": "Ns | Xceed | Xerzal", "participants": [{"id": 19034841, "gamerTag": "Xerzal", "prefix": "Ns | Xceed", "user": {"location": {"city": "Tuscaloosa", "state": "AL", "country": "United States"}}, "player": {"id": 1760924, "gamerTag": "Xerzal", "prefix": "Ns | Xceed", "user": {"location": {"city": "Tuscaloosa", "state": "AL", "country": "United States"}}}}]}}, {"id": 35408601, "seedNum": 9, "entrant": {"id": 20487903, "name": "DGS | spickles", "participants": [{"id": 18867085, "gamerTag": "spickles", "prefix": "DGS", "user": {"location": {"city": null, "state": null, "country": "United States"}}, "player": {"id": 1154793, "gamerTag": "spickles", "prefix": "DGS", "user": {"location": {"city": null, "state": null, "country": "United States"}}}}]}}, {"id": 35761755, "seedNum": 11, "entrant": {"id": 20723478, "name": "ROK | Karu!", "participants": [{"id": 19072257, "gamerTag": "Karu!", "prefix": "ROK", "user": {"location": {"city": null, "state": null, "country": "United States"}}, "player": {"id": 1964751, "gamerTag": "Super Awesome Duck", "prefix": "ROK", "user": {"location": {"city": null, "state": null, "country": "United States"}}}}]}}, {"id": 35780196, "seedNum": 12, "entrant": {"id": 20735917, "name": "DTN | Fatality", "participants": [{"id": 19082720, "gamerTag": "Fatality", "prefix": "DTN", "user": {"location": {"city": "Lilburn", "state": "GA", "country": "United States"}}, "player": {"id": 15921, "gamerTag": "Fatality", "prefix": "DTN", "user": {"location": {"city": "Lilburn", "state": "GA", "country": "United States"}}}}]}}, {"id": 35408297, "seedNum": 19, "entrant": {"id": 20487659, "name": "WIN | KornDog | CJFrozen", "participants": [{"id": 18866879, "gamerTag": "CJFrozen", "prefix": "WIN | KornDog", "user": {"location": {"city": "Rock Hill", "state": "SC", "country": "United States"}}, "player": {"id": 918277, "gamerTag": "CJFrozen", "prefix": "WIN | KornDog", "user": {"location": {"city": "Rock Hill", "state": "SC", "country": "United States"}}}}]}}, {"id": 35757861, "seedNum": 20, "entrant": {"id": 20720965, "name": "ROK | Surehyper", "participants": [{"id": 19070028, "gamerTag": "Surehyper", "prefix": "ROK", "user": {"location": {"city": "Miami", "state": "FL", "country": "United States"}}, "player": {"id": 1726915, "gamerTag": "Surehyper", "prefix": "ROK", "user": {"location": {"city": "Miami", "state": "FL", "country": "United States"}}}}]}}, {"id": 35419239, "seedNum": 23, "entrant": {"id": 20495676, "name": "Hell Mode | ROB Slayer", "participants": [{"id": 18873880, "gamerTag": "ROB Slayer", "prefix": "Hell Mode", "user": {"location": {"city": "Atlanta", "state": "GA", "country": "United States"}}, "player": {"id": 2414381, "gamerTag": "ROB Slayer", "prefix": "Hell Mode", "user": {"location": {"city": "Atlanta", "state": "GA", "country": "United States"}}}}]}}, {"id": 35838057, "seedNum": 37, "entrant": {"id": 20768144, "name": "UNAG | WOD | Mirage", "participants": [{"id": 19113338, "gamerTag": "Mirage", "prefix": "UNAG | WOD", "user": {"location": {"city": null, "state": "AL", "country": "United States"}}, "player": {"id": 2303717, "gamerTag": "Mirage", "prefix": "UNAG | WOD", "user": {"location": {"city": null, "state": "AL", "country": "United States"}}}}]}}, {"id": 35409514, "seedNum": 48, "entrant": {"id": 20488589, "name": "Tobe", "participants": [{"id": 18867548, "gamerTag": "Tobe", "prefix": "", "user": {"location": {"city": "Buford", "state": "GA", "country": "United States"}}, "player": {"id": 1646132, "gamerTag": "Tobe", "prefix": "", "user": {"location": {"city": "Buford", "state": "GA", "country": "United States"}}}}]}}, {"id": 35772208, "seedNum": 50, "entrant": {"id": 20730596, "name": "TTV | aj_waves", "participants": [{"id": 19078266, "gamerTag": "aj_waves", "prefix": "TTV", "user": {"location": {"city": "Statesboro", "state": "GA", "country": "United States"}}, "player": {"id": 3430874, "gamerTag": "aj_waves", "prefix": "TTV", "user": {"location": {"city": "Statesboro", "state": "GA", "country": "United States"}}}}]}}, {"id": 35729193, "seedNum": 5, "entrant": {"id": 20699992, "name": "SFS | TCS | Dany", "participants": [{"id": 19051511, "gamerTag": "Dany", "prefix": "SFS | TCS", "user": {"location": {"city": "Nashville", "state": "TN", "country": "United States"}}, "player": {"id": 606386, "gamerTag": "Dany2theny", "prefix": "TCS", "user": {"location": {"city": "Nashville", "state": "TN", "country": "United States"}}}}]}}, {"id": 35501856, "seedNum": 13, "entrant": {"id": 20555595, "name": "Tavares", "participants": [{"id": 18925965, "gamerTag": "Tavares", "prefix": "", "user": {"location": {"city": "Huntsville", "state": "AL", "country": "United States"}}, "player": {"id": 234829, "gamerTag": "Tavares", "prefix": "CF | AR |", "user": {"location": {"city": "Huntsville", "state": "AL", "country": "United States"}}}}]}}, {"id": 35759595, "seedNum": 14, "entrant": {"id": 20722062, "name": "YBG Don", "participants": [{"id": 19071049, "gamerTag": "YBG Don", "prefix": "", "user": {"location": {"city": "sussy amogus school", "state": "TX", "country": "United States"}}, "player": {"id": 2228357, "gamerTag": "YBG Don", "prefix": "", "user": {"location": {"city": "sussy amogus school", "state": "TX", "country": "United States"}}}}]}}, {"id": 35857511, "seedNum": 16, "entrant": {"id": 20778878, "name": "ROK | Sneaky Pocket Golem", "participants": [{"id": 19122930, "gamerTag": "Sneaky Pocket Golem", "prefix": "ROK", "user": {"location": {"city": "Miami", "state": "FL", "country": "United States"}}, "player": {"id": 1042374, "gamerTag": "Riku", "prefix": "ROK", "user": {"location": {"city": "Miami", "state": "FL", "country": "United States"}}}}]}}, {"id": 35500265, "seedNum": 21, "entrant": {"id": 20554478, "name": "Cake", "participants": [{"id": 18925007, "gamerTag": "Cake", "prefix": "", "user": {"location": {"city": "Dallas", "state": "AL", "country": "United States"}}, "player": {"id": 1046075, "gamerTag": "Cake", "prefix": "", "user": {"location": {"city": "Dallas", "state": "AL", "country": "United States"}}}}]}}, {"id": 35409670, "seedNum": 22, "entrant": {"id": 20488678, "name": "GUMP2 | Eleven", "participants": [{"id": 18867622, "gamerTag": "Eleven", "prefix": "GUMP2", "user": {"location": {"city": null, "state": null, "country": null}}, "player": {"id": 2348605, "gamerTag": "Ryu from Streets", "prefix": "GUMP2", "user": {"location": {"city": null, "state": null, "country": null}}}}]}}, {"id": 35756841, "seedNum": 24, "entrant": {"id": 20720131, "name": "PHNM | Chunky", "participants": [{"id": 19069296, "gamerTag": "Chunky", "prefix": "PHNM", "user": {"location": {"city": "Summerville", "state": "SC", "country": "United States"}}, "player": {"id": 1479891, "gamerTag": "Chunky", "prefix": "PHNM", "user": {"location": {"city": "Summerville", "state": "SC", "country": "United States"}}}}]}}, {"id": 35692730, "seedNum": 27, "entrant": {"id": 20673588, "name": "UTK | DBQ | HammerBro", "participants": [{"id": 19028789, "gamerTag": "HammerBro", "prefix": "UTK | DBQ", "user": {"location": {"city": "Chattanooga", "state": "TN", "country": "United States"}}, "player": {"id": 1080845, "gamerTag": "HammerBro", "prefix": "UTK | DBQ", "user": {"location": {"city": "Chattanooga", "state": "TN", "country": "United States"}}}}]}}, {"id": 35846385, "seedNum": 31, "entrant": {"id": 20773601, "name": "TCS BTV/WOD | Lost", "participants": [{"id": 19118053, "gamerTag": "Lost", "prefix": "TCS BTV/WOD", "user": {"location": {"city": "Scotts Hill", "state": "TN", "country": "United States"}}, "player": {"id": 1683473, "gamerTag": "Lost", "prefix": "TCS BTV/WOD", "user": {"location": {"city": "Scotts Hill", "state": "TN", "country": "United States"}}}}]}}, {"id": 35513626, "seedNum": 33, "entrant": {"id": 20564504, "name": "SmU5h | Shaine", "participants": [{"id": 18933874, "gamerTag": "Shaine", "prefix": "SmU5h", "user": {"location": {"city": "Leesburg", "state": "GA", "country": "United States"}}, "player": {"id": 1482843, "gamerTag": "Shaine", "prefix": "SmU5h", "user": {"location": {"city": "Leesburg", "state": "GA", "country": "United States"}}}}]}}, {"id": 35417788, "seedNum": 49, "entrant": {"id": 20494615, "name": "PACDUECE", "participants": [{"id": 18872949, "gamerTag": "PACDUECE", "prefix": "", "user": {"location": {"city": "Valdosta", "state": "GA", "country": "United States"}}, "player": {"id": 35275, "gamerTag": "PACDUECE", "prefix": "", "user": {"location": {"city": "Valdosta", "state": "GA", "country": "United States"}}}}]}}, {"id": 35609983, "seedNum": 54, "entrant": {"id": 20615765, "name": "RM | GUMP2 | Kr!stal:0", "participants": [{"id": 18978540, "gamerTag": "Kr!stal:0", "prefix": "RM | GUMP2", "user": {"location": {"city": "Lawrenceville", "state": "GA", "country": "United States"}}, "player": {"id": 2409815, "gamerTag": "AO ASHI SEASON 2 2026", "prefix": "RM | GUMP2", "user": {"location": {"city": "Lawrenceville", "state": "GA", "country": "United States"}}}}]}}, {"id": 35742401, "seedNum": 55, "entrant": {"id": 20709705, "name": "Cobalt", "participants": [{"id": 19060234, "gamerTag": "Cobalt", "prefix": null, "user": {"location": {"city": "Gainesville", "state": "GA", "country": "United States"}}, "player": {"id": 181792, "gamerTag": "Cobalt", "prefix": null, "user": {"location": {"city": "Gainesville", "state": "GA", "country": "United States"}}}}]}}, {"id": 35408814, "seedNum": 58, "entrant": {"id": 20488054, "name": "GUMP2 | JankTrees!", "participants": [{"id": 18867197, "gamerTag": "JankTrees!", "prefix": "GUMP2", "user": {"location": {"city": "Cartersville", "state": "GA", "country": "United States"}}, "player": {"id": 35695, "gamerTag": "JankTrees!", "prefix": "GUMP2", "user": {"location": {"city": "Cartersville", "state": "GA", "country": "United States"}}}}]}}, {"id": 35412134, "seedNum": 61, "entrant": {"id": 20490407, "name": "TC | Mr.Speedman", "participants": [{"id": 18869131, "gamerTag": "Mr.Speedman", "prefix": "TC", "user": {"location": {"city": "Roswell", "state": "GA", "country": "United States"}}, "player": {"id": 36192, "gamerTag": "Mr.Speedman", "prefix": "TC", "user": {"location": {"city": "Roswell", "state": "GA", "country": "United States"}}}}]}}, {"id": 35517153, "seedNum": 10, "entrant": {"id": 20566667, "name": "UNCG | Chugs", "participants": [{"id": 18935801, "gamerTag": "Chugs", "prefix": "UNCG", "user": {"location": {"city": "Winston-Salem", "state": "NC", "country": "United States"}}, "player": {"id": 1820508, "gamerTag": "Chugs", "prefix": "UNCG", "user": {"location": {"city": "Winston-Salem", "state": "NC", "country": "United States"}}}}]}}, {"id": 35756221, "seedNum": 18, "entrant": {"id": 20719693, "name": "PHNM | Senn", "participants": [{"id": 19068870, "gamerTag": "Senn", "prefix": "PHNM", "user": {"location": {"city": "Waxhaw", "state": "NC", "country": "United States"}}, "player": {"id": 1194511, "gamerTag": "Senn", "prefix": "PHNM", "user": {"location": {"city": "Waxhaw", "state": "NC", "country": "United States"}}}}]}}, {"id": 35838895, "seedNum": 25, "entrant": {"id": 20768627, "name": "KumaDusk", "participants": [{"id": 19113784, "gamerTag": "KumaDusk", "prefix": "", "user": {"location": {"city": "Lawrenceville", "state": "GA", "country": "United States"}}, "player": {"id": 253909, "gamerTag": "KumaDusk", "prefix": "", "user": {"location": {"city": "Lawrenceville", "state": "GA", "country": "United States"}}}}]}}, {"id": 35398716, "seedNum": 26, "entrant": {"id": 20482285, "name": "Ave~", "participants": [{"id": 18862343, "gamerTag": "Ave~", "prefix": "", "user": {"location": {"city": null, "state": null, "country": null}}, "player": {"id": 38830, "gamerTag": "Ave~", "prefix": "", "user": {"location": {"city": null, "state": null, "country": null}}}}]}}, {"id": 35742655, "seedNum": 28, "entrant": {"id": 20709932, "name": "MBS | Vivid", "participants": [{"id": 19060437, "gamerTag": "Vivid", "prefix": "MBS", "user": {"location": {"city": "Atl", "state": "GA", "country": "United States"}}, "player": {"id": 499333, "gamerTag": "Vivid", "prefix": "MBS", "user": {"location": {"city": "Atl", "state": "GA", "country": "United States"}}}}]}}, {"id": 35408677, "seedNum": 30, "entrant": {"id": 20487980, "name": "crystal pg | blue dog", "participants": [{"id": 18867134, "gamerTag": "blue dog", "prefix": "crystal pg", "user": {"location": {"city": "Matthews", "state": "NC", "country": "United States"}}, "player": {"id": 2279258, "gamerTag": "blue dog", "prefix": "crystal pg", "user": {"location": {"city": "Matthews", "state": "NC", "country": "United States"}}}}]}}, {"id": 35743104, "seedNum": 36, "entrant": {"id": 20710303, "name": "iGreg!", "participants": [{"id": 19060770, "gamerTag": "iGreg!", "prefix": "", "user": {"location": {"city": "FLOWERY BR", "state": "GA", "country": "United States"}}, "player": {"id": 509710, "gamerTag": "iGreg!", "prefix": "", "user": {"location": {"city": "FLOWERY BR", "state": "GA", "country": "United States"}}}}]}}, {"id": 35408944, "seedNum": 38, "entrant": {"id": 20488160, "name": "GUMP2 | Spider", "participants": [{"id": 18867233, "gamerTag": "Spider", "prefix": "GUMP2", "user": {"location": {"city": "Atlanta", "state": "GA", "country": "United States"}}, "player": {"id": 691176, "gamerTag": "Spider", "prefix": "GUMP2", "user": {"location": {"city": "Atlanta", "state": "GA", "country": "United States"}}}}]}}, {"id": 35408513, "seedNum": 44, "entrant": {"id": 20487847, "name": "GUMP2 | ToxiC", "participants": [{"id": 18867033, "gamerTag": "ToxiC", "prefix": "GUMP2", "user": {"location": {"city": "Marietta", "state": "GA", "country": "United States"}}, "player": {"id": 2585804, "gamerTag": "ToxiC", "prefix": "GUMP2", "user": {"location": {"city": "Marietta", "state": "GA", "country": "United States"}}}}]}}, {"id": 35734092, "seedNum": 47, "entrant": {"id": 20703864, "name": "EVC | squirtleB", "participants": [{"id": 19054784, "gamerTag": "squirtleB", "prefix": "EVC", "user": {"location": {"city": null, "state": null, "country": null}}, "player": {"id": 264290, "gamerTag": "squirtleB", "prefix": "EVC", "user": {"location": {"city": null, "state": null, "country": null}}}}]}}, {"id": 35853614, "seedNum": 51, "entrant": {"id": 20777459, "name": "UAH | Otogi", "participants": [{"id": 19121590, "gamerTag": "Otogi", "prefix": "UAH", "user": {"location": {"city": "Huntsville", "state": "AL", "country": "United States"}}, "player": {"id": 3846627, "gamerTag": "Otogi", "prefix": "Argon", "user": {"location": {"city": "Huntsville", "state": "AL", "country": "United States"}}}}]}}, {"id": 35409848, "seedNum": 52, "entrant": {"id": 20488758, "name": "LBE | Acid @ Indigo Park", "participants": [{"id": 18867695, "gamerTag": "Acid @ Indigo Park", "prefix": "LBE", "user": {"location": {"city": null, "state": null, "country": "United States"}}, "player": {"id": 1917673, "gamerTag": "Acid @ Indigo Park", "prefix": "LBE", "user": {"location": {"city": null, "state": null, "country": "United States"}}}}]}}, {"id": 35427675, "seedNum": 56, "entrant": {"id": 20501806, "name": "GUMP2 | STiCK", "participants": [{"id": 18879245, "gamerTag": "STiCK", "prefix": "GUMP2", "user": {"location": {"city": "Woodstock", "state": "GA", "country": "United States"}}, "player": {"id": 282674, "gamerTag": "STiCK", "prefix": "GUMP2", "user": {"location": {"city": "Woodstock", "state": "GA", "country": "United States"}}}}]}}, {"id": 35854785, "seedNum": 57, "entrant": {"id": 20778023, "name": "Barbashop", "participants": [{"id": 19122132, "gamerTag": "Barbashop", "prefix": "", "user": {"location": {"city": null, "state": null, "country": null}}, "player": {"id": 2537853, "gamerTag": "Barbashop", "prefix": "", "user": {"location": {"city": null, "state": null, "country": null}}}}]}}, {"id": 35409110, "seedNum": 62, "entrant": {"id": 20488306, "name": "VA | StreetDzine", "participants": [{"id": 18867299, "gamerTag": "StreetDzine", "prefix": "VA", "user": {"location": {"city": null, "state": null, "country": "United States"}}, "player": {"id": 989587, "gamerTag": "StreetDzine", "prefix": "VA", "user": {"location": {"city": null, "state": null, "country": "United States"}}}}]}}, {"id": 35421226, "seedNum": 66, "entrant": {"id": 20497378, "name": "Dubz", "participants": [{"id": 18875528, "gamerTag": "Dubz", "prefix": "", "user": {"location": {"city": "Grayson", "state": "GA", "country": "United States"}}, "player": {"id": 22583, "gamerTag": "Dubz", "prefix": "", "user": {"location": {"city": "Grayson", "state": "GA", "country": "United States"}}}}]}}, {"id": 35637508, "seedNum": 104, "entrant": {"id": 20634587, "name": "Rain~", "participants": [{"id": 18995271, "gamerTag": "Rain~", "prefix": null, "user": {"location": {"city": "Atlanta", "state": "GA", "country": "United States"}}, "player": {"id": 4240164, "gamerTag": "Rain~", "prefix": null, "user": {"location": {"city": "Atlanta", "state": "GA", "country": "United States"}}}}]}}, {"id": 35500238, "seedNum": 15, "entrant": {"id": 20554453, "name": "WOD | Scrafty", "participants": [{"id": 18924986, "gamerTag": "Scrafty", "prefix": "WOD", "user": {"location": {"city": "Tupelo", "state": "MS", "country": "United States"}}, "player": {"id": 159520, "gamerTag": "Scrafty", "prefix": "WOD", "user": {"location": {"city": "Tupelo", "state": "MS", "country": "United States"}}}}]}}, {"id": 35501493, "seedNum": 17, "entrant": {"id": 20555303, "name": "MopN", "participants": [{"id": 18925707, "gamerTag": "MopN", "prefix": "", "user": {"location": {"city": "Montevallo", "state": "AL", "country": "United States"}}, "player": {"id": 180688, "gamerTag": "MopN", "prefix": "", "user": {"location": {"city": "Montevallo", "state": "AL", "country": "United States"}}}}]}}]}}}