{"phase": {"seeds": {"pageInfo": {"totalPages": 1, "total": 4}, "nodes": [{"id": 36322519, "seedNum": 3, "entrant": {"id": 21069455, "name": "ZB | Gerard", "participants": [{"id": 19380921, "gamerTag": "Gerard", "prefix": "ZB", "user": {"location": {"city": "Atlanta", "state": "GA", "country": "United States"}}, "player": {"id": 325542, "gamerTag": "Gerard", "prefix": "ZB", "user": {"location": {"city": "Atlanta", "state": "GA", "country": "United States"}}}}]}}, {"id": 36322731, "seedNum": 4, "entrant": {"id": 21069639, "name": "ZB | lupeslounge", "participants": [{"id": 19381091, "gamerTag": "lupeslounge", "prefix": "ZB", "user": {"location": {"city": "Morrow", "state": "GA", "country": "United States"}}, "player": {"id": 303516, "gamerTag": "lupeslounge", "prefix": "ZB", "user": {"location": {"city": "Morrow", "state": "GA", "country": "United States"}}}}]}}, {"id": 36310503, "seedNum": 2, "entrant": {"id": 21061492, "name": "ZB | Juniper", "participants": [{"id": 19373663, "gamerTag": "Juniper", "prefix": "ZB", "user": {"location": {"city": "Morrow", "state": "GA", "country": "United States"}}, "player": {"id": 46895, "gamerTag": "Juniper", "prefix": "ZB", "user": {"location": {"city": "Morrow", "state": "GA", "country": "United States"}}}}]}}, {"id": 36310284, "seedNum": 1, "entrant": {"id": 21061292, "name": "ZB | Sanaito", "participants": [{"id": 19373475, "gamerTag": "Sanaito", "prefix": "ZB", "user": {"location": {"city": "Fayetteville", "state": "GA", "country": "United States"}}, "player": {"id": 12761, "gamerTag": "Sanaito", "prefix": "ZB", "user": {"location": {"city": "Fayetteville", "state": "GA", "country": "United States"}}}}]}}]}}}