{"event": {"sets": {"pageInfo": {"totalPages": 6, "total": 76}, "nodes": [{"id": 93192871, "state": 3, "round": -5, "fullRoundText": "Losers Round 2", "completedAt": 1756429334, "winnerId": 21104029, "slots": [{"id": "93192871-0", "entrant": {"id": 21104029, "name": "CFL | Benji", "participants": [{"id": 19412207, "gamerTag": "Benji", "prefix": "CFL", "user": {"location": {"city": "Orlando", "state": "FL", "country": "United States"}}, "player": {"id": 2990255, "gamerTag": "Benji", "prefix": "CFL", "user": {"location": {"city": "Orlando", "state": "FL", "country": "United States"}}}}]}, "standing": {"placement": 1, "stats": {"score": {"value": 2}}}}, {"id": "93192871-1", "entrant": {"id": 21102017, "name": "promamamia", "participants": [{"id": 19410353, "gamerTag": "promamamia", "prefix": "", "user": {"location": {"city": "Alpharetta", "state": "GA", "country": "United States"}}, "player": {"id": 3548468, "gamerTag": "promamamia", "prefix": "", "user": {"location": {"city": "Alpharetta", "state": "GA", "country": "United States"}}}}]}, "standing": {"placement": 2, "stats": {"score": {"value": 0}}}}], "games": null}, {"id": 93192735, "state": 3, "round": 2, "fullRoundText": "Winners Round 2", "completedAt": 1756428333, "winnerId": 21104106, "slots": [{"id": "93192735-0", "entrant": {"id": 21104106, "name": "SR | Kola", "participants": [{"id": 19412270, "gamerTag": "Kola", "prefix": "SR", "user": {"location": {"city": "Duluth", "state": "GA", "country": "United States"}}, "player": {"id": 18802, "gamerTag": "Kola", "prefix": "SR", "user": {"location": {"city": "Duluth", "state": "GA", "country": "United States"}}}}]}, "standing": {"placement": 1, "stats": {"score": {"value": 2}}}}, {"id": "93192735-1", "entrant": {"id": 21102017, "name": "promamamia", "participants": [{"id": 19410353, "gamerTag": "promamamia", "prefix": "", "user": {"location": {"city": "Alpharetta", "state": "GA", "country": "United States"}}, "player": {"id": 3548468, "gamerTag": "promamamia", "prefix": "", "user": {"location": {"city": "Alpharetta", "state": "GA", "country": "United States"}}}}]}, "standing": {"placement": 2, "stats": {"score": {"value": 0}}}}], "games": [{"id": 32208669, "orderNum": 1, "winnerId": 21104106, "entrant1Score": null, "entrant2Score": 0, "stage": null, "selections": [{"id": 47467092, "selectionType": "CHARACTER", "selectionValue": 1326, "entrant": {"id": 21102017}, "character": {"id": 1326, "name": "Roy"}}, {"id": 47467093, "selectionType": "CHARACTER", "selectionValue": 1323, "entrant": {"id": 21104106}, "character": {"id": 1323, "name": "R.O.B."}}]}, {"id": 32208670, "orderNum": 2, "winnerId": 21104106, "entrant1Score": null, "entrant2Score": 0, "stage": null, "selections": [{"id": 47467094, "selectionType": "CHARACTER", "selectionValue": 1326, "entrant": {"id": 21102017}, "character": {"id": 1326, "name": "Roy"}}, {"id": 47467095, "selectionType": "CHARACTER", "selectionValue": 1323, "entrant": {"id": 21104106}, "character": {"id": 1323, "name": "R.O.B."}}]}]}, {"id": 93192736, "state": 3, "round": 2, "fullRoundText": "Winners Round 2", "completedAt": 1756428021, "winnerId": 21103107, "slots": [{"id": "93192736-0", "entrant": {"id": 21104029, "name": "CFL | Benji", "participants": [{"id": 19412207, "gamerTag": "Benji", "prefix": "CFL", "user": {"location": {"city": "Orlando", "state": "FL", "country": "United States"}}, "player": {"id": 2990255, "gamerTag": "Benji", "prefix": "CFL", "user": {"location": {"city": "Orlando", "state": "FL", "country": "United States"}}}}]}, "standing": {"placement": 2, "stats": {"score": {"value": 0}}}}, {"id": "93192736-1", "entrant": {"id": 21103107, "name": "MilesisBae", "participants": [{"id": 19411364, "gamerTag": "MilesisBae", "prefix": "", "user": {"location": {"city": "Richmond", "state": "VA", "country": "United States"}}, "player": {"id": 1218383, "gamerTag": "MilesisBae", "prefix": "", "user": {"location": {"city": "Richmond", "state": "VA", "country": "United States"}}}}]}, "standing": {"placement": 1, "stats": {"score": {"value": 2}}}}], "games": [{"id": 32207999, "orderNum": 1, "winnerId": 21103107, "entrant1Score": 0, "entrant2Score": null, "stage": null, "selections": [{"id": 47466583, "selectionType": "CHARACTER", "selectionValue": 1526, "entrant": {"id": 21103107}, "character": {"id": 1526, "name": "Hero"}}, {"id": 47466584, "selectionType": "CHARACTER", "selectionValue": 1405, "entrant": {"id": 21104029}, "character": {"id": 1405, "name": "Mr. Game & Watch"}}]}, {"id": 32208000, "orderNum": 2, "winnerId": 21103107, "entrant1Score": 0, "entrant2Score": null, "stage": null, "selections": [{"id": 47466585, "selectionType": "CHARACTER", "selectionValue": 1526, "entrant": {"id": 21103107}, "character": {"id": 1526, "name": "Hero"}}, {"id": 47466586, "selectionType": "CHARACTER", "selectionValue": 1405, "entrant": {"id": 21104029}, "character": {"id": 1405, "name": "Mr. Game & Watch"}}]}]}, {"id": 93192737, "state": 3, "round": 2, "fullRoundText": "Winners Round 2", "completedAt": 1756427937, "winnerId": 21104169, "slots": [{"id": "93192737-0", "entrant": {"id": 21104169, "name": "KumaDusk", "participants": [{"id": 19412328, "gamerTag": "KumaDusk", "prefix": "", "user": {"location": {"city": "Lawrenceville", "state": "GA", "country": "United States"}}, "player": {"id": 253909, "gamerTag": "KumaDusk", "prefix": "", "user": {"location": {"city": "Lawrenceville", "state": "GA", "country": "United States"}}}}]}, "standing": {"placement": 1, "stats": {"score": {"value": 2}}}}, {"id": "93192737-1", "entrant": {"id": 21104447, "name": "Juncineroar", "participants": [{"id": 19412583, "gamerTag": "Juncineroar", "prefix": "", "user": {"location": {"city": "Atlanta", "state": "GA", "country": "United States"}}, "player": {"id": 208790, "gamerTag": "Juncineroar", "prefix": "", "user": {"location": {"city": "Atlanta", "state": "GA", "country": "United States"}}}}]}, "standing": {"placement": 2, "stats": {"score": {"value": 1}}}}], "games": null}, {"id": 93192738, "state": 3, "round": 2, "fullRoundText": "Winners Round 2", "completedAt": 1756427670, "winnerId": 21103557, "slots": [{"id": "93192738-0", "entrant": {"id": 21103557, "name": "The Simpsons | Ryu from Streets", "participants": [{"id": 19411782, "gamerTag": "Ryu from Streets", "prefix": "The Simpsons", "user": {"location": {"city": null, "state": null, "country": null}}, "player": {"id": 2348605, "gamerTag": "Ryu from Streets", "prefix": "GUMP2", "user": {"location": {"city": null, "state": null, "country": null}}}}]}, "standing": {"placement": 1, "stats": {"score": {"value": 2}}}}, {"id": "93192738-1", "entrant": {"id": 21101831, "name": "Free | Hue", "participants": [{"id": 19410180, "gamerTag": "Hue", "prefix": "Free", "user": {"location": {"city": "Union City", "state": "GA", "country": "United States"}}, "player": {"id": 35934, "gamerTag": "Hue", "prefix": "Free", "user": {"location": {"city": "Union City", "state": "GA", "country": "United States"}}}}]}, "standing": {"placement": 2, "stats": {"score": {"value": 0}}}}], "games": null}, {"id": 93192739, "state": 3, "round": 2, "fullRoundText": "Winners Round 2", "completedAt": 1756429655, "winnerId": 21104518, "slots": [{"id": "93192739-0", "entrant": {"id": 21104518, "name": "HyperKirby", "participants": [{"id": 19412642, "gamerTag": "HyperKirby", "prefix": null, "user": {"location": {"city": "Lawrenceville", "state": "GA", "country": "United States"}}, "player": {"id": 71079, "gamerTag": "HyperKirby", "prefix": null, "user": {"location": {"city": "Lawrenceville", "state": "GA", "country": "United States"}}}}]}, "standing": {"placement": 1, "stats": {"score": {"value": 2}}}}, {"id": "93192739-1", "entrant": {"id": 21078274, "name": "jack | jazzman", "participants": [{"id": 19388919, "gamerTag": "jazzman", "prefix": "jack", "user": {"location": {"city": "Athens", "state": "GA", "country": "United States"}}, "player": {"id": 3883272, "gamerTag": "jazzman", "prefix": "jack", "user": {"location": {"city": "Athens", "state": "GA", "country": "United States"}}}}]}, "standing": {"placement": 2, "stats": {"score": {"value": 0}}}}], "games": null}, {"id": 93192740, "state": 3, "round": 2, "fullRoundText": "Winners Round 2", "completedAt": 1756427834, "winnerId": 21104015, "slots": [{"id": "93192740-0", "entrant": {"id": 21104015, "name": "Dragonned", "participants": [{"id": 19412195, "gamerTag": "Dragonned", "prefix": "", "user": {"location": {"city": "Fayetteville", "state": "GA", "country": "United States"}}, "player": {"id": 979040, "gamerTag": "Dragonned", "prefix": "", "user": {"location": {"city": "Fayetteville", "state": "GA", "country": "United States"}}}}]}, "standing": {"placement": 1, "stats": {"score": {"value": 2}}}}, {"id": "93192740-1", "entrant": {"id": 21103350, "name": "GUMP2 | Woz but evil", "participants": [{"id": 19411598, "gamerTag": "Woz but evil", "prefix": "GUMP2", "user": {"location": {"city": "Avondale Estates", "state": "GA", "country": "United States"}}, "player": {"id": 225744, "gamerTag": "Z I C O", "prefix": "GUMP2", "user": {"location": {"city": "Avondale Estates", "state": "GA", "country": "United States"}}}}]}, "standing": {"placement": 2, "stats": {"score": {"value": 0}}}}], "games": [{"id": 32208038, "orderNum": 1, "winnerId": 21104015, "entrant1Score": 0, "entrant2Score": 0, "stage": null, "selections": [{"id": 47466278, "selectionType": "CHARACTER", "selectionValue": 1294, "entrant": {"id": 21103350}, "character": {"id": 1294, "name": "King Dedede"}}, {"id": 47466279, "selectionType": "CHARACTER", "selectionValue": 1322, "entrant": {"id": 21104015}, "character": {"id": 1322, "name": "Ridley"}}]}, {"id": 32208039, "orderNum": 2, "winnerId": 21104015, "entrant1Score": null, "entrant2Score": 0, "stage": null, "selections": [{"id": 47466280, "selectionType": "CHARACTER", "selectionValue": 1294, "entrant": {"id": 21103350}, "character": {"id": 1294, "name": "King Dedede"}}, {"id": 47466281, "selectionType": "CHARACTER", "selectionValue": 1322, "entrant": {"id": 21104015}, "character": {"id": 1322, "name": "Ridley"}}]}]}, {"id": 93192741, "state": 3, "round": 2, "fullRoundText": "Winners Round 2", "completedAt": 1756428511, "winnerId": 21100984, "slots": [{"id": "93192741-0", "entrant": {"id": 21100984, "name": "Cake", "participants": [{"id": 19409364, "gamerTag": "Cake", "prefix": "", "user": {"location": {"city": "Dallas", "state": "AL", "country": "United States"}}, "player": {"id": 1046075, "gamerTag": "Cake", "prefix": "", "user": {"location": {"city": "Dallas", "state": "AL", "country": "United States"}}}}]}, "standing": {"placement": 1, "stats": {"score": {"value": 2}}}}, {"id": "93192741-1", "entrant": {"id": 21103687, "name": "carlop", "participants": [{"id": 19411893, "gamerTag": "carlop", "prefix": null, "user": {"location": {"city": "Johns Creek", "state": "GA", "country": "United States"}}, "player": {"id": 3431919, "gamerTag": "carlop", "prefix": null, "user": {"location": {"city": "Johns Creek", "state": "GA", "country": "United States"}}}}]}, "standing": {"placement": 2, "stats": {"score": {"value": 1}}}}], "games": null}, {"id": 93192742, "state": 3, "round": 2, "fullRoundText": "Winners Round 2", "completedAt": 1756427772, "winnerId": 21103020, "slots": [{"id": "93192742-0", "entrant": {"id": 21103020, "name": "GUMP2 | Spider", "participants": [{"id": 19411289, "gamerTag": "Spider", "prefix": "GUMP2", "user": {"location": {"city": "Atlanta", "state": "GA", "country": "United States"}}, "player": {"id": 691176, "gamerTag": "Spider", "prefix": "GUMP2", "user": {"location": {"city": "Atlanta", "state": "GA", "country": "United States"}}}}]}, "standing": {"placement": 1, "stats": {"score": {"value": null}}}}, {"id": "93192742-1", "entrant": {"id": 21095530, "name": "Daiyan", "participants": [{"id": 19404386, "gamerTag": "Daiyan", "prefix": "", "user": {"location": {"city": "Lawrenceville", "state": "GA", "country": "United States"}}, "player": {"id": 1059715, "gamerTag": "Daiyan", "prefix": "", "user": {"location": {"city": "Lawrenceville", "state": "GA", "country": "United States"}}}}]}, "standing": {"placement": 2, "stats": {"score": {"value": -1}}}}], "games": null}, {"id": 93192743, "state": 3, "round": 2, "fullRoundText": "Winners Round 2", "completedAt": 1756429220, "winnerId": 21103200, "slots": [{"id": "93192743-0", "entrant": {"id": 21103200, "name": "omega", "participants": [{"id": 19411452, "gamerTag": "omega", "prefix": "", "user": {"location": {"city": "Suwanee", "state": "GA", "country": "United States"}}, "player": {"id": 24638, "gamerTag": "omega", "prefix": "", "user": {"location": {"city": "Suwanee", "state": "GA", "country": "United States"}}}}]}, "standing": {"placement": 1, "stats": {"score": {"value": 2}}}}, {"id": "93192743-1", "entrant": {"id": 21099646, "name": "KSU | Subzero", "participants": [{"id": 19408148, "gamerTag": "Subzero", "prefix": "KSU", "user": {"location": {"city": "Acworth", "state": "GA", "country": "United States"}}, "player": {"id": 1808159, "gamerTag": "Subzero", "prefix": "KSU", "user": {"location": {"city": "Acworth", "state": "GA", "country": "United States"}}}}]}, "standing": {"placement": 2, "stats": {"score": {"value": 0}}}}], "games": null}, {"id": 93192744, "state": 3, "round": 2, "fullRoundText": "Winners Round 2", "completedAt": 1756428844, "winnerId": 21103418, "slots": [{"id": "93192744-0", "entrant": {"id": 21102492, "name": "GUMP2 | JankTrees!", "participants": [{"id": 19410809, "gamerTag": "JankTrees!", "prefix": "GUMP2", "user": {"location": {"city": "Cartersville", "state": "GA", "country": "United States"}}, "player": {"id": 35695, "gamerTag": "JankTrees!", "prefix": "GUMP2", "user": {"location": {"city": "Cartersville", "state": "GA", "country": "United States"}}}}]}, "standing": {"placement": 2, "stats": {"score": {"value": 0}}}}, {"id": "93192744-1", "entrant": {"id": 21103418, "name": "PH | Nimbus", "participants": [{"id": 19411658, "gamerTag": "Nimbus", "prefix": "PH", "user": {"location": {"city": "Roswell", "state": "GA", "country": "United States"}}, "player": {"id": 36462, "gamerTag": "Nimbus", "prefix": "PH", "user": {"location": {"city": "Roswell", "state": "GA", "country": "United States"}}}}]}, "standing": {"placement": 1, "stats": {"score": {"value": 2}}}}], "games": [{"id": 32209032, "orderNum": 1, "winnerId": 21103418, "entrant1Score": 0, "entrant2Score": null, "stage": null, "selections": [{"id": 47467964, "selectionType": "CHARACTER", "selectionValue": 1338, "entrant": {"id": 21102492}, "character": {"id": 1338, "name": "Yoshi"}}, {"id": 47467965, "selectionType": "CHARACTER", "selectionValue": 1328, "entrant": {"id": 21103418}, "character": {"id": 1328, "name": "Samus"}}]}, {"id": 32209033, "orderNum": 2, "winnerId": 21103418, "entrant1Score": 0, "entrant2Score": null, "stage": null, "selections": [{"id": 47467966, "selectionType": "CHARACTER", "selectionValue": 1338, "entrant": {"id": 21102492}, "character": {"id": 1338, "name": "Yoshi"}}, {"id": 47467967, "selectionType": "CHARACTER", "selectionValue": 1328, "entrant": {"id": 21103418}, "character": {"id": 1328, "name": "Samus"}}]}]}, {"id": 93192745, "state": 3, "round": 2, "fullRoundText": "Winners Round 2", "completedAt": 1756429284, "winnerId": 21090344, "slots": [{"id": "93192745-0", "entrant": {"id": 21090344, "name": "Tobe", "participants": [{"id": 19399790, "gamerTag": "Tobe", "prefix": "", "user": {"location": {"city": "Buford", "state": "GA", "country": "United States"}}, "player": {"id": 1646132, "gamerTag": "Tobe", "prefix": "", "user": {"location": {"city": "Buford", "state": "GA", "country": "United States"}}}}]}, "standing": {"placement": 1, "stats": {"score": {"value": 2}}}}, {"id": "93192745-1", "entrant": {"id": 21103011, "name": "Rain~", "participants": [{"id": 19411283, "gamerTag": "Rain~", "prefix": null, "user": {"location": {"city": "Atlanta", "state": "GA", "country": "United States"}}, "player": {"id": 4240164, "gamerTag": "Rain~", "prefix": null, "user": {"location": {"city": "Atlanta", "state": "GA", "country": "United States"}}}}]}, "standing": {"placement": 2, "stats": {"score": {"value": 0}}}}], "games": null}, {"id": 93192746, "state": 3, "round": 2, "fullRoundText": "Winners Round 2", "completedAt": 1756428285, "winnerId": 21103281, "slots": [{"id": "93192746-0", "entrant": {"id": 21103281, "name": "MBS | Vivid", "participants": [{"id": 19411533, "gamerTag": "Vivid", "prefix": "MBS", "user": {"location": {"city": "Atl", "state": "GA", "country": "United States"}}, "player": {"id": 499333, "gamerTag": "Vivid", "prefix": "MBS", "user": {"location": {"city": "Atl", "state": "GA", "country": "United States"}}}}]}, "standing": {"placement": 1, "stats": {"score": {"value": 2}}}}, {"id": "93192746-1", "entrant": {"id": 21103345, "name": "red dot", "participants": [{"id": 19411593, "gamerTag": "red dot", "prefix": "", "user": {"location": {"city": "Milton", "state": "GA", "country": "United States"}}, "player": {"id": 1812177, "gamerTag": "red dot", "prefix": "", "user": {"location": {"city": "Milton", "state": "GA", "country": "United States"}}}}]}, "standing": {"placement": 2, "stats": {"score": {"value": 0}}}}], "games": [{"id": 32207933, "orderNum": 1, "winnerId": 21103281, "entrant1Score": null, "entrant2Score": 0, "stage": null, "selections": [{"id": 47466163, "selectionType": "CHARACTER", "selectionValue": 1333, "entrant": {"id": 21103281}, "character": {"id": 1333, "name": "Toon Link"}}, {"id": 47466164, "selectionType": "CHARACTER", "selectionValue": 1410, "entrant": {"id": 21103345}, "character": {"id": 1410, "name": "Ken"}}]}, {"id": 32207934, "orderNum": 2, "winnerId": 21103281, "entrant1Score": null, "entrant2Score": 0, "stage": null, "selections": [{"id": 47466165, "selectionType": "CHARACTER", "selectionValue": 1333, "entrant": {"id": 21103281}, "character": {"id": 1333, "name": "Toon Link"}}, {"id": 47466166, "selectionType": "CHARACTER", "selectionValue": 1410, "entrant": {"id": 21103345}, "character": {"id": 1410, "name": "Ken"}}]}]}, {"id": 93192747, "state": 3, "round": 2, "fullRoundText": "Winners Round 2", "completedAt": 1756429268, "winnerId": 21104387, "slots": [{"id": "93192747-0", "entrant": {"id": 21104387, "name": "DTN | Jahzz0", "participants": [{"id": 19412532, "gamerTag": "Jahzz0", "prefix": "DTN", "user": {"location": {"city": null, "state": null, "country": "United States"}}, "player": {"id": 946548, "gamerTag": "Jahzz0", "prefix": "DTN", "user": {"location": {"city": null, "state": null, "country": "United States"}}}}]}, "standing": {"placement": 1, "stats": {"score": {"value": 2}}}}, {"id": "93192747-1", "entrant": {"id": 21102919, "name": "Bagel", "participants": [{"id": 19411198, "gamerTag": "Bagel", "prefix": "", "user": {"location": {"city": "Atlanta", "state": "GA", "country": "United States"}}, "player": {"id": 1794753, "gamerTag": "Bagel", "prefix": "", "user": {"location": {"city": "Atlanta", "state": "GA", "country": "United States"}}}}]}, "standing": {"placement": 2, "stats": {"score": {"value": 0}}}}], "games": null}, {"id": 93192748, "state": 3, "round": 2, "fullRoundText": "Winners Round 2", "completedAt": 1756429691, "winnerId": 21099804, "slots": [{"id": "93192748-0", "entrant": {"id": 21099804, "name": "RM | GUMP2 | Kr!stal:0", "participants": [{"id": 19408301, "gamerTag": "Kr!stal:0", "prefix": "RM | GUMP2", "user": {"location": {"city": "Lawrenceville", "state": "GA", "country": "United States"}}, "player": {"id": 2409815, "gamerTag": "AO ASHI SEASON 2 2026", "prefix": "RM | GUMP2", "user": {"location": {"city": "Lawrenceville", "state": "GA", "country": "United States"}}}}]}, "standing": {"placement": 1, "stats": {"score": {"value": 2}}}}, {"id": "93192748-1", "entrant": {"id": 21103636, "name": "VA | StreetDzine", "participants": [{"id": 19411853, "gamerTag": "StreetDzine", "prefix": "VA", "user": {"location": {"city": null, "state": null, "country": "United States"}}, "player": {"id": 989587, "gamerTag": "StreetDzine", "prefix": "VA", "user": {"location": {"city": null, "state": null, "country": "United States"}}}}]}, "standing": {"placement": 2, "stats": {"score": {"value": 1}}}}], "games": [{"id": 32210240, "orderNum": 1, "winnerId": 21103636, "entrant1Score": 0, "entrant2Score": null, "stage": null, "selections": [{"id": 47469309, "selectionType": "CHARACTER", "selectionValue": 1766, "entrant": {"id": 21099804}, "character": {"id": 1766, "name": "Steve"}}, {"id": 47469310, "selectionType": "CHARACTER", "selectionValue": 1276, "entrant": {"id": 21103636}, "character": {"id": 1276, "name": "Corrin"}}]}, {"id": 32210241, "orderNum": 2, "winnerId": 21099804, "entrant1Score": null, "entrant2Score": 0, "stage": null, "selections": [{"id": 47469311, "selectionType": "CHARACTER", "selectionValue": 1301, "entrant": {"id": 21099804}, "character": {"id": 1301, "name": "Luigi"}}, {"id": 47469312, "selectionType": "CHARACTER", "selectionValue": 1276, "entrant": {"id": 21103636}, "character": {"id": 1276, "name": "Corrin"}}]}, {"id": 32210242, "orderNum": 3, "winnerId": 21099804, "entrant1Score": null, "entrant2Score": 0, "stage": null, "selections": [{"id": 47469313, "selectionType": "CHARACTER", "selectionValue": 1301, "entrant": {"id": 21099804}, "character": {"id": 1301, "name": "Luigi"}}, {"id": 47469314, "selectionType": "CHARACTER", "selectionValue": 1276, "entrant": {"id": 21103636}, "character": {"id": 1276, "name": "Corrin"}}]}]}]}}}