{"event": {"sets": {"pageInfo": {"totalPages": 2, "total": 22}, "nodes": [{"id": 94577264, "state": 3, "round": -4, "fullRoundText": "Losers Round 1", "completedAt": 1759450856, "winnerId": 21424931, "slots": [{"id": "94577264-0", "entrant": {"id": 21424931, "name": "EVIL | Alas", "participants": [{"id": 19692540, "gamerTag": "Alas", "prefix": "EVIL", "user": {"location": {"city": null, "state": null, "country": null}}, "player": {"id": 25946, "gamerTag": "Alas", "prefix": "EVIL", "user": {"location": {"city": null, "state": null, "country": null}}}}]}, "standing": {"placement": 1, "stats": {"score": {"value": 2}}}}, {"id": "94577264-1", "entrant": {"id": 21447484, "name": "soup time", "participants": [{"id": 19711886, "gamerTag": "soup time", "prefix": null, "user": {"location": {"city": "Auburn", "state": "AL", "country": "United States"}}, "player": {"id": 2363610, "gamerTag": "soup time", "prefix": null, "user": {"location": {"city": "Auburn", "state": "AL", "country": "United States"}}}}]}, "standing": {"placement": 2, "stats": {"score": {"value": 0}}}}], "games": null}, {"id": 94577265, "state": 3, "round": -4, "fullRoundText": "Losers Round 1", "completedAt": 1759451552, "winnerId": 21448332, "slots": [{"id": "94577265-0", "entrant": {"id": 21448332, "name": "N/a | C$", "participants": [{"id": 19712650, "gamerTag": "C$", "prefix": "N/a", "user": {"location": null}, "player": {"id": 228175, "gamerTag": "C$", "prefix": "N/a", "user": {"location": null}}}]}, "standing": {"placement": 1, "stats": {"score": {"value": 2}}}}, {"id": "94577265-1", "entrant": {"id": 21425177, "name": "The Hive | braxton", "participants": [{"id": 19692759, "gamerTag": "braxton", "prefix": "The Hive", "user": {"location": {"city": "Atlanta", "state": "GA", "country": "United States"}}, "player": {"id": 1037821, "gamerTag": "braxton", "prefix": "The Hive", "user": {"location": {"city": "Atlanta", "state": "GA", "country": "United States"}}}}]}, "standing": {"placement": 2, "stats": {"score": {"value": 0}}}}], "games": null}, {"id": 94577266, "state": 3, "round": -4, "fullRoundText": "Losers Round 1", "completedAt": 1759450424, "winnerId": 21425093, "slots": [{"id": "94577266-0", "entrant": {"id": 21425093, "name": "DD | Kingpoyothefirst", "participants": [{"id": 19692683, "gamerTag": "Kingpoyothefirst", "prefix": "DD", "user": {"location": {"city": null, "state": null, "country": null}}, "player": {"id": 2934299, "gamerTag": "Kingpoyothefirst", "prefix": "DD", "user": {"location": {"city": null, "state": null, "country": null}}}}]}, "standing": {"placement": 1, "stats": {"score": {"value": 2}}}}, {"id": "94577266-1", "entrant": {"id": 21445942, "name": "blaise", "participants": [{"id": 19710460, "gamerTag": "blaise", "prefix": "", "user": {"location": {"city": "douglasville", "state": "GA", "country": "United States"}}, "player": {"id": 1326121, "gamerTag": "blaise", "prefix": "", "user": {"location": {"city": "douglasville", "state": "GA", "country": "United States"}}}}]}, "standing": {"placement": 2, "stats": {"score": {"value": 0}}}}], "games": null}, {"id": 94577227, "state": 3, "round": 1, "fullRoundText": "Winners Round 1", "completedAt": 1759449068, "winnerId": 21425093, "slots": [{"id": "94577227-0", "entrant": {"id": 21448346, "name": "prince leisure", "participants": [{"id": 19712665, "gamerTag": "prince leisure", "prefix": "", "user": null, "player": {"id": 4030013, "gamerTag": "prince leisure", "prefix": "", "user": null}}]}, "standing": {"placement": 2, "stats": {"score": {"value": 0}}}}, {"id": "94577227-1", "entrant": {"id": 21425093, "name": "DD | Kingpoyothefirst", "participants": [{"id": 19692683, "gamerTag": "Kingpoyothefirst", "prefix": "DD", "user": {"location": {"city": null, "state": null, "country": null}}, "player": {"id": 2934299, "gamerTag": "Kingpoyothefirst", "prefix": "DD", "user": {"location": {"city": null, "state": null, "country": null}}}}]}, "standing": {"placement": 1, "stats": {"score": {"value": 2}}}}], "games": null}, {"id": 94577229, "state": 3, "round": 1, "fullRoundText": "Winners Round 1", "completedAt": 1759448893, "winnerId": 21448497, "slots": [{"id": "94577229-0", "entrant": {"id": 21448497, "name": "JDeems", "participants": [{"id": 19712792, "gamerTag": "JDeems", "prefix": "", "user": null, "player": {"id": 4953679, "gamerTag": "JDeems", "prefix": "", "user": null}}]}, "standing": {"placement": 1, "stats": {"score": {"value": 2}}}}, {"id": "94577229-1", "entrant": {"id": 21447484, "name": "soup time", "participants": [{"id": 19711886, "gamerTag": "soup time", "prefix": null, "user": {"location": {"city": "Auburn", "state": "AL", "country": "United States"}}, "player": {"id": 2363610, "gamerTag": "soup time", "prefix": null, "user": {"location": {"city": "Auburn", "state": "AL", "country": "United States"}}}}]}, "standing": {"placement": 2, "stats": {"score": {"value": 0}}}}], "games": null}, {"id": 94577231, "state": 3, "round": 1, "fullRoundText": "Winners Round 1", "completedAt": 1759449560, "winnerId": 21424931, "slots": [{"id": "94577231-0", "entrant": {"id": 21424931, "name": "EVIL | Alas", "participants": [{"id": 19692540, "gamerTag": "Alas", "prefix": "EVIL", "user": {"location": {"city": null, "state": null, "country": null}}, "player": {"id": 25946, "gamerTag": "Alas", "prefix": "EVIL", "user": {"location": {"city": null, "state": null, "country": null}}}}]}, "standing": {"placement": 1, "stats": {"score": {"value": 2}}}}, {"id": "94577231-1", "entrant": {"id": 21425177, "name": "The Hive | braxton", "participants": [{"id": 19692759, "gamerTag": "braxton", "prefix": "The Hive", "user": {"location": {"city": "Atlanta", "state": "GA", "country": "United States"}}, "player": {"id": 1037821, "gamerTag": "braxton", "prefix": "The Hive", "user": {"location": {"city": "Atlanta", "state": "GA", "country": "United States"}}}}]}, "standing": {"placement": 2, "stats": {"score": {"value": 1}}}}], "games": null}, {"id": 94577233, "state": 3, "round": 1, "fullRoundText": "Winners Round 1", "completedAt": 1759449497, "winnerId": 21448477, "slots": [{"id": "94577233-0", "entrant": {"id": 21448477, "name": "tomguy", "participants": [{"id": 19712771, "gamerTag": "tomguy", "prefix": "", "user": {"location": {"city": "Atlanta", "state": "GA", "country": "United States"}}, "player": {"id": 147458, "gamerTag": "tomguy", "prefix": "", "user": {"location": {"city": "Atlanta", "state": "GA", "country": "United States"}}}}]}, "standing": {"placement": 1, "stats": {"score": {"value": 2}}}}, {"id": "94577233-1", "entrant": {"id": 21445942, "name": "blaise", "participants": [{"id": 19710460, "gamerTag": "blaise", "prefix": "", "user": {"location": {"city": "douglasville", "state": "GA", "country": "United States"}}, "player": {"id": 1326121, "gamerTag": "blaise", "prefix": "", "user": {"location": {"city": "douglasville", "state": "GA", "country": "United States"}}}}]}, "standing": {"placement": 2, "stats": {"score": {"value": 0}}}}], "games": null}]}}}