{"event": {"sets": {"pageInfo": {"totalPages": 4, "total": 51}, "nodes": [{"id": 92383101, "state": 3, "round": 2, "fullRoundText": "Winners Round 2", "completedAt": 1754614127, "winnerId": 20907497, "slots": [{"id": "92383101-0", "entrant": {"id": 20878278, "name": "iNGenius", "participants": [{"id": 19211068, "gamerTag": "iNGenius", "prefix": "", "user": {"location": {"city": null, "state": null, "country": null}}, "player": {"id": 3194293, "gamerTag": "iNGenius", "prefix": "", "user": {"location": {"city": null, "state": null, "country": null}}}}]}, "standing": {"placement": 2, "stats": {"score": {"value": -1}}}}, {"id": "92383101-1", "entrant": {"id": 20907497, "name": "UTO | Whaley", "participants": [{"id": 19236707, "gamerTag": "Whaley", "prefix": "UTO", "user": {"location": {"city": "Stone Mountain", "state": "GA", "country": "United States"}}, "player": {"id": 2016149, "gamerTag": "Whaley", "prefix": "KSU|UTO|BLZE", "user": {"location": {"city": "Stone Mountain", "state": "GA", "country": "United States"}}}}]}, "standing": {"placement": 1, "stats": {"score": {"value": null}}}}], "games": null}, {"id": 92383151, "state": 3, "round": -4, "fullRoundText": "Losers Round 2", "completedAt": 1754614139, "winnerId": 20908322, "slots": [{"id": "92383151-0", "entrant": {"id": 20878278, "name": "iNGenius", "participants": [{"id": 19211068, "gamerTag": "iNGenius", "prefix": "", "user": {"location": {"city": null, "state": null, "country": null}}, "player": {"id": 3194293, "gamerTag": "iNGenius", "prefix": "", "user": {"location": {"city": null, "state": null, "country": null}}}}]}, "standing": {"placement": 2, "stats": {"score": {"value": -1}}}}, {"id": "92383151-1", "entrant": {"id": 20908322, "name": "4o4 | Sh33rZ", "participants": [{"id": 19237464, "gamerTag": "Sh33rZ", "prefix": "4o4", "user": {"location": {"city": "alpharetta", "state": "GA", "country": "United States"}}, "player": {"id": 3640465, "gamerTag": "Sh33rZ", "prefix": "4o4", "user": {"location": {"city": "alpharetta", "state": "GA", "country": "United States"}}}}]}, "standing": {"placement": 1, "stats": {"score": {"value": null}}}}], "games": null}, {"id": 92383152, "state": 3, "round": -4, "fullRoundText": "Losers Round 2", "completedAt": 1754615027, "winnerId": 20903416, "slots": [{"id": "92383152-0", "entrant": {"id": 20903416, "name": "SIR | vivor", "participants": [{"id": 19233075, "gamerTag": "vivor", "prefix": "SIR", "user": {"location": {"city": "Atlanta", "state": "GA", "country": "United States"}}, "player": {"id": 3373990, "gamerTag": "vivor", "prefix": "SIR", "user": {"location": {"city": "Atlanta", "state": "GA", "country": "United States"}}}}]}, "standing": {"placement": 1, "stats": {"score": {"value": 2}}}}, {"id": "92383152-1", "entrant": {"id": 20908204, "name": "V$ | EdiblePine", "participants": [{"id": 19237355, "gamerTag": "EdiblePine", "prefix": "V$", "user": {"location": {"city": "Atlanta", "state": "GA", "country": "United States"}}, "player": {"id": 1648278, "gamerTag": "EdiblePine", "prefix": "AP", "user": {"location": {"city": "Atlanta", "state": "GA", "country": "United States"}}}}]}, "standing": {"placement": 2, "stats": {"score": {"value": 0}}}}], "games": null}, {"id": 92383153, "state": 3, "round": -4, "fullRoundText": "Losers Round 2", "completedAt": 1754615690, "winnerId": 20898366, "slots": [{"id": "92383153-0", "entrant": {"id": 20898366, "name": "Heart", "participants": [{"id": 19228666, "gamerTag": "Heart", "prefix": "", "user": {"location": {"city": "Atlanta", "state": "GA", "country": "United States"}}, "player": {"id": 4287822, "gamerTag": "Heart", "prefix": "", "user": {"location": {"city": "Atlanta", "state": "GA", "country": "United States"}}}}]}, "standing": {"placement": 1, "stats": {"score": {"value": 2}}}}, {"id": "92383153-1", "entrant": {"id": 20909376, "name": "Par-i-dot Alpha", "participants": [{"id": 19238453, "gamerTag": "Par-i-dot Alpha", "prefix": "", "user": {"location": {"city": "Lithoina", "state": "GA", "country": "United States"}}, "player": {"id": 36418, "gamerTag": "Avalon", "prefix": "", "user": {"location": {"city": "Lithoina", "state": "GA", "country": "United States"}}}}]}, "standing": {"placement": 2, "stats": {"score": {"value": 0}}}}], "games": [{"id": 31768608, "orderNum": 1, "winnerId": 20898366, "entrant1Score": null, "entrant2Score": 0, "stage": null, "selections": [{"id": 46789783, "selectionType": "CHARACTER", "selectionValue": 1271, "entrant": {"id": 20898366}, "character": {"id": 1271, "name": "Bayonetta"}}, {"id": 46789784, "selectionType": "CHARACTER", "selectionValue": 1296, "entrant": {"id": 20909376}, "character": {"id": 1296, "name": "Link"}}]}, {"id": 31768609, "orderNum": 2, "winnerId": 20898366, "entrant1Score": null, "entrant2Score": 0, "stage": null, "selections": [{"id": 46789785, "selectionType": "CHARACTER", "selectionValue": 1271, "entrant": {"id": 20898366}, "character": {"id": 1271, "name": "Bayonetta"}}, {"id": 46789786, "selectionType": "CHARACTER", "selectionValue": 1296, "entrant": {"id": 20909376}, "character": {"id": 1296, "name": "Link"}}]}]}, {"id": 92383154, "state": 3, "round": -4, "fullRoundText": "Losers Round 2", "completedAt": 1754614279, "winnerId": 20886672, "slots": [{"id": "92383154-0", "entrant": {"id": 20886672, "name": "Nikol", "participants": [{"id": 19218563, "gamerTag": "Nikol", "prefix": "", "user": {"location": {"city": "Stockbridge", "state": "GA", "country": "United States"}}, "player": {"id": 2152846, "gamerTag": "Nikol", "prefix": "", "user": {"location": {"city": "Stockbridge", "state": "GA", "country": "United States"}}}}]}, "standing": {"placement": 1, "stats": {"score": {"value": 2}}}}, {"id": "92383154-1", "entrant": {"id": 20908927, "name": "SamRice", "participants": [{"id": 19238046, "gamerTag": "SamRice", "prefix": "", "user": {"location": {"city": "Norcross", "state": "GA", "country": "United States"}}, "player": {"id": 2387403, "gamerTag": "SamRice", "prefix": "", "user": {"location": {"city": "Norcross", "state": "GA", "country": "United States"}}}}]}, "standing": {"placement": 2, "stats": {"score": {"value": 0}}}}], "games": null}, {"id": 92383155, "state": 3, "round": -4, "fullRoundText": "Losers Round 2", "completedAt": 1754614755, "winnerId": 20904760, "slots": [{"id": "92383155-0", "entrant": {"id": 20904760, "name": "Free Puli | Maverick", "participants": [{"id": 19234256, "gamerTag": "Maverick", "prefix": "Free Puli", "user": {"location": {"city": "Columbus", "state": "GA", "country": "United States"}}, "player": {"id": 1058777, "gamerTag": "Maverick", "prefix": "", "user": {"location": {"city": "Columbus", "state": "GA", "country": "United States"}}}}]}, "standing": {"placement": 1, "stats": {"score": {"value": 2}}}}, {"id": "92383155-1", "entrant": {"id": 20909080, "name": "Yehtu", "participants": [{"id": 19238190, "gamerTag": "Yehtu", "prefix": null, "user": {"location": {"city": null, "state": null, "country": null}}, "player": {"id": 2230310, "gamerTag": "Yehtu", "prefix": null, "user": {"location": {"city": null, "state": null, "country": null}}}}]}, "standing": {"placement": 2, "stats": {"score": {"value": 1}}}}], "games": null}, {"id": 92383156, "state": 3, "round": -4, "fullRoundText": "Losers Round 2", "completedAt": 1754614403, "winnerId": 20907048, "slots": [{"id": "92383156-0", "entrant": {"id": 20907048, "name": "KSU | Subzero", "participants": [{"id": 19236301, "gamerTag": "Subzero", "prefix": "KSU", "user": {"location": {"city": "Acworth", "state": "GA", "country": "United States"}}, "player": {"id": 1808159, "gamerTag": "Subzero", "prefix": "KSU", "user": {"location": {"city": "Acworth", "state": "GA", "country": "United States"}}}}]}, "standing": {"placement": 1, "stats": {"score": {"value": 2}}}}, {"id": "92383156-1", "entrant": {"id": 20908195, "name": "Manburnot", "participants": [{"id": 19237345, "gamerTag": "Manburnot", "prefix": "", "user": {"location": {"city": "Norcross", "state": "GA", "country": "United States"}}, "player": {"id": 4831519, "gamerTag": "Manburnot", "prefix": "", "user": {"location": {"city": "Norcross", "state": "GA", "country": "United States"}}}}]}, "standing": {"placement": 2, "stats": {"score": {"value": 0}}}}], "games": null}, {"id": 92383157, "state": 3, "round": -4, "fullRoundText": "Losers Round 2", "completedAt": 1754616256, "winnerId": 20906224, "slots": [{"id": "92383157-0", "entrant": {"id": 20906224, "name": "red dot", "participants": [{"id": 19235573, "gamerTag": "red dot", "prefix": "", "user": {"location": {"city": "Milton", "state": "GA", "country": "United States"}}, "player": {"id": 1812177, "gamerTag": "red dot", "prefix": "", "user": {"location": {"city": "Milton", "state": "GA", "country": "United States"}}}}]}, "standing": {"placement": 1, "stats": {"score": {"value": 2}}}}, {"id": "92383157-1", "entrant": {"id": 20905933, "name": "BlaZR", "participants": [{"id": 19235328, "gamerTag": "BlaZR", "prefix": "", "user": {"location": {"city": "ur mum", "state": null, "country": "United States"}}, "player": {"id": 1804122, "gamerTag": "BlaZR", "prefix": "", "user": {"location": {"city": "ur mum", "state": null, "country": "United States"}}}}]}, "standing": {"placement": 2, "stats": {"score": {"value": 0}}}}], "games": null}, {"id": 92383158, "state": 3, "round": -4, "fullRoundText": "Losers Round 2", "completedAt": 1754614931, "winnerId": 20906245, "slots": [{"id": "92383158-0", "entrant": {"id": 20906245, "name": "promamamia", "participants": [{"id": 19235595, "gamerTag": "promamamia", "prefix": "", "user": {"location": {"city": "Alpharetta", "state": "GA", "country": "United States"}}, "player": {"id": 3548468, "gamerTag": "promamamia", "prefix": "", "user": {"location": {"city": "Alpharetta", "state": "GA", "country": "United States"}}}}]}, "standing": {"placement": 1, "stats": {"score": {"value": 2}}}}, {"id": "92383158-1", "entrant": {"id": 20909607, "name": "Pleeploploop", "participants": [{"id": 19238676, "gamerTag": "Pleeploploop", "prefix": "", "user": {"location": {"city": "Snellville", "state": null, "country": "United States"}}, "player": {"id": 1739676, "gamerTag": "Pleeploploop", "prefix": "", "user": {"location": {"city": "Snellville", "state": null, "country": "United States"}}}}]}, "standing": {"placement": 2, "stats": {"score": {"value": 1}}}}], "games": null}, {"id": 92383144, "state": 3, "round": -3, "fullRoundText": "Losers Round 1", "completedAt": 1754614001, "winnerId": 20908204, "slots": [{"id": "92383144-0", "entrant": {"id": 20903263, "name": "J'Challa", "participants": [{"id": 19232948, "gamerTag": "J'Challa", "prefix": null, "user": {"location": {"city": null, "state": "GA", "country": "United States"}}, "player": {"id": 2728527, "gamerTag": "J'Challa", "prefix": null, "user": {"location": {"city": null, "state": "GA", "country": "United States"}}}}]}, "standing": {"placement": 2, "stats": {"score": {"value": 0}}}}, {"id": "92383144-1", "entrant": {"id": 20908204, "name": "V$ | EdiblePine", "participants": [{"id": 19237355, "gamerTag": "EdiblePine", "prefix": "V$", "user": {"location": {"city": "Atlanta", "state": "GA", "country": "United States"}}, "player": {"id": 1648278, "gamerTag": "EdiblePine", "prefix": "AP", "user": {"location": {"city": "Atlanta", "state": "GA", "country": "United States"}}}}]}, "standing": {"placement": 1, "stats": {"score": {"value": 2}}}}], "games": null}, {"id": 92383148, "state": 3, "round": -3, "fullRoundText": "Losers Round 1", "completedAt": 1754613670, "winnerId": 20908195, "slots": [{"id": "92383148-0", "entrant": {"id": 20908195, "name": "Manburnot", "participants": [{"id": 19237345, "gamerTag": "Manburnot", "prefix": "", "user": {"location": {"city": "Norcross", "state": "GA", "country": "United States"}}, "player": {"id": 4831519, "gamerTag": "Manburnot", "prefix": "", "user": {"location": {"city": "Norcross", "state": "GA", "country": "United States"}}}}]}, "standing": {"placement": 1, "stats": {"score": {"value": 2}}}}, {"id": "92383148-1", "entrant": {"id": 20878382, "name": "brave", "participants": [{"id": 19211165, "gamerTag": "brave", "prefix": "", "user": {"location": {"city": "Lawrenceville", "state": "GA", "country": "United States"}}, "player": {"id": 1000536, "gamerTag": "brave", "prefix": "", "user": {"location": {"city": "Lawrenceville", "state": "GA", "country": "United States"}}}}]}, "standing": {"placement": 2, "stats": {"score": {"value": 0}}}}], "games": null}, {"id": 92383079, "state": 3, "round": 1, "fullRoundText": "Winners Round 1", "completedAt": 1754613217, "winnerId": 20906245, "slots": [{"id": "92383079-0", "entrant": {"id": 20906245, "name": "promamamia", "participants": [{"id": 19235595, "gamerTag": "promamamia", "prefix": "", "user": {"location": {"city": "Alpharetta", "state": "GA", "country": "United States"}}, "player": {"id": 3548468, "gamerTag": "promamamia", "prefix": "", "user": {"location": {"city": "Alpharetta", "state": "GA", "country": "United States"}}}}]}, "standing": {"placement": 1, "stats": {"score": {"value": 2}}}}, {"id": "92383079-1", "entrant": {"id": 20908322, "name": "4o4 | Sh33rZ", "participants": [{"id": 19237464, "gamerTag": "Sh33rZ", "prefix": "4o4", "user": {"location": {"city": "alpharetta", "state": "GA", "country": "United States"}}, "player": {"id": 3640465, "gamerTag": "Sh33rZ", "prefix": "4o4", "user": {"location": {"city": "alpharetta", "state": "GA", "country": "United States"}}}}]}, "standing": {"placement": 2, "stats": {"score": {"value": 1}}}}], "games": null}, {"id": 92383080, "state": 3, "round": 1, "fullRoundText": "Winners Round 1", "completedAt": 1754613055, "winnerId": 20906224, "slots": [{"id": "92383080-0", "entrant": {"id": 20906224, "name": "red dot", "participants": [{"id": 19235573, "gamerTag": "red dot", "prefix": "", "user": {"location": {"city": "Milton", "state": "GA", "country": "United States"}}, "player": {"id": 1812177, "gamerTag": "red dot", "prefix": "", "user": {"location": {"city": "Milton", "state": "GA", "country": "United States"}}}}]}, "standing": {"placement": 1, "stats": {"score": {"value": 2}}}}, {"id": "92383080-1", "entrant": {"id": 20903263, "name": "J'Challa", "participants": [{"id": 19232948, "gamerTag": "J'Challa", "prefix": null, "user": {"location": {"city": null, "state": "GA", "country": "United States"}}, "player": {"id": 2728527, "gamerTag": "J'Challa", "prefix": null, "user": {"location": {"city": null, "state": "GA", "country": "United States"}}}}]}, "standing": {"placement": 2, "stats": {"score": {"value": 0}}}}], "games": null}, {"id": 92383081, "state": 3, "round": 1, "fullRoundText": "Winners Round 1", "completedAt": 1754613077, "winnerId": 20908740, "slots": [{"id": "92383081-0", "entrant": {"id": 20908740, "name": "GG | varunk", "participants": [{"id": 19237880, "gamerTag": "varunk", "prefix": "GG", "user": {"location": {"city": "Marietta", "state": "GA", "country": "United States"}}, "player": {"id": 1653684, "gamerTag": "varunk", "prefix": "GG", "user": {"location": {"city": "Marietta", "state": "GA", "country": "United States"}}}}]}, "standing": {"placement": 1, "stats": {"score": {"value": 2}}}}, {"id": "92383081-1", "entrant": {"id": 20908204, "name": "V$ | EdiblePine", "participants": [{"id": 19237355, "gamerTag": "EdiblePine", "prefix": "V$", "user": {"location": {"city": "Atlanta", "state": "GA", "country": "United States"}}, "player": {"id": 1648278, "gamerTag": "EdiblePine", "prefix": "AP", "user": {"location": {"city": "Atlanta", "state": "GA", "country": "United States"}}}}]}, "standing": {"placement": 2, "stats": {"score": {"value": 0}}}}], "games": null}, {"id": 92383083, "state": 3, "round": 1, "fullRoundText": "Winners Round 1", "completedAt": 1754613109, "winnerId": 20907048, "slots": [{"id": "92383083-0", "entrant": {"id": 20907048, "name": "KSU | Subzero", "participants": [{"id": 19236301, "gamerTag": "Subzero", "prefix": "KSU", "user": {"location": {"city": "Acworth", "state": "GA", "country": "United States"}}, "player": {"id": 1808159, "gamerTag": "Subzero", "prefix": "KSU", "user": {"location": {"city": "Acworth", "state": "GA", "country": "United States"}}}}]}, "standing": {"placement": 1, "stats": {"score": {"value": 2}}}}, {"id": "92383083-1", "entrant": {"id": 20909376, "name": "Par-i-dot Alpha", "participants": [{"id": 19238453, "gamerTag": "Par-i-dot Alpha", "prefix": "", "user": {"location": {"city": "Lithoina", "state": "GA", "country": "United States"}}, "player": {"id": 36418, "gamerTag": "Avalon", "prefix": "", "user": {"location": {"city": "Lithoina", "state": "GA", "country": "United States"}}}}]}, "standing": {"placement": 2, "stats": {"score": {"value": 0}}}}], "games": null}]}}}