{"phase": {"seeds": {"pageInfo": {"totalPages": 1, "total": 29}, "nodes": [{"id": 35886817, "seedNum": 1, "entrant": {"id": 20798121, "name": "Heart", "participants": [{"id": 19141002, "gamerTag": "Heart", "prefix": "", "user": {"location": {"city": "Atlanta", "state": "GA", "country": "United States"}}, "player": {"id": 4287822, "gamerTag": "Heart", "prefix": "", "user": {"location": {"city": "Atlanta", "state": "GA", "country": "United States"}}}}]}}, {"id": 35922074, "seedNum": 2, "entrant": {"id": 20819471, "name": "4o4 | chooryu :)", "participants": [{"id": 19158751, "gamerTag": "chooryu :)", "prefix": "4o4", "user": {"location": {"city": "Kennesaw", "state": "GA", "country": "United States"}}, "player": {"id": 466564, "gamerTag": "chooryu :)", "prefix": "4o4", "user": {"location": {"city": "Kennesaw", "state": "GA", "country": "United States"}}}}]}}, {"id": 35922807, "seedNum": 5, "entrant": {"id": 20819856, "name": "WFF | Happy", "participants": [{"id": 19159066, "gamerTag": "Happy", "prefix": "WFF", "user": {"location": {"city": "Peachtree CIty", "state": "GA", "country": "United States"}}, "player": {"id": 1383907, "gamerTag": "Happy", "prefix": "WFF", "user": {"location": {"city": "Peachtree CIty", "state": "GA", "country": "United States"}}}}]}}, {"id": 35922339, "seedNum": 22, "entrant": {"id": 20819696, "name": "Mrbray30", "participants": [{"id": 19158912, "gamerTag": "Mrbray30", "prefix": "", "user": {"location": {"city": "Atlanta", "state": "GA", "country": "United States"}}, "player": {"id": 4664413, "gamerTag": "Mrbray30", "prefix": "", "user": {"location": {"city": "Atlanta", "state": "GA", "country": "United States"}}}}]}}, {"id": 35916772, "seedNum": 3, "entrant": {"id": 20815645, "name": "TFT | ALLEYCAT", "participants": [{"id": 19155511, "gamerTag": "ALLEYCAT", "prefix": "TFT", "user": {"location": {"city": "Atlanta", "state": "GA", "country": "United States"}}, "player": {"id": 1940654, "gamerTag": "ALLEYCAT", "prefix": "TFT", "user": {"location": {"city": "Atlanta", "state": "GA", "country": "United States"}}}}]}}, {"id": 35922809, "seedNum": 4, "entrant": {"id": 20819855, "name": "WFF | Olive", "participants": [{"id": 19159065, "gamerTag": "Olive", "prefix": "WFF", "user": {"location": {"city": "Atlanta", "state": "GA", "country": "United States"}}, "player": {"id": 1810274, "gamerTag": "Planet Of Da", "prefix": "WeFarmFrank", "user": {"location": {"city": "Atlanta", "state": "GA", "country": "United States"}}}}]}}, {"id": 35922346, "seedNum": 13, "entrant": {"id": 20819703, "name": "TFT | BigCheese", "participants": [{"id": 19158919, "gamerTag": "BigCheese", "prefix": "TFT", "user": {"location": {"city": null, "state": null, "country": null}}, "player": {"id": 3991446, "gamerTag": "BigCheese", "prefix": "TFT", "user": {"location": {"city": null, "state": null, "country": null}}}}]}}, {"id": 35921487, "seedNum": 19, "entrant": {"id": 20818960, "name": "TFT | Juug$tarr", "participants": [{"id": 19158307, "gamerTag": "Juug$tarr", "prefix": "TFT", "user": {"location": {"city": "Atlanta", "state": "GA", "country": "United States"}}, "player": {"id": 3621035, "gamerTag": "Juug$tarr", "prefix": "TFT", "user": {"location": {"city": "Atlanta", "state": "GA", "country": "United States"}}}}]}}, {"id": 35922239, "seedNum": 7, "entrant": {"id": 20819604, "name": "TnT | Sid", "participants": [{"id": 19158829, "gamerTag": "Sid", "prefix": "TnT", "user": {"location": {"city": "Powder Springs", "state": "GA", "country": "United States"}}, "player": {"id": 1229067, "gamerTag": "Sid", "prefix": "TnT", "user": {"location": {"city": "Powder Springs", "state": "GA", "country": "United States"}}}}]}}, {"id": 35922337, "seedNum": 8, "entrant": {"id": 20819694, "name": "TnT | Monologgue", "participants": [{"id": 19158911, "gamerTag": "Monologgue", "prefix": "TnT", "user": {"location": {"city": "Atlanta", "state": "GA", "country": "United States"}}, "player": {"id": 1135679, "gamerTag": "Monologgue", "prefix": "TnT", "user": {"location": {"city": "Atlanta", "state": "GA", "country": "United States"}}}}]}}, {"id": 35922219, "seedNum": 14, "entrant": {"id": 20819584, "name": "TFT | Handsome Squidward", "participants": [{"id": 19158811, "gamerTag": "Handsome Squidward", "prefix": "TFT", "user": {"location": {"city": "Calhoun", "state": "GA", "country": "United States"}}, "player": {"id": 2241471, "gamerTag": "lil munch", "prefix": "TFT", "user": {"location": {"city": "Calhoun", "state": "GA", "country": "United States"}}}}]}}, {"id": 35922434, "seedNum": 20, "entrant": {"id": 20819793, "name": "RAMS | XL Dukie AF", "participants": [{"id": 19159009, "gamerTag": "XL Dukie AF", "prefix": "RAMS", "user": {"location": {"city": "Peachtree Corners", "state": "GA", "country": "United States"}}, "player": {"id": 2374690, "gamerTag": "XL Dukie AF", "prefix": "RAMS", "user": {"location": {"city": "Peachtree Corners", "state": "GA", "country": "United States"}}}}]}}, {"id": 35922689, "seedNum": 11, "entrant": {"id": 20819805, "name": "RAMS | Bragmuffin", "participants": [{"id": 19159020, "gamerTag": "Bragmuffin", "prefix": "RAMS", "user": {"location": {"city": "Alpharetta", "state": "GA", "country": "United States"}}, "player": {"id": 2354073, "gamerTag": "Bragmuffin", "prefix": "RAMS", "user": {"location": {"city": "Alpharetta", "state": "GA", "country": "United States"}}}}]}}, {"id": 35921867, "seedNum": 12, "entrant": {"id": 20819287, "name": "Jdaddy", "participants": [{"id": 19158611, "gamerTag": "Jdaddy", "prefix": null, "user": {"location": {"city": "Atlanta", "state": "GA", "country": "United States"}}, "player": {"id": 4384721, "gamerTag": "Jdaddy", "prefix": null, "user": {"location": {"city": "Atlanta", "state": "GA", "country": "United States"}}}}]}}, {"id": 35922810, "seedNum": 15, "entrant": {"id": 20819857, "name": "WFF | Minty", "participants": [{"id": 19159067, "gamerTag": "Minty", "prefix": "WFF", "user": {"location": {"city": "Atlanta", "state": "GA", "country": "United States"}}, "player": {"id": 1193981, "gamerTag": "Minty", "prefix": "WFF", "user": {"location": {"city": "Atlanta", "state": "GA", "country": "United States"}}}}]}}, {"id": 35922368, "seedNum": 16, "entrant": {"id": 20819726, "name": "RM | lawl", "participants": [{"id": 19158943, "gamerTag": "lawl", "prefix": "RM", "user": {"location": {"city": "Dacula", "state": "GA", "country": "United States"}}, "player": {"id": 2116990, "gamerTag": "lawl", "prefix": "RM", "user": {"location": {"city": "Dacula", "state": "GA", "country": "United States"}}}}]}}, {"id": 35815613, "seedNum": 6, "entrant": {"id": 20758052, "name": "TFT | Frank", "participants": [{"id": 19103805, "gamerTag": "Frank", "prefix": "TFT", "user": {"location": {"city": "Doraville", "state": "GA", "country": "United States"}}, "player": {"id": 1227401, "gamerTag": "Terry Labonte", "prefix": "TFT", "user": {"location": {"city": "Doraville", "state": "GA", "country": "United States"}}}}]}}, {"id": 35922376, "seedNum": 9, "entrant": {"id": 20819758, "name": "RM | WFF | Sakruoi", "participants": [{"id": 19158974, "gamerTag": "Sakruoi", "prefix": "RM | WFF", "user": {"location": {"city": "atlanta", "state": "GA", "country": "United States"}}, "player": {"id": 1230555, "gamerTag": "Sakruoi", "prefix": "RM | WFF", "user": {"location": {"city": "atlanta", "state": "GA", "country": "United States"}}}}]}}, {"id": 35922279, "seedNum": 17, "entrant": {"id": 20819644, "name": "GG | VaR", "participants": [{"id": 19158865, "gamerTag": "VaR", "prefix": "GG", "user": {"location": {"city": "Atlanta", "state": "GA", "country": "United States"}}, "player": {"id": 329546, "gamerTag": "VaR", "prefix": "GG", "user": {"location": {"city": "Atlanta", "state": "GA", "country": "United States"}}}}]}}, {"id": 35922353, "seedNum": 18, "entrant": {"id": 20819711, "name": "Fishboi", "participants": [{"id": 19158928, "gamerTag": "Fishboi", "prefix": null, "user": {"location": {"city": "Peachtree Corners", "state": "GA", "country": "United States"}}, "player": {"id": 1540302, "gamerTag": "Fishboi", "prefix": null, "user": {"location": {"city": "Peachtree Corners", "state": "GA", "country": "United States"}}}}]}}, {"id": 35922226, "seedNum": 21, "entrant": {"id": 20819591, "name": "TFT | yxngcyborg", "participants": [{"id": 19158816, "gamerTag": "yxngcyborg", "prefix": "TFT", "user": {"location": {"city": "Atlanta", "state": "GA", "country": "United States"}}, "player": {"id": 1751817, "gamerTag": "Ricky Rudd", "prefix": "TFT", "user": {"location": {"city": "Atlanta", "state": "GA", "country": "United States"}}}}]}}, {"id": 35922214, "seedNum": 23, "entrant": {"id": 20819579, "name": "Jahku$ha", "participants": [{"id": 19158806, "gamerTag": "Jahku$ha", "prefix": "", "user": {"location": {"city": "Atlanta", "state": "GA", "country": "United States"}}, "player": {"id": 4559746, "gamerTag": "Jahku$ha", "prefix": "", "user": {"location": {"city": "Atlanta", "state": "GA", "country": "United States"}}}}]}}, {"id": 35919610, "seedNum": 24, "entrant": {"id": 20817801, "name": "WHOLE MILK", "participants": [{"id": 19157376, "gamerTag": "WHOLE MILK", "prefix": "", "user": {"location": {"city": "New York", "state": null, "country": "United States"}}, "player": {"id": 2981252, "gamerTag": "WHOLE MILK", "prefix": "", "user": {"location": {"city": "New York", "state": null, "country": "United States"}}}}]}}, {"id": 35922907, "seedNum": 26, "entrant": {"id": 20819874, "name": "Dazey", "participants": [{"id": 19159082, "gamerTag": "Dazey", "prefix": "", "user": {"location": {"city": "Atlanta", "state": "GA", "country": "United States"}}, "player": {"id": 4879983, "gamerTag": "Dazey", "prefix": "", "user": {"location": {"city": "Atlanta", "state": "GA", "country": "United States"}}}}]}}, {"id": 35922023, "seedNum": 10, "entrant": {"id": 20819434, "name": "RAMS | RussianJesus", "participants": [{"id": 19158723, "gamerTag": "RussianJesus", "prefix": "RAMS", "user": {"location": {"city": "Atlanta", "state": "GA", "country": "United States"}}, "player": {"id": 1140567, "gamerTag": "RussianJesus", "prefix": "RAMS", "user": {"location": {"city": "Atlanta", "state": "GA", "country": "United States"}}}}]}}, {"id": 35922104, "seedNum": 25, "entrant": {"id": 20819493, "name": "Skittles", "participants": [{"id": 19158768, "gamerTag": "Skittles", "prefix": null, "user": {"location": {"city": "Marietta", "state": "GA", "country": "United States"}}, "player": {"id": 136086, "gamerTag": "Skittles", "prefix": null, "user": {"location": {"city": "Marietta", "state": "GA", "country": "United States"}}}}]}}, {"id": 35922326, "seedNum": 27, "entrant": {"id": 20819691, "name": "4o4 | Kokuren", "participants": [{"id": 19158907, "gamerTag": "Kokuren", "prefix": "4o4", "user": {"location": {"city": "Marietta", "state": "GA", "country": "United States"}}, "player": {"id": 2282482, "gamerTag": "Kokuren", "prefix": "4o4", "user": {"location": {"city": "Marietta", "state": "GA", "country": "United States"}}}}]}}, {"id": 35922740, "seedNum": 28, "entrant": {"id": 20819818, "name": "Guupp", "participants": [{"id": 19159028, "gamerTag": "Guupp", "prefix": "", "user": null, "player": {"id": 4897050, "gamerTag": "Guupp", "prefix": "", "user": null}}]}}, {"id": 35922894, "seedNum": 29, "entrant": {"id": 20819861, "name": "buffer1", "participants": [{"id": 19159071, "gamerTag": "buffer1", "prefix": "", "user": null, "player": {"id": 4042082, "gamerTag": "buffer1", "prefix": "", "user": null}}]}}]}}}