{"phase": {"seeds": {"pageInfo": {"totalPages": 1, "total": 12}, "nodes": [{"id": 36229126, "seedNum": 2, "entrant": {"id": 21007807, "name": "Newt Man", "participants": [{"id": 19322056, "gamerTag": "Newt Man", "prefix": "", "user": {"location": {"city": null, "state": null, "country": "United States"}}, "player": {"id": 4726806, "gamerTag": "Newt Man", "prefix": "", "user": {"location": {"city": null, "state": null, "country": "United States"}}}}]}}, {"id": 36229125, "seedNum": 1, "entrant": {"id": 21007805, "name": "KHW | Frumps", "participants": [{"id": 19321519, "gamerTag": "Frumps", "prefix": "KHW", "user": {"location": {"city": "Greenville", "state": "SC", "country": "United States"}}, "player": {"id": 2844590, "gamerTag": "Frumps", "prefix": "KHW", "user": {"location": {"city": "Greenville", "state": "SC", "country": "United States"}}}}]}}, {"id": 36229115, "seedNum": 12, "entrant": {"id": 21007795, "name": "kablooey", "participants": [{"id": 19306002, "gamerTag": "kablooey", "prefix": "", "user": {"location": {"city": "Peachtree City", "state": "GA", "country": "United States"}}, "player": {"id": 220299, "gamerTag": "kablooey", "prefix": "milk", "user": {"location": {"city": "Peachtree City", "state": "GA", "country": "United States"}}}}]}}, {"id": 36228889, "seedNum": 4, "entrant": {"id": 21007638, "name": "Permafrost", "participants": [{"id": 19318727, "gamerTag": "Permafrost", "prefix": "", "user": {"location": {"city": "Atlanta", "state": "GA", "country": "United States"}}, "player": {"id": 1256898, "gamerTag": "Permafrost", "prefix": "", "user": {"location": {"city": "Atlanta", "state": "GA", "country": "United States"}}}}]}}, {"id": 36229053, "seedNum": 3, "entrant": {"id": 21007747, "name": "STEEZY", "participants": [{"id": 19324693, "gamerTag": "STEEZY", "prefix": null, "user": {"location": {"city": "HELL", "state": "GA", "country": "United States"}}, "player": {"id": 2496238, "gamerTag": "STEEZY", "prefix": null, "user": {"location": {"city": "HELL", "state": "GA", "country": "United States"}}}}]}}, {"id": 36228883, "seedNum": 5, "entrant": {"id": 21007632, "name": "BigSleep", "participants": [{"id": 19322893, "gamerTag": "BigSleep", "prefix": null, "user": {"location": {"city": null, "state": "GA", "country": "United States"}}, "player": {"id": 3638029, "gamerTag": "BigSleep", "prefix": null, "user": {"location": {"city": null, "state": "GA", "country": "United States"}}}}]}}, {"id": 36228955, "seedNum": 6, "entrant": {"id": 21007704, "name": "Captain Fauci | pwyezl", "participants": [{"id": 19322940, "gamerTag": "pwyezl", "prefix": "Captain Fauci", "user": {"location": {"city": "Alpharetta", "state": "GA", "country": "United States"}}, "player": {"id": 4929686, "gamerTag": "pwyezl", "prefix": null, "user": {"location": {"city": "Alpharetta", "state": "GA", "country": "United States"}}}}]}}, {"id": 36229104, "seedNum": 9, "entrant": {"id": 21007784, "name": "TPS | $CAIT", "participants": [{"id": 19319318, "gamerTag": "$CAIT", "prefix": "TPS", "user": {"location": {"city": "Acworth", "state": "GA", "country": "United States"}}, "player": {"id": 3422494, "gamerTag": "$CAITLIN", "prefix": "TPS", "user": {"location": {"city": "Acworth", "state": "GA", "country": "United States"}}}}]}}, {"id": 36228884, "seedNum": 7, "entrant": {"id": 21007633, "name": "June!", "participants": [{"id": 19320632, "gamerTag": "June!", "prefix": null, "user": {"location": {"city": null, "state": "GA", "country": "United States"}}, "player": {"id": 1969803, "gamerTag": "June!", "prefix": null, "user": {"location": {"city": null, "state": "GA", "country": "United States"}}}}]}}, {"id": 36228846, "seedNum": 8, "entrant": {"id": 21007597, "name": "juug", "participants": [{"id": 19325022, "gamerTag": "juug", "prefix": "", "user": {"location": {"city": null, "state": "GA", "country": "United States"}}, "player": {"id": 4770959, "gamerTag": "juug", "prefix": "", "user": {"location": {"city": null, "state": "GA", "country": "United States"}}}}]}}, {"id": 36228847, "seedNum": 10, "entrant": {"id": 21007599, "name": "Siwoo", "participants": [{"id": 19325024, "gamerTag": "Siwoo", "prefix": "", "user": {"location": {"city": null, "state": "GA", "country": "United States"}}, "player": {"id": 4851678, "gamerTag": "Siwoo", "prefix": "", "user": {"location": {"city": null, "state": "GA", "country": "United States"}}}}]}}, {"id": 36228856, "seedNum": 11, "entrant": {"id": 21007607, "name": "DKMinii", "participants": [{"id": 19324734, "gamerTag": "DKMinii", "prefix": "", "user": {"location": {"city": null, "state": "GA", "country": "United States"}}, "player": {"id": 4961141, "gamerTag": "Minii", "prefix": null, "user": {"location": {"city": null, "state": "GA", "country": "United States"}}}}]}}]}}}