{"event": {"sets": {"pageInfo": {"totalPages": 2, "total": 25}, "nodes": [{"id": 93804871, "state": 3, "round": 1, "fullRoundText": "Winners Round 1", "completedAt": 1757730313, "winnerId": 21251516, "slots": [{"id": "93804871-0", "entrant": {"id": 21251516, "name": "Raury", "participants": [{"id": 19537126, "gamerTag": "Raury", "prefix": "", "user": {"location": {"city": "Stone mountain", "state": null, "country": "United States"}}, "player": {"id": 3994062, "gamerTag": "Raury", "prefix": "", "user": {"location": {"city": "Stone mountain", "state": null, "country": "United States"}}}}]}, "standing": {"placement": 1, "stats": {"score": {"value": 2}}}}, {"id": "93804871-1", "entrant": {"id": 21251507, "name": "BranchX", "participants": [{"id": 19540362, "gamerTag": "BranchX", "prefix": "", "user": null, "player": {"id": 4973165, "gamerTag": "BranchX", "prefix": "", "user": null}}]}, "standing": {"placement": 2, "stats": {"score": {"value": 0}}}}], "games": null}, {"id": 93804873, "state": 3, "round": 1, "fullRoundText": "Winners Round 1", "completedAt": 1757730651, "winnerId": 21251646, "slots": [{"id": "93804873-0", "entrant": {"id": 21251646, "name": "Jahku$ha", "participants": [{"id": 19524820, "gamerTag": "Jahku$ha", "prefix": "", "user": {"location": {"city": "Atlanta", "state": "GA", "country": "United States"}}, "player": {"id": 4559746, "gamerTag": "Jahku$ha", "prefix": "", "user": {"location": {"city": "Atlanta", "state": "GA", "country": "United States"}}}}]}, "standing": {"placement": 1, "stats": {"score": {"value": 2}}}}, {"id": "93804873-1", "entrant": {"id": 21251706, "name": "SOSOSOFAST", "participants": [{"id": 19542582, "gamerTag": "SOSOSOFAST", "prefix": "", "user": null, "player": {"id": 4973668, "gamerTag": "SOSOSOFAST", "prefix": "", "user": null}}]}, "standing": {"placement": 2, "stats": {"score": {"value": 0}}}}], "games": null}, {"id": 93804904, "state": 1, "round": -4, "fullRoundText": "Losers Round 2", "completedAt": null, "winnerId": null, "slots": [{"id": "93804904-0", "entrant": {"id": 21251516, "name": "Raury", "participants": [{"id": 19537126, "gamerTag": "Raury", "prefix": "", "user": {"location": {"city": "Stone mountain", "state": null, "country": "United States"}}, "player": {"id": 3994062, "gamerTag": "Raury", "prefix": "", "user": {"location": {"city": "Stone mountain", "state": null, "country": "United States"}}}}]}, "standing": {"placement": 2, "stats": {"score": {"value": null}}}}, {"id": "93804904-1", "entrant": {"id": 21251707, "name": "SOMETHINREALLYEMBARASING", "participants": [{"id": 19542583, "gamerTag": "SOMETHINREALLYEMBARASING", "prefix": "", "user": null, "player": {"id": 4973669, "gamerTag": "SOMETHINREALLYEMBARASING", "prefix": "", "user": null}}]}, "standing": {"placement": 2, "stats": {"score": {"value": null}}}}], "games": null}, {"id": 93804907, "state": 1, "round": -5, "fullRoundText": "Losers Round 3", "completedAt": null, "winnerId": null, "slots": [{"id": "93804907-0", "entrant": {"id": 21251646, "name": "Jahku$ha", "participants": [{"id": 19524820, "gamerTag": "Jahku$ha", "prefix": "", "user": {"location": {"city": "Atlanta", "state": "GA", "country": "United States"}}, "player": {"id": 4559746, "gamerTag": "Jahku$ha", "prefix": "", "user": {"location": {"city": "Atlanta", "state": "GA", "country": "United States"}}}}]}, "standing": {"placement": 2, "stats": {"score": {"value": null}}}}, {"id": "93804907-1", "entrant": null, "standing": null}], "games": null}, {"id": 93804909, "state": 1, "round": -6, "fullRoundText": "Losers Quarter-Final", "completedAt": null, "winnerId": null, "slots": [{"id": "93804909-0", "entrant": {"id": 21251649, "name": "WFF | Happy", "participants": [{"id": 19539452, "gamerTag": "Happy", "prefix": "WFF", "user": {"location": {"city": "Peachtree CIty", "state": "GA", "country": "United States"}}, "player": {"id": 1383907, "gamerTag": "Happy", "prefix": "WFF", "user": {"location": {"city": "Peachtree CIty", "state": "GA", "country": "United States"}}}}]}, "standing": {"placement": 2, "stats": {"score": {"value": null}}}}, {"id": "93804909-1", "entrant": null, "standing": null}], "games": null}, {"id": 93804911, "state": 1, "round": -7, "fullRoundText": "Losers Semi-Final", "completedAt": null, "winnerId": null, "slots": [{"id": "93804911-0", "entrant": null, "standing": null}, {"id": "93804911-1", "entrant": {"id": 21251622, "name": "RAMS | Aloe", "participants": [{"id": 19541049, "gamerTag": "Aloe", "prefix": "RAMS", "user": {"location": {"city": "Marietta", "state": "GA", "country": "United States"}}, "player": {"id": 456565, "gamerTag": "Aloe", "prefix": "RAMS", "user": {"location": {"city": "Marietta", "state": "GA", "country": "United States"}}}}]}, "standing": {"placement": 2, "stats": {"score": {"value": null}}}}], "games": null}, {"id": 93804912, "state": 1, "round": -8, "fullRoundText": "Losers Final", "completedAt": null, "winnerId": null, "slots": [{"id": "93804912-0", "entrant": null, "standing": null}, {"id": "93804912-1", "entrant": null, "standing": null}], "games": null}, {"id": 93804880, "state": 1, "round": 4, "fullRoundText": "Winners Final", "completedAt": null, "winnerId": null, "slots": [{"id": "93804880-0", "entrant": {"id": 21251712, "name": "SamRice", "participants": [{"id": 19536051, "gamerTag": "SamRice", "prefix": "", "user": {"location": {"city": "Norcross", "state": "GA", "country": "United States"}}, "player": {"id": 2387403, "gamerTag": "SamRice", "prefix": "", "user": {"location": {"city": "Norcross", "state": "GA", "country": "United States"}}}}]}, "standing": {"placement": 2, "stats": {"score": {"value": null}}}}, {"id": "93804880-1", "entrant": {"id": 21251501, "name": "WeFarmFrank | Gorilla Glue", "participants": [{"id": 19541563, "gamerTag": "Gorilla Glue", "prefix": "WeFarmFrank", "user": {"location": {"city": "Atlanta", "state": "GA", "country": "United States"}}, "player": {"id": 1810274, "gamerTag": "Planet Of Da", "prefix": "WeFarmFrank", "user": {"location": {"city": "Atlanta", "state": "GA", "country": "United States"}}}}]}, "standing": {"placement": 2, "stats": {"score": {"value": null}}}}], "games": null}, {"id": 93804881, "state": 1, "round": 5, "fullRoundText": "Grand Final", "completedAt": null, "winnerId": null, "slots": [{"id": "93804881-0", "entrant": null, "standing": null}, {"id": "93804881-1", "entrant": null, "standing": null}], "games": null}, {"id": 93804882, "state": 1, "round": 5, "fullRoundText": "Grand Final Reset", "completedAt": null, "winnerId": null, "slots": [{"id": "93804882-0", "entrant": null, "standing": null}, {"id": "93804882-1", "entrant": null, "standing": null}], "games": null}]}}}