{"phase": {"seeds": {"pageInfo": {"totalPages": 1, "total": 15}, "nodes": [{"id": 36128520, "seedNum": 2, "entrant": {"id": 20947802, "name": "swaggerbee", "participants": [{"id": 19272628, "gamerTag": "swaggerbee", "prefix": "", "user": {"location": {"city": "Atlanta", "state": "GA", "country": "United States"}}, "player": {"id": 1687384, "gamerTag": "swaggerbee", "prefix": "", "user": {"location": {"city": "Atlanta", "state": "GA", "country": "United States"}}}}]}}, {"id": 36143551, "seedNum": 1, "entrant": {"id": 20959292, "name": "vivesthesia", "participants": [{"id": 19282378, "gamerTag": "vivesthesia", "prefix": null, "user": {"location": {"city": "Atlanta", "state": "GA", "country": "United States"}}, "player": {"id": 4395171, "gamerTag": "vivesthesia", "prefix": null, "user": {"location": {"city": "Atlanta", "state": "GA", "country": "United States"}}}}]}}, {"id": 36142632, "seedNum": 3, "entrant": {"id": 20958561, "name": "audrey", "participants": [{"id": 19281764, "gamerTag": "audrey", "prefix": null, "user": {"location": {"city": "Dunwoody", "state": "GA", "country": "United States"}}, "player": {"id": 1335864, "gamerTag": "audrey", "prefix": null, "user": {"location": {"city": "Dunwoody", "state": "GA", "country": "United States"}}}}]}}, {"id": 36165190, "seedNum": 4, "entrant": {"id": 20971853, "name": "skyguy | bag", "participants": [{"id": 19293396, "gamerTag": "bag", "prefix": "skyguy", "user": {"location": {"city": "Atlanta", "state": "GA", "country": "United States"}}, "player": {"id": 271346, "gamerTag": "bag", "prefix": "skyguy", "user": {"location": {"city": "Atlanta", "state": "GA", "country": "United States"}}}}]}}, {"id": 36131080, "seedNum": 5, "entrant": {"id": 20949797, "name": "Monolithic", "participants": [{"id": 19274283, "gamerTag": "Monolithic", "prefix": "", "user": {"location": {"city": "", "state": "GA", "country": "United States"}}, "player": {"id": 1926775, "gamerTag": "Monolithic", "prefix": "", "user": {"location": {"city": "", "state": "GA", "country": "United States"}}}}]}}, {"id": 36162988, "seedNum": 6, "entrant": {"id": 20970428, "name": "Joseph", "participants": [{"id": 19292108, "gamerTag": "Joseph", "prefix": "", "user": {"location": {"city": "", "state": "AL", "country": "United States"}}, "player": {"id": 22422, "gamerTag": "Joseph", "prefix": "", "user": {"location": {"city": "", "state": "AL", "country": "United States"}}}}]}}, {"id": 36149953, "seedNum": 7, "entrant": {"id": 20963542, "name": "tomguy", "participants": [{"id": 19286019, "gamerTag": "tomguy", "prefix": "", "user": {"location": {"city": "Atlanta", "state": "GA", "country": "United States"}}, "player": {"id": 147458, "gamerTag": "tomguy", "prefix": "", "user": {"location": {"city": "Atlanta", "state": "GA", "country": "United States"}}}}]}}, {"id": 36160301, "seedNum": 11, "entrant": {"id": 20969566, "name": "noided", "participants": [{"id": 19291318, "gamerTag": "noided", "prefix": "", "user": {"location": {"city": "Atlanta", "state": "GA", "country": "United States"}}, "player": {"id": 2586521, "gamerTag": "noided", "prefix": "", "user": {"location": {"city": "Atlanta", "state": "GA", "country": "United States"}}}}]}}, {"id": 36128581, "seedNum": 8, "entrant": {"id": 20947847, "name": "Kingpoyothefirst", "participants": [{"id": 19272666, "gamerTag": "Kingpoyothefirst", "prefix": null, "user": {"location": {"city": null, "state": null, "country": null}}, "player": {"id": 2934299, "gamerTag": "Kingpoyothefirst", "prefix": "DD", "user": {"location": {"city": null, "state": null, "country": null}}}}]}}, {"id": 36148633, "seedNum": 9, "entrant": {"id": 20962985, "name": "Mac Piller", "participants": [{"id": 19285565, "gamerTag": "Mac Piller", "prefix": null, "user": {"location": {"city": "Auburn", "state": "AL", "country": "United States"}}, "player": {"id": 2363610, "gamerTag": "soup time", "prefix": null, "user": {"location": {"city": "Auburn", "state": "AL", "country": "United States"}}}}]}}, {"id": 36113934, "seedNum": 10, "entrant": {"id": 20938824, "name": "Tech Chase | braxton", "participants": [{"id": 19264635, "gamerTag": "braxton", "prefix": "Tech Chase", "user": {"location": {"city": "Atlanta", "state": "GA", "country": "United States"}}, "player": {"id": 1037821, "gamerTag": "braxton", "prefix": "The Hive", "user": {"location": {"city": "Atlanta", "state": "GA", "country": "United States"}}}}]}}, {"id": 36150196, "seedNum": 13, "entrant": {"id": 20963705, "name": "Juan J. Steven's", "participants": [{"id": 19286131, "gamerTag": "Juan J. Steven's", "prefix": null, "user": {"location": {"city": "atlanta", "state": "GA", "country": "United States"}}, "player": {"id": 3318064, "gamerTag": "Guts", "prefix": "\u72a0\u7272\u306e\u70d9\u5370", "user": {"location": {"city": "atlanta", "state": "GA", "country": "United States"}}}}]}}, {"id": 36159550, "seedNum": 12, "entrant": {"id": 20969130, "name": "Notahorse", "participants": [{"id": 19290885, "gamerTag": "Notahorse", "prefix": "", "user": {"location": {"city": null, "state": null, "country": "United States"}}, "player": {"id": 3971116, "gamerTag": "Notahorse", "prefix": "", "user": {"location": {"city": null, "state": null, "country": "United States"}}}}]}}, {"id": 36135977, "seedNum": 14, "entrant": {"id": 20953520, "name": "afterimage", "participants": [{"id": 19277568, "gamerTag": "afterimage", "prefix": "", "user": {"location": {"city": "Atlanta", "state": "GA", "country": "United States"}}, "player": {"id": 4435133, "gamerTag": "popsicle", "prefix": "", "user": {"location": {"city": "Atlanta", "state": "GA", "country": "United States"}}}}]}}, {"id": 36136368, "seedNum": 15, "entrant": {"id": 20953839, "name": "TPS | $CAIT", "participants": [{"id": 19277842, "gamerTag": "$CAIT", "prefix": "TPS", "user": {"location": {"city": "Kennesaw", "state": "GA", "country": "United States"}}, "player": {"id": 3422494, "gamerTag": "$CAITLIN", "prefix": "TPS", "user": {"location": {"city": "Kennesaw", "state": "GA", "country": "United States"}}}}]}}]}}}