{"event": {"sets": {"pageInfo": {"totalPages": 2, "total": 30}, "nodes": [{"id": 94481446, "state": 3, "round": -4, "fullRoundText": "Losers Round 2", "completedAt": 1759105154, "winnerId": 21407923, "slots": [{"id": "94481446-0", "entrant": {"id": 21407923, "name": "RM | WFF | Sakruoi", "participants": [{"id": 19677416, "gamerTag": "Sakruoi", "prefix": "RM | WFF", "user": {"location": {"city": "atlanta", "state": "GA", "country": "United States"}}, "player": {"id": 1230555, "gamerTag": "Sakruoi", "prefix": "RM | WFF", "user": {"location": {"city": "atlanta", "state": "GA", "country": "United States"}}}}]}, "standing": {"placement": 1, "stats": {"score": {"value": 2}}}}, {"id": "94481446-1", "entrant": {"id": 21406778, "name": "MTM | X", "participants": [{"id": 19676391, "gamerTag": "X", "prefix": "MTM", "user": {"location": {"city": "Sandy Springs", "state": "GA", "country": "United States"}}, "player": {"id": 2650387, "gamerTag": "X", "prefix": "MTM", "user": {"location": {"city": "Sandy Springs", "state": "GA", "country": "United States"}}}}]}, "standing": {"placement": 2, "stats": {"score": {"value": 0}}}}], "games": null}, {"id": 94481447, "state": 3, "round": -4, "fullRoundText": "Losers Round 2", "completedAt": 1759105277, "winnerId": 21406812, "slots": [{"id": "94481447-0", "entrant": {"id": 21406812, "name": "TFT | Juug$tarr", "participants": [{"id": 19676428, "gamerTag": "Juug$tarr", "prefix": "TFT", "user": {"location": {"city": "Atlanta", "state": "GA", "country": "United States"}}, "player": {"id": 3621035, "gamerTag": "Juug$tarr", "prefix": "TFT", "user": {"location": {"city": "Atlanta", "state": "GA", "country": "United States"}}}}]}, "standing": {"placement": 1, "stats": {"score": {"value": 2}}}}, {"id": "94481447-1", "entrant": {"id": 21365773, "name": "MTM | Bob Weiner", "participants": [{"id": 19640834, "gamerTag": "Bob Weiner", "prefix": "MTM", "user": {"location": {"city": "Kennesaw", "state": "GA", "country": "United States"}}, "player": {"id": 2142601, "gamerTag": "Bob Weiner", "prefix": "MTM", "user": {"location": {"city": "Kennesaw", "state": "GA", "country": "United States"}}}}]}, "standing": {"placement": 2, "stats": {"score": {"value": 1}}}}], "games": null}, {"id": 94481448, "state": 3, "round": -4, "fullRoundText": "Losers Round 2", "completedAt": 1759108151, "winnerId": 21365128, "slots": [{"id": "94481448-0", "entrant": {"id": 21365128, "name": "TFT/ WFF2 | Ricky Rudd", "participants": [{"id": 19640308, "gamerTag": "Ricky Rudd", "prefix": "TFT/ WFF2", "user": {"location": {"city": "Atlanta", "state": "GA", "country": "United States"}}, "player": {"id": 1751817, "gamerTag": "Ricky Rudd", "prefix": "TFT", "user": {"location": {"city": "Atlanta", "state": "GA", "country": "United States"}}}}]}, "standing": {"placement": 1, "stats": {"score": {"value": 2}}}}, {"id": "94481448-1", "entrant": {"id": 21407112, "name": "Jahku$ha", "participants": [{"id": 19676692, "gamerTag": "Jahku$ha", "prefix": "", "user": {"location": {"city": "Atlanta", "state": "GA", "country": "United States"}}, "player": {"id": 4559746, "gamerTag": "Jahku$ha", "prefix": "", "user": {"location": {"city": "Atlanta", "state": "GA", "country": "United States"}}}}]}, "standing": {"placement": 2, "stats": {"score": {"value": 1}}}}], "games": null}, {"id": 94481441, "state": 3, "round": -3, "fullRoundText": "Losers Round 1", "completedAt": 1759103931, "winnerId": 21409291, "slots": [{"id": "94481441-0", "entrant": {"id": 21167284, "name": "LordPapistik", "participants": [{"id": 19468273, "gamerTag": "LordPapistik", "prefix": "", "user": {"location": {"city": "Covington", "state": "GA", "country": "United States"}}, "player": {"id": 4957211, "gamerTag": "LordPapistik", "prefix": "", "user": {"location": {"city": "Covington", "state": "GA", "country": "United States"}}}}]}, "standing": {"placement": 2, "stats": {"score": {"value": -1}}}}, {"id": "94481441-1", "entrant": {"id": 21409291, "name": "Tilted", "participants": [{"id": 19678657, "gamerTag": "Tilted", "prefix": null, "user": {"location": {"city": "Norcross", "state": "GA", "country": "United States"}}, "player": {"id": 2377635, "gamerTag": "Tilted", "prefix": null, "user": {"location": {"city": "Norcross", "state": "GA", "country": "United States"}}}}]}, "standing": {"placement": 1, "stats": {"score": {"value": 0}}}}], "games": null}, {"id": 94481442, "state": 3, "round": -3, "fullRoundText": "Losers Round 1", "completedAt": 1759104136, "winnerId": 21406778, "slots": [{"id": "94481442-0", "entrant": {"id": 21409451, "name": "TnT | annamation", "participants": [{"id": 19678818, "gamerTag": "annamation", "prefix": "TnT", "user": {"location": {"city": "Atlanta", "state": "GA", "country": "United States"}}, "player": {"id": 1699369, "gamerTag": "annamation", "prefix": "TnT", "user": {"location": {"city": "Atlanta", "state": "GA", "country": "United States"}}}}]}, "standing": {"placement": 2, "stats": {"score": {"value": 0}}}}, {"id": "94481442-1", "entrant": {"id": 21406778, "name": "MTM | X", "participants": [{"id": 19676391, "gamerTag": "X", "prefix": "MTM", "user": {"location": {"city": "Sandy Springs", "state": "GA", "country": "United States"}}, "player": {"id": 2650387, "gamerTag": "X", "prefix": "MTM", "user": {"location": {"city": "Sandy Springs", "state": "GA", "country": "United States"}}}}]}, "standing": {"placement": 1, "stats": {"score": {"value": 2}}}}], "games": null}, {"id": 94481443, "state": 3, "round": -3, "fullRoundText": "Losers Round 1", "completedAt": 1759104530, "winnerId": 21365773, "slots": [{"id": "94481443-0", "entrant": {"id": 21407468, "name": "Skittles", "participants": [{"id": 19677021, "gamerTag": "Skittles", "prefix": null, "user": {"location": {"city": "Marietta", "state": "GA", "country": "United States"}}, "player": {"id": 136086, "gamerTag": "Skittles", "prefix": null, "user": {"location": {"city": "Marietta", "state": "GA", "country": "United States"}}}}]}, "standing": {"placement": 2, "stats": {"score": {"value": 0}}}}, {"id": "94481443-1", "entrant": {"id": 21365773, "name": "MTM | Bob Weiner", "participants": [{"id": 19640834, "gamerTag": "Bob Weiner", "prefix": "MTM", "user": {"location": {"city": "Kennesaw", "state": "GA", "country": "United States"}}, "player": {"id": 2142601, "gamerTag": "Bob Weiner", "prefix": "MTM", "user": {"location": {"city": "Kennesaw", "state": "GA", "country": "United States"}}}}]}, "standing": {"placement": 1, "stats": {"score": {"value": 2}}}}], "games": null}, {"id": 94481444, "state": 3, "round": -3, "fullRoundText": "Losers Round 1", "completedAt": 1759106484, "winnerId": 21407112, "slots": [{"id": "94481444-0", "entrant": {"id": 21406805, "name": "Nintenbro", "participants": [{"id": 19676423, "gamerTag": "Nintenbro", "prefix": "", "user": {"location": {"city": "Decatur", "state": "GA", "country": "United States"}}, "player": {"id": 3887973, "gamerTag": "Nintenbro", "prefix": "", "user": {"location": {"city": "Decatur", "state": "GA", "country": "United States"}}}}]}, "standing": {"placement": 2, "stats": {"score": {"value": 1}}}}, {"id": "94481444-1", "entrant": {"id": 21407112, "name": "Jahku$ha", "participants": [{"id": 19676692, "gamerTag": "Jahku$ha", "prefix": "", "user": {"location": {"city": "Atlanta", "state": "GA", "country": "United States"}}, "player": {"id": 4559746, "gamerTag": "Jahku$ha", "prefix": "", "user": {"location": {"city": "Atlanta", "state": "GA", "country": "United States"}}}}]}, "standing": {"placement": 1, "stats": {"score": {"value": 2}}}}], "games": null}, {"id": 94481408, "state": 3, "round": 1, "fullRoundText": "Winners Round 1", "completedAt": 1759101871, "winnerId": 21365770, "slots": [{"id": "94481408-0", "entrant": {"id": 21365770, "name": "TFT | ALLEYCAT", "participants": [{"id": 19640831, "gamerTag": "ALLEYCAT", "prefix": "TFT", "user": {"location": {"city": "Atlanta", "state": "GA", "country": "United States"}}, "player": {"id": 1940654, "gamerTag": "ALLEYCAT", "prefix": "TFT", "user": {"location": {"city": "Atlanta", "state": "GA", "country": "United States"}}}}]}, "standing": {"placement": 1, "stats": {"score": {"value": 2}}}}, {"id": "94481408-1", "entrant": {"id": 21167284, "name": "LordPapistik", "participants": [{"id": 19468273, "gamerTag": "LordPapistik", "prefix": "", "user": {"location": {"city": "Covington", "state": "GA", "country": "United States"}}, "player": {"id": 4957211, "gamerTag": "LordPapistik", "prefix": "", "user": {"location": {"city": "Covington", "state": "GA", "country": "United States"}}}}]}, "standing": {"placement": 2, "stats": {"score": {"value": -1}}}}], "games": null}, {"id": 94481409, "state": 3, "round": 1, "fullRoundText": "Winners Round 1", "completedAt": 1759103909, "winnerId": 21365128, "slots": [{"id": "94481409-0", "entrant": {"id": 21365128, "name": "TFT/ WFF2 | Ricky Rudd", "participants": [{"id": 19640308, "gamerTag": "Ricky Rudd", "prefix": "TFT/ WFF2", "user": {"location": {"city": "Atlanta", "state": "GA", "country": "United States"}}, "player": {"id": 1751817, "gamerTag": "Ricky Rudd", "prefix": "TFT", "user": {"location": {"city": "Atlanta", "state": "GA", "country": "United States"}}}}]}, "standing": {"placement": 1, "stats": {"score": {"value": 2}}}}, {"id": "94481409-1", "entrant": {"id": 21409291, "name": "Tilted", "participants": [{"id": 19678657, "gamerTag": "Tilted", "prefix": null, "user": {"location": {"city": "Norcross", "state": "GA", "country": "United States"}}, "player": {"id": 2377635, "gamerTag": "Tilted", "prefix": null, "user": {"location": {"city": "Norcross", "state": "GA", "country": "United States"}}}}]}, "standing": {"placement": 2, "stats": {"score": {"value": 1}}}}], "games": null}, {"id": 94481410, "state": 3, "round": 1, "fullRoundText": "Winners Round 1", "completedAt": 1759102929, "winnerId": 21409307, "slots": [{"id": "94481410-0", "entrant": {"id": 21409307, "name": "RAMS | Bragmuffin", "participants": [{"id": 19678672, "gamerTag": "Bragmuffin", "prefix": "RAMS", "user": {"location": {"city": "Alpharetta", "state": "GA", "country": "United States"}}, "player": {"id": 2354073, "gamerTag": "Bragmuffin", "prefix": "RAMS", "user": {"location": {"city": "Alpharetta", "state": "GA", "country": "United States"}}}}]}, "standing": {"placement": 1, "stats": {"score": {"value": 2}}}}, {"id": "94481410-1", "entrant": {"id": 21409451, "name": "TnT | annamation", "participants": [{"id": 19678818, "gamerTag": "annamation", "prefix": "TnT", "user": {"location": {"city": "Atlanta", "state": "GA", "country": "United States"}}, "player": {"id": 1699369, "gamerTag": "annamation", "prefix": "TnT", "user": {"location": {"city": "Atlanta", "state": "GA", "country": "United States"}}}}]}, "standing": {"placement": 2, "stats": {"score": {"value": 0}}}}], "games": null}, {"id": 94481411, "state": 3, "round": 1, "fullRoundText": "Winners Round 1", "completedAt": 1759101526, "winnerId": 21406812, "slots": [{"id": "94481411-0", "entrant": {"id": 21406812, "name": "TFT | Juug$tarr", "participants": [{"id": 19676428, "gamerTag": "Juug$tarr", "prefix": "TFT", "user": {"location": {"city": "Atlanta", "state": "GA", "country": "United States"}}, "player": {"id": 3621035, "gamerTag": "Juug$tarr", "prefix": "TFT", "user": {"location": {"city": "Atlanta", "state": "GA", "country": "United States"}}}}]}, "standing": {"placement": 1, "stats": {"score": {"value": 2}}}}, {"id": "94481411-1", "entrant": {"id": 21406778, "name": "MTM | X", "participants": [{"id": 19676391, "gamerTag": "X", "prefix": "MTM", "user": {"location": {"city": "Sandy Springs", "state": "GA", "country": "United States"}}, "player": {"id": 2650387, "gamerTag": "X", "prefix": "MTM", "user": {"location": {"city": "Sandy Springs", "state": "GA", "country": "United States"}}}}]}, "standing": {"placement": 2, "stats": {"score": {"value": 0}}}}], "games": null}, {"id": 94481412, "state": 3, "round": 1, "fullRoundText": "Winners Round 1", "completedAt": 1759102544, "winnerId": 21407923, "slots": [{"id": "94481412-0", "entrant": {"id": 21407923, "name": "RM | WFF | Sakruoi", "participants": [{"id": 19677416, "gamerTag": "Sakruoi", "prefix": "RM | WFF", "user": {"location": {"city": "atlanta", "state": "GA", "country": "United States"}}, "player": {"id": 1230555, "gamerTag": "Sakruoi", "prefix": "RM | WFF", "user": {"location": {"city": "atlanta", "state": "GA", "country": "United States"}}}}]}, "standing": {"placement": 1, "stats": {"score": {"value": 2}}}}, {"id": "94481412-1", "entrant": {"id": 21407468, "name": "Skittles", "participants": [{"id": 19677021, "gamerTag": "Skittles", "prefix": null, "user": {"location": {"city": "Marietta", "state": "GA", "country": "United States"}}, "player": {"id": 136086, "gamerTag": "Skittles", "prefix": null, "user": {"location": {"city": "Marietta", "state": "GA", "country": "United States"}}}}]}, "standing": {"placement": 2, "stats": {"score": {"value": 0}}}}], "games": null}, {"id": 94481413, "state": 3, "round": 1, "fullRoundText": "Winners Round 1", "completedAt": 1759103594, "winnerId": 21409303, "slots": [{"id": "94481413-0", "entrant": {"id": 21365773, "name": "MTM | Bob Weiner", "participants": [{"id": 19640834, "gamerTag": "Bob Weiner", "prefix": "MTM", "user": {"location": {"city": "Kennesaw", "state": "GA", "country": "United States"}}, "player": {"id": 2142601, "gamerTag": "Bob Weiner", "prefix": "MTM", "user": {"location": {"city": "Kennesaw", "state": "GA", "country": "United States"}}}}]}, "standing": {"placement": 2, "stats": {"score": {"value": 1}}}}, {"id": "94481413-1", "entrant": {"id": 21409303, "name": "RAMS | XL Dukie AF", "participants": [{"id": 19678668, "gamerTag": "XL Dukie AF", "prefix": "RAMS", "user": {"location": {"city": "Peachtree Corners", "state": "GA", "country": "United States"}}, "player": {"id": 2374690, "gamerTag": "XL Dukie AF", "prefix": "RAMS", "user": {"location": {"city": "Peachtree Corners", "state": "GA", "country": "United States"}}}}]}, "standing": {"placement": 1, "stats": {"score": {"value": 2}}}}], "games": null}, {"id": 94481414, "state": 3, "round": 1, "fullRoundText": "Winners Round 1", "completedAt": 1759103415, "winnerId": 21406717, "slots": [{"id": "94481414-0", "entrant": {"id": 21406717, "name": "TFT | im so ugly", "participants": [{"id": 19676331, "gamerTag": "im so ugly", "prefix": "TFT", "user": {"location": {"city": "Calhoun", "state": "GA", "country": "United States"}}, "player": {"id": 2241471, "gamerTag": "lil munch", "prefix": "TFT", "user": {"location": {"city": "Calhoun", "state": "GA", "country": "United States"}}}}]}, "standing": {"placement": 1, "stats": {"score": {"value": 2}}}}, {"id": "94481414-1", "entrant": {"id": 21406805, "name": "Nintenbro", "participants": [{"id": 19676423, "gamerTag": "Nintenbro", "prefix": "", "user": {"location": {"city": "Decatur", "state": "GA", "country": "United States"}}, "player": {"id": 3887973, "gamerTag": "Nintenbro", "prefix": "", "user": {"location": {"city": "Decatur", "state": "GA", "country": "United States"}}}}]}, "standing": {"placement": 2, "stats": {"score": {"value": 0}}}}], "games": null}, {"id": 94481415, "state": 3, "round": 1, "fullRoundText": "Winners Round 1", "completedAt": 1759105255, "winnerId": 21407629, "slots": [{"id": "94481415-0", "entrant": {"id": 21407629, "name": "Nurikami", "participants": [{"id": 19677158, "gamerTag": "Nurikami", "prefix": null, "user": {"location": {"city": "Sandy Springs", "state": "GA", "country": "United States"}}, "player": {"id": 2894467, "gamerTag": "Nurikami", "prefix": null, "user": {"location": {"city": "Sandy Springs", "state": "GA", "country": "United States"}}}}]}, "standing": {"placement": 1, "stats": {"score": {"value": 2}}}}, {"id": "94481415-1", "entrant": {"id": 21407112, "name": "Jahku$ha", "participants": [{"id": 19676692, "gamerTag": "Jahku$ha", "prefix": "", "user": {"location": {"city": "Atlanta", "state": "GA", "country": "United States"}}, "player": {"id": 4559746, "gamerTag": "Jahku$ha", "prefix": "", "user": {"location": {"city": "Atlanta", "state": "GA", "country": "United States"}}}}]}, "standing": {"placement": 2, "stats": {"score": {"value": 1}}}}], "games": null}]}}}