{"event": {"sets": {"pageInfo": {"totalPages": 4, "total": 50}, "nodes": [{"id": 93125700, "state": 3, "round": -6, "fullRoundText": "Losers Round 4", "completedAt": 1756258433, "winnerId": 21082057, "slots": [{"id": "93125700-0", "entrant": {"id": 21082057, "name": "Burboovas", "participants": [{"id": 19392439, "gamerTag": "Burboovas", "prefix": null, "user": {"location": {"city": null, "state": null, "country": null}}, "player": {"id": 3927191, "gamerTag": "Burboovas", "prefix": null, "user": {"location": {"city": null, "state": null, "country": null}}}}]}, "standing": {"placement": 1, "stats": {"score": {"value": 3}}}}, {"id": "93125700-1", "entrant": {"id": 21083672, "name": "Archway", "participants": [{"id": 19393885, "gamerTag": "Archway", "prefix": "", "user": {"location": {"city": "Sandy Springs", "state": "GA", "country": "United States"}}, "player": {"id": 1435251, "gamerTag": "Archway", "prefix": "", "user": {"location": {"city": "Sandy Springs", "state": "GA", "country": "United States"}}}}]}, "standing": {"placement": 2, "stats": {"score": {"value": 2}}}}], "games": null}, {"id": 93125701, "state": 3, "round": -6, "fullRoundText": "Losers Round 4", "completedAt": 1756257711, "winnerId": 21083544, "slots": [{"id": "93125701-0", "entrant": {"id": 21083544, "name": "JKong", "participants": [{"id": 19393759, "gamerTag": "JKong", "prefix": null, "user": {"location": {"city": "Riverdale", "state": "GA", "country": "United States"}}, "player": {"id": 3515833, "gamerTag": "JKong", "prefix": null, "user": {"location": {"city": "Riverdale", "state": "GA", "country": "United States"}}}}]}, "standing": {"placement": 1, "stats": {"score": {"value": 3}}}}, {"id": "93125701-1", "entrant": {"id": 21083698, "name": "LukeWarm", "participants": [{"id": 19393908, "gamerTag": "LukeWarm", "prefix": "", "user": {"location": {"city": "Alpharetta", "state": "GA", "country": "United States"}}, "player": {"id": 1348903, "gamerTag": "LukeWarm", "prefix": "", "user": {"location": {"city": "Alpharetta", "state": "GA", "country": "United States"}}}}]}, "standing": {"placement": 2, "stats": {"score": {"value": 1}}}}], "games": null}, {"id": 93125702, "state": 3, "round": -6, "fullRoundText": "Losers Round 4", "completedAt": 1756258086, "winnerId": 21083528, "slots": [{"id": "93125702-0", "entrant": {"id": 21083528, "name": "4o4 | Yugo", "participants": [{"id": 19393743, "gamerTag": "Yugo", "prefix": "4o4", "user": {"location": {"city": "Sandy springs", "state": "GA", "country": "United States"}}, "player": {"id": 338020, "gamerTag": "Yugo", "prefix": "4o4", "user": {"location": {"city": "Sandy springs", "state": "GA", "country": "United States"}}}}]}, "standing": {"placement": 1, "stats": {"score": {"value": 3}}}}, {"id": "93125702-1", "entrant": {"id": 21083822, "name": "Leon Nights", "participants": [{"id": 19394020, "gamerTag": "Leon Nights", "prefix": null, "user": {"location": {"city": "Atlanta", "state": "GA", "country": "United States"}}, "player": {"id": 4752335, "gamerTag": "Leon Nights", "prefix": null, "user": {"location": {"city": "Atlanta", "state": "GA", "country": "United States"}}}}]}, "standing": {"placement": 2, "stats": {"score": {"value": 1}}}}], "games": null}, {"id": 93125695, "state": 3, "round": -5, "fullRoundText": "Losers Round 3", "completedAt": 1756257213, "winnerId": 21082337, "slots": [{"id": "93125695-0", "entrant": {"id": 21083577, "name": "BOLT | KhalRhaego", "participants": [{"id": 19393791, "gamerTag": "KhalRhaego", "prefix": "BOLT", "user": {"location": {"city": "Jonesboro", "state": "GA", "country": "United States"}}, "player": {"id": 4076327, "gamerTag": "KhalRhaego", "prefix": "BOLT", "user": {"location": {"city": "Jonesboro", "state": "GA", "country": "United States"}}}}]}, "standing": {"placement": 2, "stats": {"score": {"value": 0}}}}, {"id": "93125695-1", "entrant": {"id": 21082337, "name": "Air | Airplanes", "participants": [{"id": 19392684, "gamerTag": "Airplanes", "prefix": "Air", "user": {"location": {"city": "Dacula", "state": "GA", "country": "United States"}}, "player": {"id": 3872614, "gamerTag": "Airplanes", "prefix": "Air", "user": {"location": {"city": "Dacula", "state": "GA", "country": "United States"}}}}]}, "standing": {"placement": 1, "stats": {"score": {"value": 3}}}}], "games": null}, {"id": 93125696, "state": 3, "round": -5, "fullRoundText": "Losers Round 3", "completedAt": 1756257445, "winnerId": 21083672, "slots": [{"id": "93125696-0", "entrant": {"id": 21083672, "name": "Archway", "participants": [{"id": 19393885, "gamerTag": "Archway", "prefix": "", "user": {"location": {"city": "Sandy Springs", "state": "GA", "country": "United States"}}, "player": {"id": 1435251, "gamerTag": "Archway", "prefix": "", "user": {"location": {"city": "Sandy Springs", "state": "GA", "country": "United States"}}}}]}, "standing": {"placement": 1, "stats": {"score": {"value": 3}}}}, {"id": "93125696-1", "entrant": {"id": 21083576, "name": "Xangief", "participants": [{"id": 19393790, "gamerTag": "Xangief", "prefix": null, "user": {"location": {"city": "Atlanta", "state": "GA", "country": "United States"}}, "player": {"id": 135082, "gamerTag": "Xangief", "prefix": null, "user": {"location": {"city": "Atlanta", "state": "GA", "country": "United States"}}}}]}, "standing": {"placement": 2, "stats": {"score": {"value": 2}}}}], "games": null}, {"id": 93125697, "state": 3, "round": -5, "fullRoundText": "Losers Round 3", "completedAt": 1756257071, "winnerId": 21083698, "slots": [{"id": "93125697-0", "entrant": {"id": 21083698, "name": "LukeWarm", "participants": [{"id": 19393908, "gamerTag": "LukeWarm", "prefix": "", "user": {"location": {"city": "Alpharetta", "state": "GA", "country": "United States"}}, "player": {"id": 1348903, "gamerTag": "LukeWarm", "prefix": "", "user": {"location": {"city": "Alpharetta", "state": "GA", "country": "United States"}}}}]}, "standing": {"placement": 1, "stats": {"score": {"value": 3}}}}, {"id": "93125697-1", "entrant": {"id": 21083877, "name": "stylesK", "participants": [{"id": 19394065, "gamerTag": "stylesK", "prefix": "", "user": {"location": {"city": "Sandy Springs", "state": "GA", "country": "United States"}}, "player": {"id": 3475419, "gamerTag": "stylesK", "prefix": "", "user": {"location": {"city": "Sandy Springs", "state": "GA", "country": "United States"}}}}]}, "standing": {"placement": 2, "stats": {"score": {"value": 0}}}}], "games": null}, {"id": 93125698, "state": 3, "round": -5, "fullRoundText": "Losers Round 3", "completedAt": 1756256959, "winnerId": 21083822, "slots": [{"id": "93125698-0", "entrant": {"id": 21083822, "name": "Leon Nights", "participants": [{"id": 19394020, "gamerTag": "Leon Nights", "prefix": null, "user": {"location": {"city": "Atlanta", "state": "GA", "country": "United States"}}, "player": {"id": 4752335, "gamerTag": "Leon Nights", "prefix": null, "user": {"location": {"city": "Atlanta", "state": "GA", "country": "United States"}}}}]}, "standing": {"placement": 1, "stats": {"score": {"value": 3}}}}, {"id": "93125698-1", "entrant": {"id": 21082887, "name": "C$", "participants": [{"id": 19393187, "gamerTag": "C$", "prefix": "", "user": {"location": {"city": "Stone mountain", "state": "GA", "country": "United States"}}, "player": {"id": 1532681, "gamerTag": "C$", "prefix": "", "user": {"location": {"city": "Stone mountain", "state": "GA", "country": "United States"}}}}]}, "standing": {"placement": 2, "stats": {"score": {"value": 0}}}}], "games": null}, {"id": 93125630, "state": 3, "round": 2, "fullRoundText": "Winners Round 2", "completedAt": 1756255469, "winnerId": 21082057, "slots": [{"id": "93125630-0", "entrant": {"id": 21082057, "name": "Burboovas", "participants": [{"id": 19392439, "gamerTag": "Burboovas", "prefix": null, "user": {"location": {"city": null, "state": null, "country": null}}, "player": {"id": 3927191, "gamerTag": "Burboovas", "prefix": null, "user": {"location": {"city": null, "state": null, "country": null}}}}]}, "standing": {"placement": 1, "stats": {"score": {"value": 3}}}}, {"id": "93125630-1", "entrant": {"id": 21082887, "name": "C$", "participants": [{"id": 19393187, "gamerTag": "C$", "prefix": "", "user": {"location": {"city": "Stone mountain", "state": "GA", "country": "United States"}}, "player": {"id": 1532681, "gamerTag": "C$", "prefix": "", "user": {"location": {"city": "Stone mountain", "state": "GA", "country": "United States"}}}}]}, "standing": {"placement": 2, "stats": {"score": {"value": 1}}}}], "games": null}, {"id": 93125631, "state": 3, "round": 2, "fullRoundText": "Winners Round 2", "completedAt": 1756255319, "winnerId": 21082695, "slots": [{"id": "93125631-0", "entrant": {"id": 21083829, "name": "EEK!", "participants": [{"id": 19394025, "gamerTag": "EEK!", "prefix": null, "user": {"location": {"city": "Atlanta", "state": "GA", "country": "United States"}}, "player": {"id": 148794, "gamerTag": "EEK!", "prefix": null, "user": {"location": {"city": "Atlanta", "state": "GA", "country": "United States"}}}}]}, "standing": {"placement": 2, "stats": {"score": {"value": 2}}}}, {"id": "93125631-1", "entrant": {"id": 21082695, "name": "4o4 | chrisymandias", "participants": [{"id": 19393011, "gamerTag": "chrisymandias", "prefix": "4o4", "user": {"location": {"city": "Dacula", "state": "GA", "country": "United States"}}, "player": {"id": 258173, "gamerTag": "chrisymandias", "prefix": "4o4", "user": {"location": {"city": "Dacula", "state": "GA", "country": "United States"}}}}]}, "standing": {"placement": 1, "stats": {"score": {"value": 3}}}}], "games": null}, {"id": 93125632, "state": 3, "round": 2, "fullRoundText": "Winners Round 2", "completedAt": 1756255980, "winnerId": 21081038, "slots": [{"id": "93125632-0", "entrant": {"id": 21081038, "name": "Trophi", "participants": [{"id": 19391463, "gamerTag": "Trophi", "prefix": null, "user": {"location": {"city": "Sugar Hill", "state": "GA", "country": "United States"}}, "player": {"id": 35637, "gamerTag": "Trophi", "prefix": null, "user": {"location": {"city": "Sugar Hill", "state": "GA", "country": "United States"}}}}]}, "standing": {"placement": 1, "stats": {"score": {"value": 3}}}}, {"id": "93125632-1", "entrant": {"id": 21083877, "name": "stylesK", "participants": [{"id": 19394065, "gamerTag": "stylesK", "prefix": "", "user": {"location": {"city": "Sandy Springs", "state": "GA", "country": "United States"}}, "player": {"id": 3475419, "gamerTag": "stylesK", "prefix": "", "user": {"location": {"city": "Sandy Springs", "state": "GA", "country": "United States"}}}}]}, "standing": {"placement": 2, "stats": {"score": {"value": 0}}}}], "games": null}, {"id": 93125633, "state": 3, "round": 2, "fullRoundText": "Winners Round 2", "completedAt": 1756255309, "winnerId": 21080748, "slots": [{"id": "93125633-0", "entrant": {"id": 21080748, "name": "Noodle", "participants": [{"id": 19391213, "gamerTag": "Noodle", "prefix": null, "user": {"location": {"city": "McDonough", "state": "GA", "country": "United States"}}, "player": {"id": 3029288, "gamerTag": "Noodle", "prefix": "", "user": {"location": {"city": "McDonough", "state": "GA", "country": "United States"}}}}]}, "standing": {"placement": 1, "stats": {"score": {"value": 3}}}}, {"id": "93125633-1", "entrant": {"id": 21077635, "name": "4o4 | Bakuryu", "participants": [{"id": 19388356, "gamerTag": "Bakuryu", "prefix": "4o4", "user": {"location": {"city": "Marietta", "state": "GA", "country": "United States"}}, "player": {"id": 337943, "gamerTag": "Bakuryu", "prefix": "4o4", "user": {"location": {"city": "Marietta", "state": "GA", "country": "United States"}}}}]}, "standing": {"placement": 2, "stats": {"score": {"value": 1}}}}], "games": null}, {"id": 93125634, "state": 3, "round": 2, "fullRoundText": "Winners Round 2", "completedAt": 1756255445, "winnerId": 21083569, "slots": [{"id": "93125634-0", "entrant": {"id": 21083569, "name": "4o4 | MessatsuIM", "participants": [{"id": 19393784, "gamerTag": "MessatsuIM", "prefix": "4o4", "user": {"location": {"city": "Kennesaw", "state": "GA", "country": "United States"}}, "player": {"id": 3564235, "gamerTag": "MessatsuIM", "prefix": "4o4", "user": {"location": {"city": "Kennesaw", "state": "GA", "country": "United States"}}}}]}, "standing": {"placement": 1, "stats": {"score": {"value": 3}}}}, {"id": "93125634-1", "entrant": {"id": 21083576, "name": "Xangief", "participants": [{"id": 19393790, "gamerTag": "Xangief", "prefix": null, "user": {"location": {"city": "Atlanta", "state": "GA", "country": "United States"}}, "player": {"id": 135082, "gamerTag": "Xangief", "prefix": null, "user": {"location": {"city": "Atlanta", "state": "GA", "country": "United States"}}}}]}, "standing": {"placement": 2, "stats": {"score": {"value": 0}}}}], "games": null}, {"id": 93125635, "state": 3, "round": 2, "fullRoundText": "Winners Round 2", "completedAt": 1756255751, "winnerId": 21083528, "slots": [{"id": "93125635-0", "entrant": {"id": 21083528, "name": "4o4 | Yugo", "participants": [{"id": 19393743, "gamerTag": "Yugo", "prefix": "4o4", "user": {"location": {"city": "Sandy springs", "state": "GA", "country": "United States"}}, "player": {"id": 338020, "gamerTag": "Yugo", "prefix": "4o4", "user": {"location": {"city": "Sandy springs", "state": "GA", "country": "United States"}}}}]}, "standing": {"placement": 1, "stats": {"score": {"value": 3}}}}, {"id": "93125635-1", "entrant": {"id": 21083672, "name": "Archway", "participants": [{"id": 19393885, "gamerTag": "Archway", "prefix": "", "user": {"location": {"city": "Sandy Springs", "state": "GA", "country": "United States"}}, "player": {"id": 1435251, "gamerTag": "Archway", "prefix": "", "user": {"location": {"city": "Sandy Springs", "state": "GA", "country": "United States"}}}}]}, "standing": {"placement": 2, "stats": {"score": {"value": 2}}}}], "games": null}, {"id": 93125636, "state": 3, "round": 2, "fullRoundText": "Winners Round 2", "completedAt": 1756255187, "winnerId": 21083544, "slots": [{"id": "93125636-0", "entrant": {"id": 21083544, "name": "JKong", "participants": [{"id": 19393759, "gamerTag": "JKong", "prefix": null, "user": {"location": {"city": "Riverdale", "state": "GA", "country": "United States"}}, "player": {"id": 3515833, "gamerTag": "JKong", "prefix": null, "user": {"location": {"city": "Riverdale", "state": "GA", "country": "United States"}}}}]}, "standing": {"placement": 1, "stats": {"score": {"value": 3}}}}, {"id": "93125636-1", "entrant": {"id": 21082337, "name": "Air | Airplanes", "participants": [{"id": 19392684, "gamerTag": "Airplanes", "prefix": "Air", "user": {"location": {"city": "Dacula", "state": "GA", "country": "United States"}}, "player": {"id": 3872614, "gamerTag": "Airplanes", "prefix": "Air", "user": {"location": {"city": "Dacula", "state": "GA", "country": "United States"}}}}]}, "standing": {"placement": 2, "stats": {"score": {"value": 0}}}}], "games": null}, {"id": 93125637, "state": 3, "round": 2, "fullRoundText": "Winners Round 2", "completedAt": 1756256113, "winnerId": 21083283, "slots": [{"id": "93125637-0", "entrant": {"id": 21083283, "name": "4o4 | Musa", "participants": [{"id": 19393529, "gamerTag": "Musa", "prefix": "4o4", "user": {"location": {"city": null, "state": null, "country": "United States"}}, "player": {"id": 131537, "gamerTag": "Musa", "prefix": "4o4", "user": {"location": {"city": null, "state": null, "country": "United States"}}}}]}, "standing": {"placement": 1, "stats": {"score": {"value": 3}}}}, {"id": "93125637-1", "entrant": {"id": 21083577, "name": "BOLT | KhalRhaego", "participants": [{"id": 19393791, "gamerTag": "KhalRhaego", "prefix": "BOLT", "user": {"location": {"city": "Jonesboro", "state": "GA", "country": "United States"}}, "player": {"id": 4076327, "gamerTag": "KhalRhaego", "prefix": "BOLT", "user": {"location": {"city": "Jonesboro", "state": "GA", "country": "United States"}}}}]}, "standing": {"placement": 2, "stats": {"score": {"value": 1}}}}], "games": null}]}}}