{"phase": {"seeds": {"pageInfo": {"totalPages": 2, "total": 62}, "nodes": [{"id": 35978745, "seedNum": 50, "entrant": {"id": 20853435, "name": "Par-i-dot Alpha", "participants": [{"id": 19189451, "gamerTag": "Par-i-dot Alpha", "prefix": "", "user": {"location": {"city": "Lithoina", "state": "GA", "country": "United States"}}, "player": {"id": 36418, "gamerTag": "Avalon", "prefix": "", "user": {"location": {"city": "Lithoina", "state": "GA", "country": "United States"}}}}]}}, {"id": 35979455, "seedNum": 51, "entrant": {"id": 20854014, "name": "REV 14:6 | 3AM", "participants": [{"id": 19189958, "gamerTag": "3AM", "prefix": "REV 14:6", "user": {"location": {"city": "Duluth", "state": "GA", "country": "United States"}}, "player": {"id": 2331696, "gamerTag": "3AM", "prefix": "REV 14:6", "user": {"location": {"city": "Duluth", "state": "GA", "country": "United States"}}}}]}}, {"id": 35976245, "seedNum": 52, "entrant": {"id": 20851721, "name": "Raymond", "participants": [{"id": 19187834, "gamerTag": "Raymond", "prefix": "", "user": {"location": {"city": "Atlanta", "state": "GA", "country": "United States"}}, "player": {"id": 904449, "gamerTag": "Raymond", "prefix": "", "user": {"location": {"city": "Atlanta", "state": "GA", "country": "United States"}}}}]}}, {"id": 35938258, "seedNum": 54, "entrant": {"id": 20829799, "name": "Flan", "participants": [{"id": 19168093, "gamerTag": "Flan", "prefix": "", "user": {"location": {"city": null, "state": null, "country": "United States"}}, "player": {"id": 1992615, "gamerTag": "Flan", "prefix": "", "user": {"location": {"city": null, "state": null, "country": "United States"}}}}]}}, {"id": 35978657, "seedNum": 55, "entrant": {"id": 20853367, "name": "MTM | Mishmash", "participants": [{"id": 19189388, "gamerTag": "Mishmash", "prefix": "MTM", "user": {"location": {"city": "Cartersville", "state": "GA", "country": "United States"}}, "player": {"id": 4104907, "gamerTag": "Mishmash", "prefix": "MTM", "user": {"location": {"city": "Cartersville", "state": "GA", "country": "United States"}}}}]}}, {"id": 35978894, "seedNum": 56, "entrant": {"id": 20853570, "name": "Pleeploploop", "participants": [{"id": 19189578, "gamerTag": "Pleeploploop", "prefix": "", "user": {"location": {"city": "Snellville", "state": null, "country": "United States"}}, "player": {"id": 1739676, "gamerTag": "Pleeploploop", "prefix": "", "user": {"location": {"city": "Snellville", "state": null, "country": "United States"}}}}]}}, {"id": 35979617, "seedNum": 57, "entrant": {"id": 20854175, "name": "D.King79", "participants": [{"id": 19190083, "gamerTag": "D.King79", "prefix": null, "user": {"location": {"city": "Mt. Olympus", "state": "GA", "country": "United States"}}, "player": {"id": 534660, "gamerTag": "D.King79", "prefix": null, "user": {"location": {"city": "Mt. Olympus", "state": "GA", "country": "United States"}}}}]}}, {"id": 35977181, "seedNum": 58, "entrant": {"id": 20852443, "name": "V$ | EdiblePine", "participants": [{"id": 19188552, "gamerTag": "EdiblePine", "prefix": "V$", "user": {"location": {"city": "Atlanta", "state": "GA", "country": "United States"}}, "player": {"id": 1648278, "gamerTag": "EdiblePine", "prefix": "AP", "user": {"location": {"city": "Atlanta", "state": "GA", "country": "United States"}}}}]}}, {"id": 35976742, "seedNum": 59, "entrant": {"id": 20852087, "name": "Kattoro", "participants": [{"id": 19188198, "gamerTag": "Kattoro", "prefix": "", "user": {"location": {"city": "Atlanta", "state": "GA", "country": "United States"}}, "player": {"id": 343463, "gamerTag": "Kattoro", "prefix": "", "user": {"location": {"city": "Atlanta", "state": "GA", "country": "United States"}}}}]}}, {"id": 35979250, "seedNum": 60, "entrant": {"id": 20853877, "name": "AjaxAnonymous", "participants": [{"id": 19189838, "gamerTag": "AjaxAnonymous", "prefix": null, "user": {"location": {"city": "Atlanta", "state": "GA", "country": "United States"}}, "player": {"id": 4308428, "gamerTag": "AjaxAnonymous", "prefix": null, "user": {"location": {"city": "Atlanta", "state": "GA", "country": "United States"}}}}]}}, {"id": 35978334, "seedNum": 61, "entrant": {"id": 20853127, "name": "Bwup", "participants": [{"id": 19189162, "gamerTag": "Bwup", "prefix": "", "user": {"location": {"city": null, "state": null, "country": "United States"}}, "player": {"id": 4903487, "gamerTag": "Bwup", "prefix": "", "user": {"location": {"city": null, "state": null, "country": "United States"}}}}]}}, {"id": 35978366, "seedNum": 62, "entrant": {"id": 20853159, "name": "Trap", "participants": [{"id": 19189192, "gamerTag": "Trap", "prefix": "", "user": {"location": {"city": null, "state": null, "country": "United States"}}, "player": {"id": 4903493, "gamerTag": "Trap", "prefix": "", "user": {"location": {"city": null, "state": null, "country": "United States"}}}}]}}]}}}