{"event": {"sets": {"pageInfo": {"totalPages": 3, "total": 31}, "nodes": [{"id": 93404259, "state": 3, "round": 1, "fullRoundText": "Winners Round 1", "completedAt": 1756854803, "winnerId": 21151056, "slots": [{"id": "93404259-0", "entrant": {"id": 21151056, "name": "v;f | Sanctity", "participants": [{"id": 19454320, "gamerTag": "Sanctity", "prefix": "v;f", "user": {"location": {"city": "Atlanta", "state": "GA", "country": "United States"}}, "player": {"id": 4955081, "gamerTag": "Sanctity", "prefix": "v;f", "user": {"location": {"city": "Atlanta", "state": "GA", "country": "United States"}}}}]}, "standing": {"placement": 1, "stats": {"score": {"value": 2}}}}, {"id": "93404259-1", "entrant": {"id": 21151161, "name": "Illude_z", "participants": [{"id": 19454417, "gamerTag": "Illude_z", "prefix": null, "user": {"location": {"city": "Fitzgerald", "state": "GA", "country": "United States"}}, "player": {"id": 4144962, "gamerTag": "Illude_z", "prefix": null, "user": {"location": {"city": "Fitzgerald", "state": "GA", "country": "United States"}}}}]}, "standing": {"placement": 2, "stats": {"score": {"value": 0}}}}], "games": [{"id": 32324988, "orderNum": 1, "winnerId": 21151056, "entrant1Score": null, "entrant2Score": 0, "stage": null, "selections": [{"id": 47647580, "selectionType": "CHARACTER", "selectionValue": 1407, "entrant": {"id": 21151056}, "character": {"id": 1407, "name": "King K. Rool"}}, {"id": 47647581, "selectionType": "CHARACTER", "selectionValue": 1326, "entrant": {"id": 21151161}, "character": {"id": 1326, "name": "Roy"}}]}, {"id": 32324989, "orderNum": 2, "winnerId": 21151056, "entrant1Score": null, "entrant2Score": 0, "stage": null, "selections": [{"id": 47647582, "selectionType": "CHARACTER", "selectionValue": 1407, "entrant": {"id": 21151056}, "character": {"id": 1407, "name": "King K. Rool"}}, {"id": 47647583, "selectionType": "CHARACTER", "selectionValue": 1278, "entrant": {"id": 21151161}, "character": {"id": 1278, "name": "Dark Pit"}}]}]}]}}}