{"event": {"sets": {"pageInfo": {"totalPages": 5, "total": 66}, "nodes": [{"id": 93342139, "state": 3, "round": -5, "fullRoundText": "Losers Round 2", "completedAt": 1756664807, "winnerId": 21119763, "slots": [{"id": "93342139-0", "entrant": {"id": 21124239, "name": "Lethal Febreze(DeckHead)", "participants": [{"id": 19430090, "gamerTag": "Lethal Febreze(DeckHead)", "prefix": "", "user": {"location": {"city": "Lawrenceville", "state": "GA", "country": "United States"}}, "player": {"id": 2975480, "gamerTag": "Lethal Febreze(DeckHead)", "prefix": "", "user": {"location": {"city": "Lawrenceville", "state": "GA", "country": "United States"}}}}]}, "standing": {"placement": 2, "stats": {"score": {"value": 2}}}}, {"id": "93342139-1", "entrant": {"id": 21119763, "name": "swillz", "participants": [{"id": 19426183, "gamerTag": "swillz", "prefix": null, "user": {"location": {"city": "St. John", "state": "IN", "country": "United States"}}, "player": {"id": 3607366, "gamerTag": "swillz", "prefix": null, "user": {"location": {"city": "St. John", "state": "IN", "country": "United States"}}}}]}, "standing": {"placement": 1, "stats": {"score": {"value": 3}}}}], "games": null}, {"id": 93342003, "state": 3, "round": 2, "fullRoundText": "Winners Round 2", "completedAt": 1756663992, "winnerId": 21122800, "slots": [{"id": "93342003-0", "entrant": {"id": 21122800, "name": "Sidvictor", "participants": [{"id": 19428833, "gamerTag": "Sidvictor", "prefix": "", "user": {"location": {"city": "Austin", "state": "TX", "country": "United States"}}, "player": {"id": 2515061, "gamerTag": "Sidvictor", "prefix": "", "user": {"location": {"city": "Austin", "state": "TX", "country": "United States"}}}}]}, "standing": {"placement": 1, "stats": {"score": {"value": 3}}}}, {"id": "93342003-1", "entrant": {"id": 21119763, "name": "swillz", "participants": [{"id": 19426183, "gamerTag": "swillz", "prefix": null, "user": {"location": {"city": "St. John", "state": "IN", "country": "United States"}}, "player": {"id": 3607366, "gamerTag": "swillz", "prefix": null, "user": {"location": {"city": "St. John", "state": "IN", "country": "United States"}}}}]}, "standing": {"placement": 2, "stats": {"score": {"value": 0}}}}], "games": null}, {"id": 93342004, "state": 3, "round": 2, "fullRoundText": "Winners Round 2", "completedAt": 1756661641, "winnerId": 21126099, "slots": [{"id": "93342004-0", "entrant": {"id": 21124239, "name": "Lethal Febreze(DeckHead)", "participants": [{"id": 19430090, "gamerTag": "Lethal Febreze(DeckHead)", "prefix": "", "user": {"location": {"city": "Lawrenceville", "state": "GA", "country": "United States"}}, "player": {"id": 2975480, "gamerTag": "Lethal Febreze(DeckHead)", "prefix": "", "user": {"location": {"city": "Lawrenceville", "state": "GA", "country": "United States"}}}}]}, "standing": {"placement": 2, "stats": {"score": {"value": 0}}}}, {"id": "93342004-1", "entrant": {"id": 21126099, "name": "TROLLGANG | e-mail", "participants": [{"id": 19431860, "gamerTag": "e-mail", "prefix": "TROLLGANG", "user": {"location": {"city": "Atlanta", "state": "GA", "country": "United States"}}, "player": {"id": 1003300, "gamerTag": "GRUGCEL", "prefix": "TROLLGANG", "user": {"location": {"city": "Atlanta", "state": "GA", "country": "United States"}}}}]}, "standing": {"placement": 1, "stats": {"score": {"value": 3}}}}], "games": null}, {"id": 93342005, "state": 3, "round": 2, "fullRoundText": "Winners Round 2", "completedAt": 1756661391, "winnerId": 20974572, "slots": [{"id": "93342005-0", "entrant": {"id": 20974572, "name": "Jel-Sensei", "participants": [{"id": 19295829, "gamerTag": "Jel-Sensei", "prefix": "", "user": {"location": {"city": "birmingham", "state": "AL", "country": "United States"}}, "player": {"id": 1966345, "gamerTag": "Jel-Sensei", "prefix": "", "user": {"location": {"city": "birmingham", "state": "AL", "country": "United States"}}}}]}, "standing": {"placement": 1, "stats": {"score": {"value": 3}}}}, {"id": "93342005-1", "entrant": {"id": 21104955, "name": "HyperT", "participants": [{"id": 19412950, "gamerTag": "HyperT", "prefix": "", "user": {"location": {"city": "Evans", "state": "GA", "country": "United States"}}, "player": {"id": 4945153, "gamerTag": "HyperT", "prefix": "", "user": {"location": {"city": "Evans", "state": "GA", "country": "United States"}}}}]}, "standing": {"placement": 2, "stats": {"score": {"value": 0}}}}], "games": null}, {"id": 93342006, "state": 3, "round": 2, "fullRoundText": "Winners Round 2", "completedAt": 1756661078, "winnerId": 21124913, "slots": [{"id": "93342006-0", "entrant": {"id": 21124913, "name": "Magic", "participants": [{"id": 19430696, "gamerTag": "Magic", "prefix": null, "user": {"location": {"city": null, "state": null, "country": "United States"}}, "player": {"id": 1722236, "gamerTag": "Magic", "prefix": null, "user": {"location": {"city": null, "state": null, "country": "United States"}}}}]}, "standing": {"placement": 1, "stats": {"score": {"value": null}}}}, {"id": "93342006-1", "entrant": {"id": 21100718, "name": "CHINGU | Bahamut", "participants": [{"id": 19409109, "gamerTag": "Bahamut", "prefix": "CHINGU", "user": {"location": {"city": "Atlanta", "state": "GA", "country": "United States"}}, "player": {"id": 3598331, "gamerTag": "Bahamut", "prefix": "", "user": {"location": {"city": "Atlanta", "state": "GA", "country": "United States"}}}}]}, "standing": {"placement": 2, "stats": {"score": {"value": -1}}}}], "games": null}, {"id": 93342007, "state": 3, "round": 2, "fullRoundText": "Winners Round 2", "completedAt": 1756661372, "winnerId": 21124433, "slots": [{"id": "93342007-0", "entrant": {"id": 21124433, "name": "TROLLGANG | hors-d'\u0153uvre offa napkin", "participants": [{"id": 19430239, "gamerTag": "hors-d'\u0153uvre offa napkin", "prefix": "TROLLGANG", "user": {"location": {"city": null, "state": null, "country": null}}, "player": {"id": 1601669, "gamerTag": "Love", "prefix": "TROLLGANG", "user": {"location": {"city": null, "state": null, "country": null}}}}]}, "standing": {"placement": 1, "stats": {"score": {"value": 3}}}}, {"id": "93342007-1", "entrant": {"id": 21118197, "name": "VGYT | Ankha5", "participants": [{"id": 19424807, "gamerTag": "Ankha5", "prefix": "VGYT", "user": {"location": {"city": "Marietta", "state": "GA", "country": "United States"}}, "player": {"id": 3578540, "gamerTag": "Ankha5", "prefix": "VGYT", "user": {"location": {"city": "Marietta", "state": "GA", "country": "United States"}}}}]}, "standing": {"placement": 2, "stats": {"score": {"value": 0}}}}], "games": null}, {"id": 93342008, "state": 3, "round": 2, "fullRoundText": "Winners Round 2", "completedAt": 1756661568, "winnerId": 20855951, "slots": [{"id": "93342008-0", "entrant": {"id": 20855951, "name": "Slowpokemasta", "participants": [{"id": 19191506, "gamerTag": "Slowpokemasta", "prefix": "", "user": {"location": {"city": "ROME", "state": null, "country": "United States"}}, "player": {"id": 4101823, "gamerTag": "Slowpokemasta", "prefix": "", "user": {"location": {"city": "ROME", "state": null, "country": "United States"}}}}]}, "standing": {"placement": 1, "stats": {"score": {"value": 3}}}}, {"id": "93342008-1", "entrant": {"id": 21128909, "name": "cheif347", "participants": [{"id": 19434696, "gamerTag": "cheif347", "prefix": null, "user": {"location": {"city": "Bowdon", "state": "GA", "country": "United States"}}, "player": {"id": 4405307, "gamerTag": "cheif347", "prefix": null, "user": {"location": {"city": "Bowdon", "state": "GA", "country": "United States"}}}}]}, "standing": {"placement": 2, "stats": {"score": {"value": 1}}}}], "games": null}, {"id": 93342009, "state": 3, "round": 2, "fullRoundText": "Winners Round 2", "completedAt": 1756661478, "winnerId": 21126168, "slots": [{"id": "93342009-0", "entrant": {"id": 21126168, "name": "Psyro", "participants": [{"id": 19431937, "gamerTag": "Psyro", "prefix": "", "user": {"location": {"city": "Tuscaloosa", "state": "GA", "country": "United States"}}, "player": {"id": 2358101, "gamerTag": "Psyro", "prefix": "", "user": {"location": {"city": "Tuscaloosa", "state": "GA", "country": "United States"}}}}]}, "standing": {"placement": 1, "stats": {"score": {"value": 3}}}}, {"id": "93342009-1", "entrant": {"id": 21126047, "name": "LULZ | Sidewinder Sam", "participants": [{"id": 19431810, "gamerTag": "Sidewinder Sam", "prefix": "LULZ", "user": {"location": {"city": null, "state": null, "country": null}}, "player": {"id": 3421193, "gamerTag": "Sidewinder Sam", "prefix": "LULZ", "user": {"location": {"city": null, "state": null, "country": null}}}}]}, "standing": {"placement": 2, "stats": {"score": {"value": 0}}}}], "games": null}, {"id": 93342010, "state": 3, "round": 2, "fullRoundText": "Winners Round 2", "completedAt": 1756662252, "winnerId": 20948730, "slots": [{"id": "93342010-0", "entrant": {"id": 20948730, "name": "QTE | ItsItsFerrni", "participants": [{"id": 19273494, "gamerTag": "ItsItsFerrni", "prefix": "QTE", "user": {"location": {"city": "Auburn", "state": "GA", "country": "United States"}}, "player": {"id": 1472387, "gamerTag": "xXx_ItsFerrni_xXx", "prefix": "QTE", "user": {"location": {"city": "Auburn", "state": "GA", "country": "United States"}}}}]}, "standing": {"placement": 1, "stats": {"score": {"value": 3}}}}, {"id": "93342010-1", "entrant": {"id": 20930708, "name": "Greed", "participants": [{"id": 19257182, "gamerTag": "Greed", "prefix": "", "user": {"location": {"city": null, "state": null, "country": null}}, "player": {"id": 4917770, "gamerTag": "Greed", "prefix": "", "user": {"location": {"city": null, "state": null, "country": null}}}}]}, "standing": {"placement": 2, "stats": {"score": {"value": 0}}}}], "games": null}, {"id": 93342011, "state": 3, "round": 2, "fullRoundText": "Winners Round 2", "completedAt": 1756663144, "winnerId": 20951583, "slots": [{"id": "93342011-0", "entrant": {"id": 20951583, "name": "TROLLGANG | Bozo", "participants": [{"id": 19275900, "gamerTag": "Bozo", "prefix": "TROLLGANG", "user": {"location": {"city": "NYC", "state": "NY", "country": "United States"}}, "player": {"id": 1125705, "gamerTag": "Bozo", "prefix": "TROLLGANG", "user": {"location": {"city": "NYC", "state": "NY", "country": "United States"}}}}]}, "standing": {"placement": 1, "stats": {"score": {"value": 3}}}}, {"id": "93342011-1", "entrant": {"id": 21118964, "name": "Gamestradamous", "participants": [{"id": 19425551, "gamerTag": "Gamestradamous", "prefix": null, "user": {"location": {"city": "Arlington", "state": "TX", "country": "United States"}}, "player": {"id": 2701839, "gamerTag": "Gamestradamous", "prefix": null, "user": {"location": {"city": "Arlington", "state": "TX", "country": "United States"}}}}]}, "standing": {"placement": 2, "stats": {"score": {"value": 0}}}}], "games": null}, {"id": 93342012, "state": 3, "round": 2, "fullRoundText": "Winners Round 2", "completedAt": 1756660904, "winnerId": 20810835, "slots": [{"id": "93342012-0", "entrant": {"id": 20919699, "name": "FriskyWalrus", "participants": [{"id": 19247773, "gamerTag": "FriskyWalrus", "prefix": null, "user": {"location": {"city": "ATL", "state": "GA", "country": "United States"}}, "player": {"id": 3198094, "gamerTag": "FriskyWalrus", "prefix": null, "user": {"location": {"city": "ATL", "state": "GA", "country": "United States"}}}}]}, "standing": {"placement": 2, "stats": {"score": {"value": -1}}}}, {"id": "93342012-1", "entrant": {"id": 20810835, "name": "CyberPomme", "participants": [{"id": 19151697, "gamerTag": "CyberPomme", "prefix": null, "user": {"location": {"city": "Atlanta", "state": "GA", "country": "United States"}}, "player": {"id": 4555347, "gamerTag": "CyberPomme", "prefix": null, "user": {"location": {"city": "Atlanta", "state": "GA", "country": "United States"}}}}]}, "standing": {"placement": 1, "stats": {"score": {"value": null}}}}], "games": null}, {"id": 93342013, "state": 3, "round": 2, "fullRoundText": "Winners Round 2", "completedAt": 1756661453, "winnerId": 20858771, "slots": [{"id": "93342013-0", "entrant": {"id": 20858771, "name": "Cat", "participants": [{"id": 19194117, "gamerTag": "Cat", "prefix": null, "user": {"location": {"city": null, "state": null, "country": "United States"}}, "player": {"id": 2159834, "gamerTag": "Cat", "prefix": null, "user": {"location": {"city": null, "state": null, "country": "United States"}}}}]}, "standing": {"placement": 1, "stats": {"score": {"value": 3}}}}, {"id": "93342013-1", "entrant": {"id": 21107154, "name": "1TuffHombrey", "participants": [{"id": 19414858, "gamerTag": "1TuffHombrey", "prefix": null, "user": {"location": {"city": "Charlotte", "state": null, "country": "United States"}}, "player": {"id": 498371, "gamerTag": "1TuffHombrey", "prefix": null, "user": {"location": {"city": "Charlotte", "state": null, "country": "United States"}}}}]}, "standing": {"placement": 2, "stats": {"score": {"value": 0}}}}], "games": null}, {"id": 93342014, "state": 3, "round": 2, "fullRoundText": "Winners Round 2", "completedAt": 1756661658, "winnerId": 21070661, "slots": [{"id": "93342014-0", "entrant": {"id": 21070661, "name": "EvilDED2", "participants": [{"id": 19382027, "gamerTag": "EvilDED2", "prefix": null, "user": {"location": {"city": "ATLANTA", "state": "GA", "country": "United States"}}, "player": {"id": 3002216, "gamerTag": "EvilDED2", "prefix": null, "user": {"location": {"city": "ATLANTA", "state": "GA", "country": "United States"}}}}]}, "standing": {"placement": 1, "stats": {"score": {"value": 3}}}}, {"id": "93342014-1", "entrant": {"id": 21088531, "name": "Fl0wchart", "participants": [{"id": 19398080, "gamerTag": "Fl0wchart", "prefix": null, "user": {"location": {"city": "Burnsville", "state": null, "country": null}}, "player": {"id": 864596, "gamerTag": "Fl0wchart", "prefix": null, "user": {"location": {"city": "Burnsville", "state": null, "country": null}}}}]}, "standing": {"placement": 2, "stats": {"score": {"value": 2}}}}], "games": null}, {"id": 93342015, "state": 3, "round": 2, "fullRoundText": "Winners Round 2", "completedAt": 1756662394, "winnerId": 21128176, "slots": [{"id": "93342015-0", "entrant": {"id": 20935381, "name": "ATLRiot", "participants": [{"id": 19261454, "gamerTag": "ATLRiot", "prefix": "", "user": {"location": {"city": "Augusta", "state": "GA", "country": "United States"}}, "player": {"id": 2057913, "gamerTag": "ATLRiot", "prefix": "", "user": {"location": {"city": "Augusta", "state": "GA", "country": "United States"}}}}]}, "standing": {"placement": 2, "stats": {"score": {"value": -1}}}}, {"id": "93342015-1", "entrant": {"id": 21128176, "name": "goostain", "participants": [{"id": 19422888, "gamerTag": "goostain", "prefix": null, "user": {"location": {"city": "Huntersville", "state": "NC", "country": "United States"}}, "player": {"id": 3365655, "gamerTag": "goostain", "prefix": "", "user": {"location": {"city": "Huntersville", "state": "NC", "country": "United States"}}}}]}, "standing": {"placement": 1, "stats": {"score": {"value": null}}}}], "games": null}, {"id": 93342016, "state": 3, "round": 2, "fullRoundText": "Winners Round 2", "completedAt": 1756660996, "winnerId": 20773488, "slots": [{"id": "93342016-0", "entrant": {"id": 20773488, "name": "IVY | Fuhgetabaddit", "participants": [{"id": 19117964, "gamerTag": "Fuhgetabaddit", "prefix": "IVY", "user": {"location": {"city": "Tucker", "state": "GA", "country": "United States"}}, "player": {"id": 1183271, "gamerTag": "Fuhgetabaddit", "prefix": "IVY", "user": {"location": {"city": "Tucker", "state": "GA", "country": "United States"}}}}]}, "standing": {"placement": 1, "stats": {"score": {"value": null}}}}, {"id": "93342016-1", "entrant": {"id": 21070468, "name": "Oni_Shogi", "participants": [{"id": 19381871, "gamerTag": "Oni_Shogi", "prefix": "", "user": {"location": {"city": "Atlanta", "state": "GA", "country": "United States"}}, "player": {"id": 1400524, "gamerTag": "Oni_Shogi", "prefix": "", "user": {"location": {"city": "Atlanta", "state": "GA", "country": "United States"}}}}]}, "standing": {"placement": 2, "stats": {"score": {"value": -1}}}}], "games": null}]}}}