{"phase": {"seeds": {"pageInfo": {"totalPages": 1, "total": 27}, "nodes": [{"id": 36704022, "seedNum": 1, "entrant": {"id": 21328835, "name": "chpstks", "participants": [{"id": 19607503, "gamerTag": "chpstks", "prefix": "", "user": {"location": {"city": "Jacksonville", "state": "FL", "country": "United States"}}, "player": {"id": 3000557, "gamerTag": "chpstks", "prefix": "", "user": {"location": {"city": "Jacksonville", "state": "FL", "country": "United States"}}}}]}}, {"id": 36662988, "seedNum": 5, "entrant": {"id": 21300533, "name": "Kemono", "participants": [{"id": 19582911, "gamerTag": "Kemono", "prefix": "", "user": {"location": {"city": null, "state": null, "country": null}}, "player": {"id": 1700140, "gamerTag": "Kemono", "prefix": "", "user": {"location": {"city": null, "state": null, "country": null}}}}]}}, {"id": 36663244, "seedNum": 2, "entrant": {"id": 21300768, "name": "Salvo", "participants": [{"id": 19583050, "gamerTag": "Salvo", "prefix": "", "user": {"location": {"city": "Richmond Hill", "state": "GA", "country": "United States"}}, "player": {"id": 1287834, "gamerTag": "Salvo", "prefix": "", "user": {"location": {"city": "Richmond Hill", "state": "GA", "country": "United States"}}}}]}}, {"id": 36696472, "seedNum": 4, "entrant": {"id": 21324397, "name": "Turtles", "participants": [{"id": 19603879, "gamerTag": "Turtles", "prefix": null, "user": {"location": {"city": "Jacksonville", "state": "FL", "country": "United States"}}, "player": {"id": 242353, "gamerTag": "Turtles", "prefix": null, "user": {"location": {"city": "Jacksonville", "state": "FL", "country": "United States"}}}}]}}, {"id": 36722138, "seedNum": 3, "entrant": {"id": 21339583, "name": "CD", "participants": [{"id": 19617002, "gamerTag": "CD", "prefix": "", "user": {"location": {"city": "St. Johns", "state": "FL", "country": "United States"}}, "player": {"id": 130624, "gamerTag": "CD", "prefix": "", "user": {"location": {"city": "St. Johns", "state": "FL", "country": "United States"}}}}]}}, {"id": 36677908, "seedNum": 11, "entrant": {"id": 21311767, "name": "Phl0w", "participants": [{"id": 19592351, "gamerTag": "Phl0w", "prefix": null, "user": {"location": {"city": "Savannah", "state": "GA", "country": "United States"}}, "player": {"id": 2525580, "gamerTag": "Phl0w", "prefix": null, "user": {"location": {"city": "Savannah", "state": "GA", "country": "United States"}}}}]}}, {"id": 36687594, "seedNum": 7, "entrant": {"id": 21318294, "name": "Triple C", "participants": [{"id": 19598416, "gamerTag": "Triple C", "prefix": "", "user": {"location": {"city": "Jacksonville", "state": "FL", "country": "United States"}}, "player": {"id": 2054708, "gamerTag": "Triple C", "prefix": "", "user": {"location": {"city": "Jacksonville", "state": "FL", "country": "United States"}}}}]}}, {"id": 36663687, "seedNum": 8, "entrant": {"id": 21301121, "name": "Kirbyfan", "participants": [{"id": 19583313, "gamerTag": "Kirbyfan", "prefix": null, "user": {"location": {"city": "Savannah", "state": "GA", "country": "United States"}}, "player": {"id": 2195459, "gamerTag": "Kirbyfan", "prefix": null, "user": {"location": {"city": "Savannah", "state": "GA", "country": "United States"}}}}]}}, {"id": 36720251, "seedNum": 9, "entrant": {"id": 21338004, "name": "Havoc", "participants": [{"id": 19615557, "gamerTag": "Havoc", "prefix": null, "user": {"location": {"city": "Orlando", "state": "FL", "country": "United States"}}, "player": {"id": 376942, "gamerTag": "Havoc", "prefix": null, "user": {"location": {"city": "Orlando", "state": "FL", "country": "United States"}}}}]}}, {"id": 36713947, "seedNum": 10, "entrant": {"id": 21333555, "name": "Stars", "participants": [{"id": 19611648, "gamerTag": "Stars", "prefix": "", "user": {"location": {"city": "Brunswick", "state": "GA", "country": "United States"}}, "player": {"id": 367982, "gamerTag": "Stars", "prefix": "", "user": {"location": {"city": "Brunswick", "state": "GA", "country": "United States"}}}}]}}, {"id": 36662249, "seedNum": 12, "entrant": {"id": 21299858, "name": "FireLime", "participants": [{"id": 19582352, "gamerTag": "FireLime", "prefix": "", "user": {"location": {"city": "Savannah", "state": "GA", "country": "United States"}}, "player": {"id": 2227253, "gamerTag": "FireLime", "prefix": "", "user": {"location": {"city": "Savannah", "state": "GA", "country": "United States"}}}}]}}, {"id": 36668672, "seedNum": 16, "entrant": {"id": 21305116, "name": "Super Mario | Bumble", "participants": [{"id": 19586673, "gamerTag": "Bumble", "prefix": "Super Mario", "user": {"location": {"city": "Savannah", "state": "GA", "country": "United States"}}, "player": {"id": 1169889, "gamerTag": "Bumble", "prefix": "", "user": {"location": {"city": "Savannah", "state": "GA", "country": "United States"}}}}]}}, {"id": 36666045, "seedNum": 13, "entrant": {"id": 21303126, "name": "Cromat", "participants": [{"id": 19585032, "gamerTag": "Cromat", "prefix": "", "user": {"location": {"city": "Savannah", "state": "GA", "country": "United States"}}, "player": {"id": 3055798, "gamerTag": "Cromat", "prefix": "", "user": {"location": {"city": "Savannah", "state": "GA", "country": "United States"}}}}]}}, {"id": 36721583, "seedNum": 14, "entrant": {"id": 21339184, "name": "CHP | Mang0 fan", "participants": [{"id": 19616647, "gamerTag": "Mang0 fan", "prefix": "CHP", "user": {"location": {"city": "Port Washington", "state": "NY", "country": "United States"}}, "player": {"id": 1340702, "gamerTag": "Goofygoober_67", "prefix": "CHP", "user": {"location": {"city": "Port Washington", "state": "NY", "country": "United States"}}}}]}}, {"id": 36722628, "seedNum": 17, "entrant": {"id": 21340003, "name": "im_tr4$h", "participants": [{"id": 19617406, "gamerTag": "im_tr4$h", "prefix": "", "user": {"location": {"city": "30058", "state": "GA", "country": "United States"}}, "player": {"id": 1862646, "gamerTag": "im_tr4$h", "prefix": "", "user": {"location": {"city": "30058", "state": "GA", "country": "United States"}}}}]}}, {"id": 36724332, "seedNum": 18, "entrant": {"id": 21341145, "name": "Loser | Artemyx", "participants": [{"id": 19618439, "gamerTag": "Artemyx", "prefix": "Loser", "user": {"location": {"city": null, "state": null, "country": null}}, "player": {"id": 1661179, "gamerTag": "Artemyx", "prefix": "Loser", "user": {"location": {"city": null, "state": null, "country": null}}}}]}}, {"id": 36722230, "seedNum": 15, "entrant": {"id": 21339687, "name": "LSA | Jovial_J", "participants": [{"id": 19617125, "gamerTag": "Jovial_J", "prefix": "LSA", "user": {"location": {"city": "Macon", "state": "GA", "country": "United States"}}, "player": {"id": 140065, "gamerTag": "Jovial_J", "prefix": "LSA", "user": {"location": {"city": "Macon", "state": "GA", "country": "United States"}}}}]}}, {"id": 36720435, "seedNum": 19, "entrant": {"id": 21338133, "name": "KrimsonKurta", "participants": [{"id": 19615676, "gamerTag": "KrimsonKurta", "prefix": "", "user": {"location": {"city": "Savannah", "state": "GA", "country": "United States"}}, "player": {"id": 3820372, "gamerTag": "KrimsonKurta", "prefix": "", "user": {"location": {"city": "Savannah", "state": "GA", "country": "United States"}}}}]}}, {"id": 36678235, "seedNum": 20, "entrant": {"id": 21312046, "name": "Coreus", "participants": [{"id": 19592613, "gamerTag": "Coreus", "prefix": "", "user": {"location": {"city": null, "state": null, "country": "United States"}}, "player": {"id": 4368043, "gamerTag": "Coreus", "prefix": "", "user": {"location": {"city": null, "state": null, "country": "United States"}}}}]}}, {"id": 36723239, "seedNum": 21, "entrant": {"id": 21340432, "name": "Noobyoulus", "participants": [{"id": 19617729, "gamerTag": "Noobyoulus", "prefix": "", "user": {"location": {"city": null, "state": "SC", "country": "United States"}}, "player": {"id": 4134317, "gamerTag": "Noobyoulus", "prefix": "", "user": {"location": {"city": null, "state": "SC", "country": "United States"}}}}]}}, {"id": 36724308, "seedNum": 22, "entrant": {"id": 21341137, "name": "NewGeniu4", "participants": [{"id": 19618433, "gamerTag": "NewGeniu4", "prefix": null, "user": {"location": {"city": "Savannah", "state": "GA", "country": "United States"}}, "player": {"id": 4801466, "gamerTag": "NewGeniu4", "prefix": null, "user": {"location": {"city": "Savannah", "state": "GA", "country": "United States"}}}}]}}, {"id": 36668999, "seedNum": 23, "entrant": {"id": 21305246, "name": "\u9b5a\u670d\u8a18 | gyofukuki", "participants": [{"id": 19586776, "gamerTag": "gyofukuki", "prefix": "\u9b5a\u670d\u8a18", "user": {"location": {"city": "Savannah", "state": "GA", "country": "United States"}}, "player": {"id": 1500065, "gamerTag": "gyofukuki", "prefix": "\u9b5a\u670d\u8a18", "user": {"location": {"city": "Savannah", "state": "GA", "country": "United States"}}}}]}}, {"id": 36721735, "seedNum": 25, "entrant": {"id": 21339320, "name": "IOp", "participants": [{"id": 19616777, "gamerTag": "IOp", "prefix": "", "user": {"location": {"city": null, "state": "GA", "country": "United States"}}, "player": {"id": 4987252, "gamerTag": "IOp", "prefix": "", "user": {"location": {"city": null, "state": "GA", "country": "United States"}}}}]}}, {"id": 36724178, "seedNum": 27, "entrant": {"id": 21341108, "name": "Artsman", "participants": [{"id": 19618407, "gamerTag": "Artsman", "prefix": null, "user": {"location": {"city": "Lexington", "state": "SC", "country": "United States"}}, "player": {"id": 4987457, "gamerTag": "Artsman", "prefix": null, "user": {"location": {"city": "Lexington", "state": "SC", "country": "United States"}}}}]}}, {"id": 36666349, "seedNum": 6, "entrant": {"id": 21303347, "name": "REDD", "participants": [{"id": 19585213, "gamerTag": "REDD", "prefix": "", "user": {"location": {"city": "Valdosta", "state": "GA", "country": "United States"}}, "player": {"id": 1305309, "gamerTag": "REDD", "prefix": "", "user": {"location": {"city": "Valdosta", "state": "GA", "country": "United States"}}}}]}}, {"id": 36720255, "seedNum": 24, "entrant": {"id": 21338008, "name": "Toasty", "participants": [{"id": 19615561, "gamerTag": "Toasty", "prefix": null, "user": {"location": {"city": "Savannah", "state": "GA", "country": "United States"}}, "player": {"id": 3618897, "gamerTag": "Toasty", "prefix": null, "user": {"location": {"city": "Savannah", "state": "GA", "country": "United States"}}}}]}}, {"id": 36722618, "seedNum": 26, "entrant": {"id": 21339992, "name": "Mander19", "participants": [{"id": 19617398, "gamerTag": "Mander19", "prefix": null, "user": {"location": {"city": "", "state": "GA", "country": "United States"}}, "player": {"id": 4503550, "gamerTag": "Mander19", "prefix": null, "user": {"location": {"city": "", "state": "GA", "country": "United States"}}}}]}}]}}}