{"event": {"sets": {"pageInfo": {"totalPages": 4, "total": 50}, "nodes": [{"id": 93070598, "state": 3, "round": 1, "fullRoundText": "Winners Round 1", "completedAt": 1756082595, "winnerId": 21064914, "slots": [{"id": "93070598-0", "entrant": {"id": 21064914, "name": "PhaZe", "participants": [{"id": 19376644, "gamerTag": "PhaZe", "prefix": "", "user": {"location": {"city": "Gainesville", "state": "GA", "country": "United States"}}, "player": {"id": 36212, "gamerTag": "PhaZe", "prefix": "", "user": {"location": {"city": "Gainesville", "state": "GA", "country": "United States"}}}}]}, "standing": {"placement": 1, "stats": {"score": {"value": 2}}}}, {"id": "93070598-1", "entrant": {"id": 21062073, "name": "RentsDue", "participants": [{"id": 19374211, "gamerTag": "RentsDue", "prefix": "", "user": {"location": {"city": "Atlanta", "state": "GA", "country": "United States"}}, "player": {"id": 4928353, "gamerTag": "RentsDue", "prefix": "", "user": {"location": {"city": "Atlanta", "state": "GA", "country": "United States"}}}}]}, "standing": {"placement": 2, "stats": {"score": {"value": 0}}}}], "games": null}, {"id": 93070721, "state": 3, "round": -4, "fullRoundText": "Losers Quarter-Final", "completedAt": 1756090555, "winnerId": 21064905, "slots": [{"id": "93070721-0", "entrant": {"id": 21062548, "name": "Heart", "participants": [{"id": 19374629, "gamerTag": "Heart", "prefix": "", "user": {"location": {"city": "Atlanta", "state": "GA", "country": "United States"}}, "player": {"id": 4287822, "gamerTag": "Heart", "prefix": "", "user": {"location": {"city": "Atlanta", "state": "GA", "country": "United States"}}}}]}, "standing": {"placement": 2, "stats": {"score": {"value": 1}}}}, {"id": "93070721-1", "entrant": {"id": 21064905, "name": "Yummy", "participants": [{"id": 19376634, "gamerTag": "Yummy", "prefix": "", "user": {"location": {"city": "Atlanta", "state": "GA", "country": "United States"}}, "player": {"id": 1743866, "gamerTag": "Yummy", "prefix": "", "user": {"location": {"city": "Atlanta", "state": "GA", "country": "United States"}}}}]}, "standing": {"placement": 1, "stats": {"score": {"value": 2}}}}], "games": null}, {"id": 93070722, "state": 3, "round": -4, "fullRoundText": "Losers Quarter-Final", "completedAt": 1756092150, "winnerId": 21064144, "slots": [{"id": "93070722-0", "entrant": {"id": 21001847, "name": "Nurikami", "participants": [{"id": 19319604, "gamerTag": "Nurikami", "prefix": null, "user": {"location": {"city": "Sandy Springs", "state": "GA", "country": "United States"}}, "player": {"id": 2894467, "gamerTag": "Nurikami", "prefix": null, "user": {"location": {"city": "Sandy Springs", "state": "GA", "country": "United States"}}}}]}, "standing": {"placement": 2, "stats": {"score": {"value": 1}}}}, {"id": "93070722-1", "entrant": {"id": 21064144, "name": "TnT | Damp\u00e9", "participants": [{"id": 19375990, "gamerTag": "Damp\u00e9", "prefix": "TnT", "user": {"location": {"city": "Atlanta", "state": "GA", "country": "United States"}}, "player": {"id": 1170738, "gamerTag": "Damp\u00e9", "prefix": "TnT", "user": {"location": {"city": "Atlanta", "state": "GA", "country": "United States"}}}}]}, "standing": {"placement": 1, "stats": {"score": {"value": 2}}}}], "games": null}, {"id": 93070719, "state": 3, "round": -3, "fullRoundText": "Losers Round 1", "completedAt": 1756088697, "winnerId": 21064905, "slots": [{"id": "93070719-0", "entrant": {"id": 21064955, "name": "millano", "participants": [{"id": 19376678, "gamerTag": "millano", "prefix": "", "user": null, "player": {"id": 4214682, "gamerTag": "millano", "prefix": "", "user": null}}]}, "standing": {"placement": 2, "stats": {"score": {"value": 1}}}}, {"id": "93070719-1", "entrant": {"id": 21064905, "name": "Yummy", "participants": [{"id": 19376634, "gamerTag": "Yummy", "prefix": "", "user": {"location": {"city": "Atlanta", "state": "GA", "country": "United States"}}, "player": {"id": 1743866, "gamerTag": "Yummy", "prefix": "", "user": {"location": {"city": "Atlanta", "state": "GA", "country": "United States"}}}}]}, "standing": {"placement": 1, "stats": {"score": {"value": 2}}}}], "games": null}, {"id": 93070720, "state": 3, "round": -3, "fullRoundText": "Losers Round 1", "completedAt": 1756089268, "winnerId": 21064144, "slots": [{"id": "93070720-0", "entrant": {"id": 21064144, "name": "TnT | Damp\u00e9", "participants": [{"id": 19375990, "gamerTag": "Damp\u00e9", "prefix": "TnT", "user": {"location": {"city": "Atlanta", "state": "GA", "country": "United States"}}, "player": {"id": 1170738, "gamerTag": "Damp\u00e9", "prefix": "TnT", "user": {"location": {"city": "Atlanta", "state": "GA", "country": "United States"}}}}]}, "standing": {"placement": 1, "stats": {"score": {"value": 0}}}}, {"id": "93070720-1", "entrant": {"id": 21001844, "name": "TFT | Frank", "participants": [{"id": 19319601, "gamerTag": "Frank", "prefix": "TFT", "user": {"location": {"city": "Doraville", "state": "GA", "country": "United States"}}, "player": {"id": 1227401, "gamerTag": "Terry Labonte", "prefix": "TFT", "user": {"location": {"city": "Doraville", "state": "GA", "country": "United States"}}}}]}, "standing": {"placement": 2, "stats": {"score": {"value": -1}}}}], "games": null}]}}}