{"event": {"sets": {"pageInfo": {"totalPages": 2, "total": 30}, "nodes": [{"id": 93271198, "state": 3, "round": -4, "fullRoundText": "Losers Round 2", "completedAt": 1756577403, "winnerId": 21065599, "slots": [{"id": "93271198-0", "entrant": {"id": 20940688, "name": "InariF", "participants": [{"id": 19266364, "gamerTag": "InariF", "prefix": "", "user": {"location": {"city": "Crawfordville", "state": "FL", "country": "United States"}}, "player": {"id": 3603515, "gamerTag": "InariF", "prefix": "", "user": {"location": {"city": "Crawfordville", "state": "FL", "country": "United States"}}}}]}, "standing": {"placement": 2, "stats": {"score": {"value": 0}}}}, {"id": "93271198-1", "entrant": {"id": 21065599, "name": "ActiveFrameOne", "participants": [{"id": 19377228, "gamerTag": "ActiveFrameOne", "prefix": "", "user": {"location": {"city": "Atlanta", "state": "GA", "country": "United States"}}, "player": {"id": 4939270, "gamerTag": "ActiveFrameOne", "prefix": "", "user": {"location": {"city": "Atlanta", "state": "GA", "country": "United States"}}}}]}, "standing": {"placement": 1, "stats": {"score": {"value": 2}}}}], "games": null}, {"id": 93271199, "state": 3, "round": -4, "fullRoundText": "Losers Round 2", "completedAt": 1756577132, "winnerId": 21094646, "slots": [{"id": "93271199-0", "entrant": {"id": 21094646, "name": "Shadow Crescent", "participants": [{"id": 19403709, "gamerTag": "Shadow Crescent", "prefix": "", "user": {"location": {"city": "Dallas", "state": null, "country": "United States"}}, "player": {"id": 3587396, "gamerTag": "Shadow Crescent", "prefix": "", "user": {"location": {"city": "Dallas", "state": null, "country": "United States"}}}}]}, "standing": {"placement": 1, "stats": {"score": {"value": 2}}}}, {"id": "93271199-1", "entrant": {"id": 21073256, "name": "KFF", "participants": [{"id": 19384406, "gamerTag": "KFF", "prefix": null, "user": {"location": {"city": "Peachtree Corners", "state": "GA", "country": "United States"}}, "player": {"id": 1684133, "gamerTag": "KFF", "prefix": "", "user": {"location": {"city": "Peachtree Corners", "state": "GA", "country": "United States"}}}}]}, "standing": {"placement": 2, "stats": {"score": {"value": 0}}}}], "games": null}, {"id": 93271200, "state": 3, "round": -4, "fullRoundText": "Losers Round 2", "completedAt": 1756578036, "winnerId": 21105190, "slots": [{"id": "93271200-0", "entrant": {"id": 21079222, "name": "DaFunnyMan", "participants": [{"id": 19389821, "gamerTag": "DaFunnyMan", "prefix": "", "user": {"location": {"city": "Canton", "state": "GA", "country": "United States"}}, "player": {"id": 4278503, "gamerTag": "DaFunnyMan", "prefix": "", "user": {"location": {"city": "Canton", "state": "GA", "country": "United States"}}}}]}, "standing": {"placement": 2, "stats": {"score": {"value": 0}}}}, {"id": "93271200-1", "entrant": {"id": 21105190, "name": "ZeAxell", "participants": [{"id": 19413164, "gamerTag": "ZeAxell", "prefix": "", "user": {"location": {"city": "Loganville", "state": "GA", "country": "United States"}}, "player": {"id": 3771808, "gamerTag": "ZeAxell", "prefix": "", "user": {"location": {"city": "Loganville", "state": "GA", "country": "United States"}}}}]}, "standing": {"placement": 1, "stats": {"score": {"value": 2}}}}], "games": null}, {"id": 93271193, "state": 3, "round": -3, "fullRoundText": "Losers Round 1", "completedAt": 1756576279, "winnerId": 21075143, "slots": [{"id": "93271193-0", "entrant": {"id": 20887395, "name": "Avaris", "participants": [{"id": 19219223, "gamerTag": "Avaris", "prefix": null, "user": {"location": {"city": "Atlanta", "state": "GA", "country": "United States"}}, "player": {"id": 938501, "gamerTag": "Avaris", "prefix": null, "user": {"location": {"city": "Atlanta", "state": "GA", "country": "United States"}}}}]}, "standing": {"placement": 2, "stats": {"score": {"value": -1}}}}, {"id": "93271193-1", "entrant": {"id": 21075143, "name": "The World Warrior", "participants": [{"id": 19386015, "gamerTag": "The World Warrior", "prefix": null, "user": {"location": {"city": "Atlanta", "state": "GA", "country": "United States"}}, "player": {"id": 1369004, "gamerTag": "The World Warrior", "prefix": null, "user": {"location": {"city": "Atlanta", "state": "GA", "country": "United States"}}}}]}, "standing": {"placement": 1, "stats": {"score": {"value": null}}}}], "games": null}, {"id": 93271194, "state": 3, "round": -3, "fullRoundText": "Losers Round 1", "completedAt": 1756576137, "winnerId": 21065599, "slots": [{"id": "93271194-0", "entrant": {"id": 21016904, "name": "TB | Dean0", "participants": [{"id": 19333271, "gamerTag": "Dean0", "prefix": "TB", "user": {"location": {"city": "Woodstock", "state": "GA", "country": "United States"}}, "player": {"id": 4931303, "gamerTag": "Dean0", "prefix": "TB", "user": {"location": {"city": "Woodstock", "state": "GA", "country": "United States"}}}}]}, "standing": {"placement": 2, "stats": {"score": {"value": 0}}}}, {"id": "93271194-1", "entrant": {"id": 21065599, "name": "ActiveFrameOne", "participants": [{"id": 19377228, "gamerTag": "ActiveFrameOne", "prefix": "", "user": {"location": {"city": "Atlanta", "state": "GA", "country": "United States"}}, "player": {"id": 4939270, "gamerTag": "ActiveFrameOne", "prefix": "", "user": {"location": {"city": "Atlanta", "state": "GA", "country": "United States"}}}}]}, "standing": {"placement": 1, "stats": {"score": {"value": 2}}}}], "games": null}, {"id": 93271195, "state": 3, "round": -3, "fullRoundText": "Losers Round 1", "completedAt": 1756576298, "winnerId": 21073256, "slots": [{"id": "93271195-0", "entrant": {"id": 21118196, "name": "VGYT | Ankha5", "participants": [{"id": 19424807, "gamerTag": "Ankha5", "prefix": "VGYT", "user": {"location": {"city": "Marietta", "state": "GA", "country": "United States"}}, "player": {"id": 3578540, "gamerTag": "Ankha5", "prefix": "VGYT", "user": {"location": {"city": "Marietta", "state": "GA", "country": "United States"}}}}]}, "standing": {"placement": 2, "stats": {"score": {"value": -1}}}}, {"id": "93271195-1", "entrant": {"id": 21073256, "name": "KFF", "participants": [{"id": 19384406, "gamerTag": "KFF", "prefix": null, "user": {"location": {"city": "Peachtree Corners", "state": "GA", "country": "United States"}}, "player": {"id": 1684133, "gamerTag": "KFF", "prefix": "", "user": {"location": {"city": "Peachtree Corners", "state": "GA", "country": "United States"}}}}]}, "standing": {"placement": 1, "stats": {"score": {"value": null}}}}], "games": null}, {"id": 93271196, "state": 3, "round": -3, "fullRoundText": "Losers Round 1", "completedAt": 1756576799, "winnerId": 21105190, "slots": [{"id": "93271196-0", "entrant": {"id": 21105190, "name": "ZeAxell", "participants": [{"id": 19413164, "gamerTag": "ZeAxell", "prefix": "", "user": {"location": {"city": "Loganville", "state": "GA", "country": "United States"}}, "player": {"id": 3771808, "gamerTag": "ZeAxell", "prefix": "", "user": {"location": {"city": "Loganville", "state": "GA", "country": "United States"}}}}]}, "standing": {"placement": 1, "stats": {"score": {"value": 2}}}}, {"id": "93271196-1", "entrant": {"id": 21066383, "name": "NoDraw", "participants": [{"id": 19377956, "gamerTag": "NoDraw", "prefix": "", "user": {"location": {"city": null, "state": null, "country": null}}, "player": {"id": 1840654, "gamerTag": "NoDraw", "prefix": "", "user": {"location": {"city": null, "state": null, "country": null}}}}]}, "standing": {"placement": 2, "stats": {"score": {"value": 0}}}}], "games": null}, {"id": 93271160, "state": 3, "round": 1, "fullRoundText": "Winners Round 1", "completedAt": 1756576234, "winnerId": 21119381, "slots": [{"id": "93271160-0", "entrant": {"id": 20887395, "name": "Avaris", "participants": [{"id": 19219223, "gamerTag": "Avaris", "prefix": null, "user": {"location": {"city": "Atlanta", "state": "GA", "country": "United States"}}, "player": {"id": 938501, "gamerTag": "Avaris", "prefix": null, "user": {"location": {"city": "Atlanta", "state": "GA", "country": "United States"}}}}]}, "standing": {"placement": 2, "stats": {"score": {"value": -1}}}}, {"id": "93271160-1", "entrant": {"id": 21119381, "name": "Jemi Keiyns", "participants": [{"id": 19425900, "gamerTag": "Jemi Keiyns", "prefix": "", "user": {"location": {"city": null, "state": null, "country": null}}, "player": {"id": 3640628, "gamerTag": "Jemi Keiyns", "prefix": "", "user": {"location": {"city": null, "state": null, "country": null}}}}]}, "standing": {"placement": 1, "stats": {"score": {"value": null}}}}], "games": null}, {"id": 93271161, "state": 3, "round": 1, "fullRoundText": "Winners Round 1", "completedAt": 1756575717, "winnerId": 21079222, "slots": [{"id": "93271161-0", "entrant": {"id": 21075143, "name": "The World Warrior", "participants": [{"id": 19386015, "gamerTag": "The World Warrior", "prefix": null, "user": {"location": {"city": "Atlanta", "state": "GA", "country": "United States"}}, "player": {"id": 1369004, "gamerTag": "The World Warrior", "prefix": null, "user": {"location": {"city": "Atlanta", "state": "GA", "country": "United States"}}}}]}, "standing": {"placement": 2, "stats": {"score": {"value": 0}}}}, {"id": "93271161-1", "entrant": {"id": 21079222, "name": "DaFunnyMan", "participants": [{"id": 19389821, "gamerTag": "DaFunnyMan", "prefix": "", "user": {"location": {"city": "Canton", "state": "GA", "country": "United States"}}, "player": {"id": 4278503, "gamerTag": "DaFunnyMan", "prefix": "", "user": {"location": {"city": "Canton", "state": "GA", "country": "United States"}}}}]}, "standing": {"placement": 1, "stats": {"score": {"value": 2}}}}], "games": null}, {"id": 93271162, "state": 3, "round": 1, "fullRoundText": "Winners Round 1", "completedAt": 1756575569, "winnerId": 21097931, "slots": [{"id": "93271162-0", "entrant": {"id": 21016904, "name": "TB | Dean0", "participants": [{"id": 19333271, "gamerTag": "Dean0", "prefix": "TB", "user": {"location": {"city": "Woodstock", "state": "GA", "country": "United States"}}, "player": {"id": 4931303, "gamerTag": "Dean0", "prefix": "TB", "user": {"location": {"city": "Woodstock", "state": "GA", "country": "United States"}}}}]}, "standing": {"placement": 2, "stats": {"score": {"value": 0}}}}, {"id": "93271162-1", "entrant": {"id": 21097931, "name": "Darth_Prysm-1", "participants": [{"id": 19406411, "gamerTag": "Darth_Prysm-1", "prefix": null, "user": {"location": {"city": "Woodstock", "state": "GA", "country": "United States"}}, "player": {"id": 4269051, "gamerTag": "Darth_Prysm-1", "prefix": null, "user": {"location": {"city": "Woodstock", "state": "GA", "country": "United States"}}}}]}, "standing": {"placement": 1, "stats": {"score": {"value": 2}}}}], "games": null}, {"id": 93271163, "state": 3, "round": 1, "fullRoundText": "Winners Round 1", "completedAt": 1756575536, "winnerId": 21094646, "slots": [{"id": "93271163-0", "entrant": {"id": 21065599, "name": "ActiveFrameOne", "participants": [{"id": 19377228, "gamerTag": "ActiveFrameOne", "prefix": "", "user": {"location": {"city": "Atlanta", "state": "GA", "country": "United States"}}, "player": {"id": 4939270, "gamerTag": "ActiveFrameOne", "prefix": "", "user": {"location": {"city": "Atlanta", "state": "GA", "country": "United States"}}}}]}, "standing": {"placement": 2, "stats": {"score": {"value": 1}}}}, {"id": "93271163-1", "entrant": {"id": 21094646, "name": "Shadow Crescent", "participants": [{"id": 19403709, "gamerTag": "Shadow Crescent", "prefix": "", "user": {"location": {"city": "Dallas", "state": null, "country": "United States"}}, "player": {"id": 3587396, "gamerTag": "Shadow Crescent", "prefix": "", "user": {"location": {"city": "Dallas", "state": null, "country": "United States"}}}}]}, "standing": {"placement": 1, "stats": {"score": {"value": 2}}}}], "games": null}, {"id": 93271164, "state": 3, "round": 1, "fullRoundText": "Winners Round 1", "completedAt": 1756575786, "winnerId": 20940688, "slots": [{"id": "93271164-0", "entrant": {"id": 20940688, "name": "InariF", "participants": [{"id": 19266364, "gamerTag": "InariF", "prefix": "", "user": {"location": {"city": "Crawfordville", "state": "FL", "country": "United States"}}, "player": {"id": 3603515, "gamerTag": "InariF", "prefix": "", "user": {"location": {"city": "Crawfordville", "state": "FL", "country": "United States"}}}}]}, "standing": {"placement": 1, "stats": {"score": {"value": null}}}}, {"id": "93271164-1", "entrant": {"id": 21118196, "name": "VGYT | Ankha5", "participants": [{"id": 19424807, "gamerTag": "Ankha5", "prefix": "VGYT", "user": {"location": {"city": "Marietta", "state": "GA", "country": "United States"}}, "player": {"id": 3578540, "gamerTag": "Ankha5", "prefix": "VGYT", "user": {"location": {"city": "Marietta", "state": "GA", "country": "United States"}}}}]}, "standing": {"placement": 2, "stats": {"score": {"value": -1}}}}], "games": null}, {"id": 93271165, "state": 3, "round": 1, "fullRoundText": "Winners Round 1", "completedAt": 1756575656, "winnerId": 21088984, "slots": [{"id": "93271165-0", "entrant": {"id": 21073256, "name": "KFF", "participants": [{"id": 19384406, "gamerTag": "KFF", "prefix": null, "user": {"location": {"city": "Peachtree Corners", "state": "GA", "country": "United States"}}, "player": {"id": 1684133, "gamerTag": "KFF", "prefix": "", "user": {"location": {"city": "Peachtree Corners", "state": "GA", "country": "United States"}}}}]}, "standing": {"placement": 2, "stats": {"score": {"value": 0}}}}, {"id": "93271165-1", "entrant": {"id": 21088984, "name": "Hambone", "participants": [{"id": 19398486, "gamerTag": "Hambone", "prefix": "", "user": {"location": {"city": "Atlanta", "state": "GA", "country": "United States"}}, "player": {"id": 4943239, "gamerTag": "Hambone", "prefix": "", "user": {"location": {"city": "Atlanta", "state": "GA", "country": "United States"}}}}]}, "standing": {"placement": 1, "stats": {"score": {"value": 2}}}}], "games": null}, {"id": 93271166, "state": 3, "round": 1, "fullRoundText": "Winners Round 1", "completedAt": 1756576345, "winnerId": 20974571, "slots": [{"id": "93271166-0", "entrant": {"id": 20974571, "name": "Jel-Sensei", "participants": [{"id": 19295829, "gamerTag": "Jel-Sensei", "prefix": "", "user": {"location": {"city": "birmingham", "state": "AL", "country": "United States"}}, "player": {"id": 1966345, "gamerTag": "Jel-Sensei", "prefix": "", "user": {"location": {"city": "birmingham", "state": "AL", "country": "United States"}}}}]}, "standing": {"placement": 1, "stats": {"score": {"value": 2}}}}, {"id": "93271166-1", "entrant": {"id": 21105190, "name": "ZeAxell", "participants": [{"id": 19413164, "gamerTag": "ZeAxell", "prefix": "", "user": {"location": {"city": "Loganville", "state": "GA", "country": "United States"}}, "player": {"id": 3771808, "gamerTag": "ZeAxell", "prefix": "", "user": {"location": {"city": "Loganville", "state": "GA", "country": "United States"}}}}]}, "standing": {"placement": 2, "stats": {"score": {"value": 1}}}}], "games": null}, {"id": 93271167, "state": 3, "round": 1, "fullRoundText": "Winners Round 1", "completedAt": 1756575488, "winnerId": 21089315, "slots": [{"id": "93271167-0", "entrant": {"id": 21066383, "name": "NoDraw", "participants": [{"id": 19377956, "gamerTag": "NoDraw", "prefix": "", "user": {"location": {"city": null, "state": null, "country": null}}, "player": {"id": 1840654, "gamerTag": "NoDraw", "prefix": "", "user": {"location": {"city": null, "state": null, "country": null}}}}]}, "standing": {"placement": 2, "stats": {"score": {"value": 0}}}}, {"id": "93271167-1", "entrant": {"id": 21089315, "name": "Archway", "participants": [{"id": 19398797, "gamerTag": "Archway", "prefix": "", "user": {"location": {"city": "Sandy Springs", "state": "GA", "country": "United States"}}, "player": {"id": 1435251, "gamerTag": "Archway", "prefix": "", "user": {"location": {"city": "Sandy Springs", "state": "GA", "country": "United States"}}}}]}, "standing": {"placement": 1, "stats": {"score": {"value": 2}}}}], "games": null}]}}}