{"phase": {"seeds": {"pageInfo": {"totalPages": 1, "total": 25}, "nodes": [{"id": 35947236, "seedNum": 1, "entrant": {"id": 20836441, "name": "Alex_dotdot", "participants": [{"id": 19174205, "gamerTag": "Alex_dotdot", "prefix": null, "user": {"location": {"city": "Tucker", "state": "GA", "country": "United States"}}, "player": {"id": 657023, "gamerTag": "Alex_dotdot", "prefix": null, "user": {"location": {"city": "Tucker", "state": "GA", "country": "United States"}}}}]}}, {"id": 35945636, "seedNum": 3, "entrant": {"id": 20835204, "name": "4o4 | Musa", "participants": [{"id": 19173148, "gamerTag": "Musa", "prefix": "4o4", "user": {"location": {"city": null, "state": null, "country": "United States"}}, "player": {"id": 131537, "gamerTag": "Musa", "prefix": "4o4", "user": {"location": {"city": null, "state": null, "country": "United States"}}}}]}}, {"id": 35944656, "seedNum": 2, "entrant": {"id": 20834457, "name": "Buddylikefriend", "participants": [{"id": 19172554, "gamerTag": "Buddylikefriend", "prefix": null, "user": {"location": {"city": "Atlanta", "state": "GA", "country": "United States"}}, "player": {"id": 785557, "gamerTag": "Buddylikefriend", "prefix": null, "user": {"location": {"city": "Atlanta", "state": "GA", "country": "United States"}}}}]}}, {"id": 35947488, "seedNum": 4, "entrant": {"id": 20836668, "name": "4o4 | byronic zero", "participants": [{"id": 19174388, "gamerTag": "byronic zero", "prefix": "4o4", "user": {"location": {"city": "Atlanta", "state": "GA", "country": "United States"}}, "player": {"id": 3577590, "gamerTag": "byronic zero", "prefix": "4o4", "user": {"location": {"city": "Atlanta", "state": "GA", "country": "United States"}}}}]}}, {"id": 35944652, "seedNum": 6, "entrant": {"id": 20834453, "name": "4o4 | Yugo", "participants": [{"id": 19172551, "gamerTag": "Yugo", "prefix": "4o4", "user": {"location": {"city": "Sandy springs", "state": "GA", "country": "United States"}}, "player": {"id": 338020, "gamerTag": "Yugo", "prefix": "4o4", "user": {"location": {"city": "Sandy springs", "state": "GA", "country": "United States"}}}}]}}, {"id": 35947431, "seedNum": 9, "entrant": {"id": 20836605, "name": "Archway", "participants": [{"id": 19174343, "gamerTag": "Archway", "prefix": "", "user": {"location": {"city": "Sandy Springs", "state": "GA", "country": "United States"}}, "player": {"id": 1435251, "gamerTag": "Archway", "prefix": "", "user": {"location": {"city": "Sandy Springs", "state": "GA", "country": "United States"}}}}]}}, {"id": 35947399, "seedNum": 5, "entrant": {"id": 20836574, "name": "4o4 | chrisymandias", "participants": [{"id": 19174315, "gamerTag": "chrisymandias", "prefix": "4o4", "user": {"location": {"city": "Dacula", "state": "GA", "country": "United States"}}, "player": {"id": 258173, "gamerTag": "chrisymandias", "prefix": "4o4", "user": {"location": {"city": "Dacula", "state": "GA", "country": "United States"}}}}]}}, {"id": 35947162, "seedNum": 8, "entrant": {"id": 20836374, "name": "Enn Vee", "participants": [{"id": 19174156, "gamerTag": "Enn Vee", "prefix": null, "user": {"location": {"city": "111 Glenridge Point Parkway", "state": "GA", "country": "United States"}}, "player": {"id": 4725571, "gamerTag": "Enn Vee", "prefix": null, "user": {"location": {"city": "111 Glenridge Point Parkway", "state": "GA", "country": "United States"}}}}]}}, {"id": 35946083, "seedNum": 7, "entrant": {"id": 20835575, "name": "Noodle", "participants": [{"id": 19173475, "gamerTag": "Noodle", "prefix": null, "user": {"location": {"city": "McDonough", "state": "GA", "country": "United States"}}, "player": {"id": 3029288, "gamerTag": "Noodle", "prefix": "", "user": {"location": {"city": "McDonough", "state": "GA", "country": "United States"}}}}]}}, {"id": 35948735, "seedNum": 10, "entrant": {"id": 20836892, "name": "MBossProductions", "participants": [{"id": 19174585, "gamerTag": "MBossProductions", "prefix": "", "user": {"location": {"city": "Norcross", "state": "GA", "country": "United States"}}, "player": {"id": 1997490, "gamerTag": "MBossProductions", "prefix": "", "user": {"location": {"city": "Norcross", "state": "GA", "country": "United States"}}}}]}}, {"id": 35948739, "seedNum": 13, "entrant": {"id": 20836896, "name": "4o4 | Count", "participants": [{"id": 19174593, "gamerTag": "Count", "prefix": "4o4", "user": {"location": {"city": "Atlanta", "state": "GA", "country": "United States"}}, "player": {"id": 30732, "gamerTag": "Count", "prefix": "4o4", "user": {"location": {"city": "Atlanta", "state": "GA", "country": "United States"}}}}]}}, {"id": 35947609, "seedNum": 24, "entrant": {"id": 20836785, "name": "LukeWarm", "participants": [{"id": 19174478, "gamerTag": "LukeWarm", "prefix": "", "user": {"location": {"city": "Alpharetta", "state": "GA", "country": "United States"}}, "player": {"id": 1348903, "gamerTag": "LukeWarm", "prefix": "", "user": {"location": {"city": "Alpharetta", "state": "GA", "country": "United States"}}}}]}}, {"id": 35941395, "seedNum": 11, "entrant": {"id": 20831754, "name": "EDLN | Ultimaleo", "participants": [{"id": 19170192, "gamerTag": "Ultimaleo", "prefix": "EDLN", "user": {"location": {"city": "Norcross", "state": "GA", "country": "United States"}}, "player": {"id": 66886, "gamerTag": "Ultimaleo", "prefix": "EDLN", "user": {"location": {"city": "Norcross", "state": "GA", "country": "United States"}}}}]}}, {"id": 35945545, "seedNum": 15, "entrant": {"id": 20835117, "name": "Nightjar Ninja", "participants": [{"id": 19173072, "gamerTag": "Nightjar Ninja", "prefix": null, "user": {"location": {"city": "Atlanta", "state": "GA", "country": "United States"}}, "player": {"id": 3694663, "gamerTag": "Nightjar Ninja", "prefix": null, "user": {"location": {"city": "Atlanta", "state": "GA", "country": "United States"}}}}]}}, {"id": 35946343, "seedNum": 18, "entrant": {"id": 20835725, "name": "Leon Nights", "participants": [{"id": 19173602, "gamerTag": "Leon Nights", "prefix": null, "user": {"location": {"city": "Atlanta", "state": "GA", "country": "United States"}}, "player": {"id": 4752335, "gamerTag": "Leon Nights", "prefix": null, "user": {"location": {"city": "Atlanta", "state": "GA", "country": "United States"}}}}]}}, {"id": 35947498, "seedNum": 22, "entrant": {"id": 20836669, "name": "FGCBoomers | PotionSTAT", "participants": [{"id": 19174389, "gamerTag": "PotionSTAT", "prefix": "FGCBoomers", "user": {"location": {"city": "Atlanta", "state": "GA", "country": "United States"}}, "player": {"id": 3280223, "gamerTag": "PotionSTAT", "prefix": "FGCBoomers", "user": {"location": {"city": "Atlanta", "state": "GA", "country": "United States"}}}}]}}, {"id": 35942805, "seedNum": 12, "entrant": {"id": 20832894, "name": "4o4 | KhalRhaego", "participants": [{"id": 19171197, "gamerTag": "KhalRhaego", "prefix": "4o4", "user": {"location": {"city": "Jonesboro", "state": "GA", "country": "United States"}}, "player": {"id": 4076327, "gamerTag": "KhalRhaego", "prefix": "BOLT", "user": {"location": {"city": "Jonesboro", "state": "GA", "country": "United States"}}}}]}}, {"id": 35941585, "seedNum": 14, "entrant": {"id": 20831883, "name": "Pazure", "participants": [{"id": 19170310, "gamerTag": "Pazure", "prefix": null, "user": {"location": {"city": null, "state": null, "country": "United States"}}, "player": {"id": 72218, "gamerTag": "Pazure", "prefix": null, "user": {"location": {"city": null, "state": null, "country": "United States"}}}}]}}, {"id": 35947511, "seedNum": 16, "entrant": {"id": 20836693, "name": "Xangief", "participants": [{"id": 19174403, "gamerTag": "Xangief", "prefix": null, "user": {"location": {"city": "Atlanta", "state": "GA", "country": "United States"}}, "player": {"id": 135082, "gamerTag": "Xangief", "prefix": null, "user": {"location": {"city": "Atlanta", "state": "GA", "country": "United States"}}}}]}}, {"id": 35943820, "seedNum": 17, "entrant": {"id": 20833777, "name": "WhatMike", "participants": [{"id": 19171969, "gamerTag": "WhatMike", "prefix": "", "user": {"location": {"city": "Oakwood", "state": "GA", "country": "United States"}}, "player": {"id": 154427, "gamerTag": "WhatMike", "prefix": "", "user": {"location": {"city": "Oakwood", "state": "GA", "country": "United States"}}}}]}}, {"id": 35947398, "seedNum": 19, "entrant": {"id": 20836573, "name": "Xanadew", "participants": [{"id": 19174314, "gamerTag": "Xanadew", "prefix": "", "user": {"location": {"city": "Milton", "state": null, "country": "United States"}}, "player": {"id": 3477650, "gamerTag": "Xanadew", "prefix": "", "user": {"location": {"city": "Milton", "state": null, "country": "United States"}}}}]}}, {"id": 35947400, "seedNum": 20, "entrant": {"id": 20836575, "name": "den | Sinsei", "participants": [{"id": 19174316, "gamerTag": "Sinsei", "prefix": "den", "user": {"location": {"city": "Milton", "state": "GA", "country": "United States"}}, "player": {"id": 1219250, "gamerTag": "Sinsei", "prefix": "00", "user": {"location": {"city": "Milton", "state": "GA", "country": "United States"}}}}]}}, {"id": 35947408, "seedNum": 21, "entrant": {"id": 20836583, "name": "Movbey", "participants": [{"id": 19174323, "gamerTag": "Movbey", "prefix": "", "user": {"location": {"city": null, "state": null, "country": null}}, "player": {"id": 1586235, "gamerTag": "Movbey", "prefix": "", "user": {"location": {"city": null, "state": null, "country": null}}}}]}}, {"id": 35947524, "seedNum": 23, "entrant": {"id": 20836709, "name": "K4", "participants": [{"id": 19174415, "gamerTag": "K4", "prefix": null, "user": {"location": {"city": "Atlanta", "state": "GA", "country": "United States"}}, "player": {"id": 3508179, "gamerTag": "K4", "prefix": null, "user": {"location": {"city": "Atlanta", "state": "GA", "country": "United States"}}}}]}}, {"id": 35947615, "seedNum": 25, "entrant": {"id": 20836791, "name": "Killteca", "participants": [{"id": 19174484, "gamerTag": "Killteca", "prefix": null, "user": {"location": {"city": "Alpharetta", "state": "GA", "country": "United States"}}, "player": {"id": 4630213, "gamerTag": "Killteca", "prefix": null, "user": {"location": {"city": "Alpharetta", "state": "GA", "country": "United States"}}}}]}}]}}}