{"phase": {"seeds": {"pageInfo": {"totalPages": 1, "total": 8}, "nodes": [{"id": 36721952, "seedNum": 1, "entrant": {"id": 21339495, "name": "IriZA", "participants": [{"id": 19616927, "gamerTag": "IriZA", "prefix": "", "user": {"location": {"city": "Savannah", "state": "TX", "country": "United States"}}, "player": {"id": 3784092, "gamerTag": "IriZA", "prefix": "", "user": {"location": {"city": "Savannah", "state": "TX", "country": "United States"}}}}]}}, {"id": 36722757, "seedNum": 8, "entrant": {"id": 21340084, "name": "Cotteneyes", "participants": [{"id": 19617430, "gamerTag": "Cotteneyes", "prefix": null, "user": {"location": {"city": null, "state": null, "country": null}}, "player": {"id": 1008934, "gamerTag": "Cotteneyes", "prefix": null, "user": {"location": {"city": null, "state": null, "country": null}}}}]}}, {"id": 36721749, "seedNum": 2, "entrant": {"id": 21339334, "name": "Aloe", "participants": [{"id": 19616784, "gamerTag": "Aloe", "prefix": null, "user": {"location": {"city": "Savannah", "state": "WI", "country": "United States"}}, "player": {"id": 2656903, "gamerTag": "Aloe", "prefix": null, "user": {"location": {"city": "Savannah", "state": "WI", "country": "United States"}}}}]}}, {"id": 36721347, "seedNum": 4, "entrant": {"id": 21339011, "name": "Evolve", "participants": [{"id": 19616473, "gamerTag": "Evolve", "prefix": "", "user": {"location": {"city": null, "state": null, "country": "United States"}}, "player": {"id": 2928069, "gamerTag": "Evolve", "prefix": "", "user": {"location": {"city": null, "state": null, "country": "United States"}}}}]}}, {"id": 36721996, "seedNum": 3, "entrant": {"id": 21339523, "name": "SQ1 | Luff", "participants": [{"id": 19616954, "gamerTag": "Luff", "prefix": "SQ1", "user": {"location": {"city": "Savannah", "state": "GA", "country": "United States"}}, "player": {"id": 4102348, "gamerTag": "Luff", "prefix": "SQ1", "user": {"location": {"city": "Savannah", "state": "GA", "country": "United States"}}}}]}}, {"id": 36722225, "seedNum": 6, "entrant": {"id": 21339677, "name": "dertdobber", "participants": [{"id": 19617116, "gamerTag": "dertdobber", "prefix": null, "user": {"location": {"city": "Savannah", "state": "GA", "country": "United States"}}, "player": {"id": 173899, "gamerTag": "dertdobber", "prefix": null, "user": {"location": {"city": "Savannah", "state": "GA", "country": "United States"}}}}]}}, {"id": 36722015, "seedNum": 5, "entrant": {"id": 21339541, "name": "Armor Jeff", "participants": [{"id": 19616967, "gamerTag": "Armor Jeff", "prefix": "", "user": {"location": {"city": "Savannah", "state": "GA", "country": "United States"}}, "player": {"id": 3937751, "gamerTag": "Armor Jeff", "prefix": "", "user": {"location": {"city": "Savannah", "state": "GA", "country": "United States"}}}}]}}, {"id": 36721714, "seedNum": 7, "entrant": {"id": 21339298, "name": "SQ1 | TheFamilyPanda", "participants": [{"id": 19616757, "gamerTag": "TheFamilyPanda", "prefix": "SQ1", "user": {"location": {"city": "Savannah", "state": "GA", "country": "United States"}}, "player": {"id": 2228673, "gamerTag": "TheFamilyPanda", "prefix": "SQ1", "user": {"location": {"city": "Savannah", "state": "GA", "country": "United States"}}}}]}}]}}}