{"phase": {"seeds": {"pageInfo": {"totalPages": 1, "total": 7}, "nodes": [{"id": 35633895, "seedNum": 1, "entrant": {"id": 20632465, "name": "Gambill", "participants": [{"id": 18993396, "gamerTag": "Gambill", "prefix": null, "user": {"location": {"city": "Aiken", "state": "SC", "country": "United States"}}, "player": {"id": 669261, "gamerTag": "Gambill", "prefix": null, "user": {"location": {"city": "Aiken", "state": "SC", "country": "United States"}}}}]}}, {"id": 35800107, "seedNum": 4, "entrant": {"id": 20748167, "name": "Shifty", "participants": [{"id": 19093740, "gamerTag": "Shifty", "prefix": "", "user": {"location": {"city": "Evans", "state": "GA", "country": "United States"}}, "player": {"id": 4387897, "gamerTag": "Shifty", "prefix": "", "user": {"location": {"city": "Evans", "state": "GA", "country": "United States"}}}}]}}, {"id": 35918193, "seedNum": 6, "entrant": {"id": 20816571, "name": "Whack", "participants": [{"id": 19156273, "gamerTag": "Whack", "prefix": null, "user": {"location": {"city": null, "state": null, "country": null}}, "player": {"id": 68999, "gamerTag": "Whack", "prefix": null, "user": {"location": {"city": null, "state": null, "country": null}}}}]}}, {"id": 35916510, "seedNum": 5, "entrant": {"id": 20815450, "name": "Foam Root", "participants": [{"id": 19155291, "gamerTag": "Foam Root", "prefix": "", "user": {"location": {"city": "Covington", "state": "GA", "country": "United States"}}, "player": {"id": 541222, "gamerTag": "Foam Root", "prefix": "", "user": {"location": {"city": "Covington", "state": "GA", "country": "United States"}}}}]}}, {"id": 35681881, "seedNum": 2, "entrant": {"id": 20666090, "name": "CV | NiNE", "participants": [{"id": 19022574, "gamerTag": "NiNE", "prefix": "CV", "user": {"location": {"city": "Augusta", "state": "GA", "country": "United States"}}, "player": {"id": 25337, "gamerTag": "NiNE", "prefix": "CV", "user": {"location": {"city": "Augusta", "state": "GA", "country": "United States"}}}}]}}, {"id": 35918285, "seedNum": 7, "entrant": {"id": 20816665, "name": "PCV305", "participants": [{"id": 19026984, "gamerTag": "PCV305", "prefix": null, "user": {"location": {"city": "Augusta", "state": "GA", "country": "United States"}}, "player": {"id": 4327979, "gamerTag": "PCV305", "prefix": null, "user": {"location": {"city": "Augusta", "state": "GA", "country": "United States"}}}}]}}, {"id": 35732184, "seedNum": 3, "entrant": {"id": 20702517, "name": "Alia", "participants": [{"id": 19053761, "gamerTag": "Alia", "prefix": "", "user": {"location": {"city": "Columbia", "state": "SC", "country": "United States"}}, "player": {"id": 3619482, "gamerTag": "Alia", "prefix": "", "user": {"location": {"city": "Columbia", "state": "SC", "country": "United States"}}}}]}}]}}}