{"event": {"sets": {"pageInfo": {"totalPages": 9, "total": 123}, "nodes": [{"id": 92091574, "state": 3, "round": 2, "fullRoundText": "Winners Round 2", "completedAt": 1754011534, "winnerId": 20829882, "slots": [{"id": "92091574-0", "entrant": {"id": 20829882, "name": "Tobe", "participants": [{"id": 19168243, "gamerTag": "Tobe", "prefix": "", "user": {"location": {"city": "Buford", "state": "GA", "country": "United States"}}, "player": {"id": 1646132, "gamerTag": "Tobe", "prefix": "", "user": {"location": {"city": "Buford", "state": "GA", "country": "United States"}}}}]}, "standing": {"placement": 1, "stats": {"score": {"value": 2}}}}, {"id": "92091574-1", "entrant": {"id": 20853871, "name": "Barbashop", "participants": [{"id": 19189831, "gamerTag": "Barbashop", "prefix": "", "user": {"location": {"city": null, "state": null, "country": null}}, "player": {"id": 2537853, "gamerTag": "Barbashop", "prefix": "", "user": {"location": {"city": null, "state": null, "country": null}}}}]}, "standing": {"placement": 2, "stats": {"score": {"value": 0}}}}], "games": null}, {"id": 92091575, "state": 3, "round": 2, "fullRoundText": "Winners Round 2", "completedAt": 1754011565, "winnerId": 20852779, "slots": [{"id": "92091575-0", "entrant": {"id": 20852779, "name": "GUMP2 | Eleven", "participants": [{"id": 19188857, "gamerTag": "Eleven", "prefix": "GUMP2", "user": {"location": {"city": null, "state": null, "country": null}}, "player": {"id": 2348605, "gamerTag": "Ryu from Streets", "prefix": "GUMP2", "user": {"location": {"city": null, "state": null, "country": null}}}}]}, "standing": {"placement": 1, "stats": {"score": {"value": 2}}}}, {"id": "92091575-1", "entrant": {"id": 20853383, "name": "red dot", "participants": [{"id": 19189403, "gamerTag": "red dot", "prefix": "", "user": {"location": {"city": "Milton", "state": "GA", "country": "United States"}}, "player": {"id": 1812177, "gamerTag": "red dot", "prefix": "", "user": {"location": {"city": "Milton", "state": "GA", "country": "United States"}}}}]}, "standing": {"placement": 2, "stats": {"score": {"value": 1}}}}], "games": null}, {"id": 92091576, "state": 3, "round": 2, "fullRoundText": "Winners Round 2", "completedAt": 1754011756, "winnerId": 20853046, "slots": [{"id": "92091576-0", "entrant": {"id": 20853046, "name": "Kailen", "participants": [{"id": 19189087, "gamerTag": "Kailen", "prefix": "", "user": {"location": {"city": "Atlanta", "state": "GA", "country": "United States"}}, "player": {"id": 1647157, "gamerTag": "Kailen", "prefix": "", "user": {"location": {"city": "Atlanta", "state": "GA", "country": "United States"}}}}]}, "standing": {"placement": 1, "stats": {"score": {"value": 2}}}}, {"id": "92091576-1", "entrant": {"id": 20845383, "name": "CeR | scruffie:))", "participants": [{"id": 19182033, "gamerTag": "scruffie:))", "prefix": "CeR", "user": {"location": {"city": "Boca raton", "state": "FL", "country": "United States"}}, "player": {"id": 1894348, "gamerTag": "scruffie:))", "prefix": "", "user": {"location": {"city": "Boca raton", "state": "FL", "country": "United States"}}}}]}, "standing": {"placement": 2, "stats": {"score": {"value": 0}}}}], "games": null}, {"id": 92091674, "state": 3, "round": -4, "fullRoundText": "Losers Round 2", "completedAt": 1754013178, "winnerId": 20853526, "slots": [{"id": "92091674-0", "entrant": {"id": 20845383, "name": "CeR | scruffie:))", "participants": [{"id": 19182033, "gamerTag": "scruffie:))", "prefix": "CeR", "user": {"location": {"city": "Boca raton", "state": "FL", "country": "United States"}}, "player": {"id": 1894348, "gamerTag": "scruffie:))", "prefix": "", "user": {"location": {"city": "Boca raton", "state": "FL", "country": "United States"}}}}]}, "standing": {"placement": 2, "stats": {"score": {"value": 1}}}}, {"id": "92091674-1", "entrant": {"id": 20853526, "name": "Rain~", "participants": [{"id": 19189536, "gamerTag": "Rain~", "prefix": null, "user": {"location": {"city": "Atlanta", "state": "GA", "country": "United States"}}, "player": {"id": 4240164, "gamerTag": "Rain~", "prefix": null, "user": {"location": {"city": "Atlanta", "state": "GA", "country": "United States"}}}}]}, "standing": {"placement": 1, "stats": {"score": {"value": 2}}}}], "games": null}, {"id": 92091675, "state": 3, "round": -4, "fullRoundText": "Losers Round 2", "completedAt": 1754012569, "winnerId": 20853383, "slots": [{"id": "92091675-0", "entrant": {"id": 20853383, "name": "red dot", "participants": [{"id": 19189403, "gamerTag": "red dot", "prefix": "", "user": {"location": {"city": "Milton", "state": "GA", "country": "United States"}}, "player": {"id": 1812177, "gamerTag": "red dot", "prefix": "", "user": {"location": {"city": "Milton", "state": "GA", "country": "United States"}}}}]}, "standing": {"placement": 1, "stats": {"score": {"value": 2}}}}, {"id": "92091675-1", "entrant": {"id": 20853430, "name": "SamRice", "participants": [{"id": 19189446, "gamerTag": "SamRice", "prefix": "", "user": {"location": {"city": "Norcross", "state": "GA", "country": "United States"}}, "player": {"id": 2387403, "gamerTag": "SamRice", "prefix": "", "user": {"location": {"city": "Norcross", "state": "GA", "country": "United States"}}}}]}, "standing": {"placement": 2, "stats": {"score": {"value": 0}}}}], "games": null}, {"id": 92091676, "state": 3, "round": -4, "fullRoundText": "Losers Round 2", "completedAt": 1754012398, "winnerId": 20853871, "slots": [{"id": "92091676-0", "entrant": {"id": 20853871, "name": "Barbashop", "participants": [{"id": 19189831, "gamerTag": "Barbashop", "prefix": "", "user": {"location": {"city": null, "state": null, "country": null}}, "player": {"id": 2537853, "gamerTag": "Barbashop", "prefix": "", "user": {"location": {"city": null, "state": null, "country": null}}}}]}, "standing": {"placement": 1, "stats": {"score": {"value": 2}}}}, {"id": "92091676-1", "entrant": {"id": 20853218, "name": "KSU | colorful\u029a\u025e", "participants": [{"id": 19189247, "gamerTag": "colorful\u029a\u025e", "prefix": "KSU", "user": {"location": {"city": "Kennesaw", "state": "GA", "country": "United States"}}, "player": {"id": 1783074, "gamerTag": "colorful\u029a\u025e", "prefix": "KSU | RM", "user": {"location": {"city": "Kennesaw", "state": "GA", "country": "United States"}}}}]}, "standing": {"placement": 2, "stats": {"score": {"value": 0}}}}], "games": null}, {"id": 92091677, "state": 3, "round": -4, "fullRoundText": "Losers Round 2", "completedAt": 1754012325, "winnerId": 20853043, "slots": [{"id": "92091677-0", "entrant": {"id": 20854018, "name": "mania", "participants": [{"id": 19189961, "gamerTag": "mania", "prefix": "", "user": {"location": {"city": "Atlanta", "state": "GA", "country": "United States"}}, "player": {"id": 2785367, "gamerTag": "mania", "prefix": "", "user": {"location": {"city": "Atlanta", "state": "GA", "country": "United States"}}}}]}, "standing": {"placement": 2, "stats": {"score": {"value": 0}}}}, {"id": "92091677-1", "entrant": {"id": 20853043, "name": "Andromeda", "participants": [{"id": 19189082, "gamerTag": "Andromeda", "prefix": "", "user": {"location": {"city": "Columbus", "state": "GA", "country": "United States"}}, "player": {"id": 1458791, "gamerTag": "Andromeda", "prefix": "", "user": {"location": {"city": "Columbus", "state": "GA", "country": "United States"}}}}]}, "standing": {"placement": 1, "stats": {"score": {"value": 2}}}}], "games": null}, {"id": 92091678, "state": 3, "round": -4, "fullRoundText": "Losers Round 2", "completedAt": 1754012792, "winnerId": 20849587, "slots": [{"id": "92091678-0", "entrant": {"id": 20849587, "name": "LBE | Savant", "participants": [{"id": 19185809, "gamerTag": "Savant", "prefix": "LBE", "user": {"location": {"city": "Athens", "state": "GA", "country": "United States"}}, "player": {"id": 1944044, "gamerTag": "Savant", "prefix": "LBE | CC", "user": {"location": {"city": "Athens", "state": "GA", "country": "United States"}}}}]}, "standing": {"placement": 1, "stats": {"score": {"value": 2}}}}, {"id": "92091678-1", "entrant": {"id": 20853659, "name": "HelpMe", "participants": [{"id": 19189656, "gamerTag": "HelpMe", "prefix": null, "user": {"location": {"city": null, "state": "GA", "country": "United States"}}, "player": {"id": 1693617, "gamerTag": "HelpMe", "prefix": null, "user": {"location": {"city": null, "state": "GA", "country": "United States"}}}}]}, "standing": {"placement": 2, "stats": {"score": {"value": 0}}}}], "games": null}, {"id": 92091679, "state": 3, "round": -4, "fullRoundText": "Losers Round 2", "completedAt": 1754012012, "winnerId": 20847298, "slots": [{"id": "92091679-0", "entrant": {"id": 20847298, "name": "cO | Netherlord64", "participants": [{"id": 19183708, "gamerTag": "Netherlord64", "prefix": "cO", "user": {"location": {"city": "Roswell", "state": "GA", "country": "United States"}}, "player": {"id": 4586226, "gamerTag": "Netherlord64", "prefix": "", "user": {"location": {"city": "Roswell", "state": "GA", "country": "United States"}}}}]}, "standing": {"placement": 1, "stats": {"score": {"value": 2}}}}, {"id": "92091679-1", "entrant": {"id": 20853456, "name": "promamamia", "participants": [{"id": 19189473, "gamerTag": "promamamia", "prefix": "", "user": {"location": {"city": "Alpharetta", "state": "GA", "country": "United States"}}, "player": {"id": 3548468, "gamerTag": "promamamia", "prefix": "", "user": {"location": {"city": "Alpharetta", "state": "GA", "country": "United States"}}}}]}, "standing": {"placement": 2, "stats": {"score": {"value": 1}}}}], "games": null}, {"id": 92091680, "state": 3, "round": -4, "fullRoundText": "Losers Round 2", "completedAt": 1754011498, "winnerId": 20851783, "slots": [{"id": "92091680-0", "entrant": {"id": 20851783, "name": "Cobalt", "participants": [{"id": 19187901, "gamerTag": "Cobalt", "prefix": null, "user": {"location": {"city": "Gainesville", "state": "GA", "country": "United States"}}, "player": {"id": 181792, "gamerTag": "Cobalt", "prefix": null, "user": {"location": {"city": "Gainesville", "state": "GA", "country": "United States"}}}}]}, "standing": {"placement": 1, "stats": {"score": {"value": 2}}}}, {"id": "92091680-1", "entrant": {"id": 20853465, "name": "EdgyKnight", "participants": [{"id": 19189481, "gamerTag": "EdgyKnight", "prefix": "", "user": {"location": {"city": "Snellvile", "state": "GA", "country": "United States"}}, "player": {"id": 367828, "gamerTag": "EdgyKnight", "prefix": "", "user": {"location": {"city": "Snellvile", "state": "GA", "country": "United States"}}}}]}, "standing": {"placement": 2, "stats": {"score": {"value": 0}}}}], "games": null}, {"id": 92091681, "state": 3, "round": -4, "fullRoundText": "Losers Round 2", "completedAt": 1754012337, "winnerId": 20853063, "slots": [{"id": "92091681-0", "entrant": {"id": 20853063, "name": "Kasane | Teto", "participants": [{"id": 19189103, "gamerTag": "Teto", "prefix": "Kasane", "user": {"location": {"city": "Hanover", "state": "IN", "country": "United States"}}, "player": {"id": 2683548, "gamerTag": "Teto", "prefix": "Kasane", "user": {"location": {"city": "Hanover", "state": "IN", "country": "United States"}}}}]}, "standing": {"placement": 1, "stats": {"score": {"value": 2}}}}, {"id": "92091681-1", "entrant": {"id": 20852390, "name": "Nikol", "participants": [{"id": 19188499, "gamerTag": "Nikol", "prefix": "", "user": {"location": {"city": "Stockbridge", "state": "GA", "country": "United States"}}, "player": {"id": 2152846, "gamerTag": "Nikol", "prefix": "", "user": {"location": {"city": "Stockbridge", "state": "GA", "country": "United States"}}}}]}, "standing": {"placement": 2, "stats": {"score": {"value": 1}}}}], "games": null}, {"id": 92091682, "state": 3, "round": -4, "fullRoundText": "Losers Round 2", "completedAt": 1754012110, "winnerId": 20853040, "slots": [{"id": "92091682-0", "entrant": {"id": 20853040, "name": "GUMP2 | Spider", "participants": [{"id": 19189080, "gamerTag": "Spider", "prefix": "GUMP2", "user": {"location": {"city": "Atlanta", "state": "GA", "country": "United States"}}, "player": {"id": 691176, "gamerTag": "Spider", "prefix": "GUMP2", "user": {"location": {"city": "Atlanta", "state": "GA", "country": "United States"}}}}]}, "standing": {"placement": 1, "stats": {"score": {"value": 2}}}}, {"id": "92091682-1", "entrant": {"id": 20854106, "name": "WFF | Happy", "participants": [{"id": 19190030, "gamerTag": "Happy", "prefix": "WFF", "user": {"location": {"city": "Peachtree CIty", "state": "GA", "country": "United States"}}, "player": {"id": 1383907, "gamerTag": "Happy", "prefix": "WFF", "user": {"location": {"city": "Peachtree CIty", "state": "GA", "country": "United States"}}}}]}, "standing": {"placement": 2, "stats": {"score": {"value": 0}}}}], "games": null}, {"id": 92091683, "state": 3, "round": -4, "fullRoundText": "Losers Round 2", "completedAt": 1754012592, "winnerId": 20852752, "slots": [{"id": "92091683-0", "entrant": {"id": 20852752, "name": "Whaley", "participants": [{"id": 19188833, "gamerTag": "Whaley", "prefix": "", "user": {"location": {"city": "Stone Mountain", "state": "GA", "country": "United States"}}, "player": {"id": 2016149, "gamerTag": "Whaley", "prefix": "KSU|UTO|BLZE", "user": {"location": {"city": "Stone Mountain", "state": "GA", "country": "United States"}}}}]}, "standing": {"placement": 1, "stats": {"score": {"value": 2}}}}, {"id": "92091683-1", "entrant": {"id": 20854027, "name": "4o4 | Sh33rZ", "participants": [{"id": 19189967, "gamerTag": "Sh33rZ", "prefix": "4o4", "user": {"location": {"city": "alpharetta", "state": "GA", "country": "United States"}}, "player": {"id": 3640465, "gamerTag": "Sh33rZ", "prefix": "4o4", "user": {"location": {"city": "alpharetta", "state": "GA", "country": "United States"}}}}]}, "standing": {"placement": 2, "stats": {"score": {"value": 0}}}}], "games": null}, {"id": 92091684, "state": 3, "round": -4, "fullRoundText": "Losers Round 2", "completedAt": 1754012347, "winnerId": 20847513, "slots": [{"id": "92091684-0", "entrant": {"id": 20847513, "name": "MilesisBae", "participants": [{"id": 19183854, "gamerTag": "MilesisBae", "prefix": "", "user": {"location": {"city": "Richmond", "state": "VA", "country": "United States"}}, "player": {"id": 1218383, "gamerTag": "MilesisBae", "prefix": "", "user": {"location": {"city": "Richmond", "state": "VA", "country": "United States"}}}}]}, "standing": {"placement": 1, "stats": {"score": {"value": 2}}}}, {"id": "92091684-1", "entrant": {"id": 20853362, "name": "KSU | Subzero", "participants": [{"id": 19189383, "gamerTag": "Subzero", "prefix": "KSU", "user": {"location": {"city": "Acworth", "state": "GA", "country": "United States"}}, "player": {"id": 1808159, "gamerTag": "Subzero", "prefix": "KSU", "user": {"location": {"city": "Acworth", "state": "GA", "country": "United States"}}}}]}, "standing": {"placement": 2, "stats": {"score": {"value": 0}}}}], "games": null}, {"id": 92091685, "state": 3, "round": -4, "fullRoundText": "Losers Round 2", "completedAt": 1754012182, "winnerId": 20847672, "slots": [{"id": "92091685-0", "entrant": {"id": 20847672, "name": "FAT | Phantomtheif", "participants": [{"id": 19183969, "gamerTag": "Phantomtheif", "prefix": "FAT", "user": {"location": {"city": "Columbus", "state": "AL", "country": "United States"}}, "player": {"id": 469237, "gamerTag": "Phantomtheif", "prefix": "FAT", "user": {"location": {"city": "Columbus", "state": "AL", "country": "United States"}}}}]}, "standing": {"placement": 1, "stats": {"score": {"value": 2}}}}, {"id": "92091685-1", "entrant": {"id": 20853419, "name": "RM | WFF | Sakruoi", "participants": [{"id": 19189435, "gamerTag": "Sakruoi", "prefix": "RM | WFF", "user": {"location": {"city": "atlanta", "state": "GA", "country": "United States"}}, "player": {"id": 1230555, "gamerTag": "Sakruoi", "prefix": "RM | WFF", "user": {"location": {"city": "atlanta", "state": "GA", "country": "United States"}}}}]}, "standing": {"placement": 2, "stats": {"score": {"value": 0}}}}], "games": null}]}}}