{"phase": {"seeds": {"pageInfo": {"totalPages": 1, "total": 3}, "nodes": [{"id": 36278078, "seedNum": 1, "entrant": {"id": 21038668, "name": "Xangief", "participants": [{"id": 19353145, "gamerTag": "Xangief", "prefix": null, "user": {"location": {"city": "Atlanta", "state": "GA", "country": "United States"}}, "player": {"id": 135082, "gamerTag": "Xangief", "prefix": null, "user": {"location": {"city": "Atlanta", "state": "GA", "country": "United States"}}}}]}}, {"id": 36329575, "seedNum": 2, "entrant": {"id": 21075132, "name": "Rated R", "participants": [{"id": 19386004, "gamerTag": "Rated R", "prefix": null, "user": {"location": {"city": null, "state": null, "country": "United States"}}, "player": {"id": 2703555, "gamerTag": "Rated R", "prefix": null, "user": {"location": {"city": null, "state": null, "country": "United States"}}}}]}}, {"id": 36381310, "seedNum": 3, "entrant": {"id": 21107506, "name": "Crum", "participants": [{"id": 19415223, "gamerTag": "Crum", "prefix": "", "user": {"location": {"city": "Fairburn", "state": "GA", "country": "United States"}}, "player": {"id": 422150, "gamerTag": "Crum", "prefix": "", "user": {"location": {"city": "Fairburn", "state": "GA", "country": "United States"}}}}]}}]}}}