{"phase": {"seeds": {"pageInfo": {"totalPages": 1, "total": 7}, "nodes": [{"id": 36820459, "seedNum": 5, "entrant": {"id": 21407684, "name": "Harry", "participants": [{"id": 19675198, "gamerTag": "Harry", "prefix": null, "user": {"location": {"city": null, "state": null, "country": null}}, "player": {"id": 3623490, "gamerTag": "Harry", "prefix": null, "user": {"location": {"city": null, "state": null, "country": null}}}}]}}, {"id": 36820524, "seedNum": 1, "entrant": {"id": 21407742, "name": "PitchingAce33", "participants": [{"id": 19673166, "gamerTag": "PitchingAce33", "prefix": "", "user": {"location": {"city": null, "state": "GA", "country": "United States"}}, "player": {"id": 1198327, "gamerTag": "PitchingAce33", "prefix": "", "user": {"location": {"city": null, "state": "GA", "country": "United States"}}}}]}}, {"id": 36820457, "seedNum": 2, "entrant": {"id": 21407682, "name": "UGA | LaJohn", "participants": [{"id": 19655429, "gamerTag": "LaJohn", "prefix": "UGA", "user": {"location": {"city": "Suwanee", "state": "GA", "country": "United States"}}, "player": {"id": 1742867, "gamerTag": "LaJohn", "prefix": "UGA", "user": {"location": {"city": "Suwanee", "state": "GA", "country": "United States"}}}}]}}, {"id": 36820466, "seedNum": 4, "entrant": {"id": 21407691, "name": "UGA | | samtwo", "participants": [{"id": 19652839, "gamerTag": "samtwo", "prefix": "UGA |", "user": {"location": {"city": "Athens", "state": "GA", "country": "United States"}}, "player": {"id": 1246662, "gamerTag": "samtwo", "prefix": "UGA |", "user": {"location": {"city": "Athens", "state": "GA", "country": "United States"}}}}]}}, {"id": 36820471, "seedNum": 3, "entrant": {"id": 21407696, "name": "GRW | Gooey", "participants": [{"id": 19671237, "gamerTag": "Gooey", "prefix": "GRW", "user": {"location": {"city": "Athens", "state": "GA", "country": "United States"}}, "player": {"id": 1071181, "gamerTag": "Gooey", "prefix": "GRW", "user": {"location": {"city": "Athens", "state": "GA", "country": "United States"}}}}]}}, {"id": 36820429, "seedNum": 6, "entrant": {"id": 21407660, "name": "CC l UGA | Infinite_Radiance", "participants": [{"id": 19677191, "gamerTag": "Infinite_Radiance", "prefix": "CC l UGA", "user": {"location": {"city": null, "state": "GA", "country": "United States"}}, "player": {"id": 4926508, "gamerTag": "Infinite_Radiance", "prefix": "CC UGA", "user": {"location": {"city": null, "state": "GA", "country": "United States"}}}}]}}, {"id": 36820468, "seedNum": 7, "entrant": {"id": 21407694, "name": "Sevina | ThePlant", "participants": [{"id": 19665203, "gamerTag": "ThePlant", "prefix": "Sevina", "user": {"location": {"city": null, "state": "GA", "country": "United States"}}, "player": {"id": 4995422, "gamerTag": "ThePlant", "prefix": "Sevina", "user": {"location": {"city": null, "state": "GA", "country": "United States"}}}}]}}]}}}