{"phase": {"seeds": {"pageInfo": {"totalPages": 1, "total": 4}, "nodes": [{"id": 35775091, "seedNum": 2, "entrant": {"id": 20731845, "name": "Mouse", "participants": [{"id": 19079387, "gamerTag": "Mouse", "prefix": "", "user": {"location": {"city": "Atlanta", "state": "GA", "country": "United States"}}, "player": {"id": 264732, "gamerTag": "Mouse", "prefix": "", "user": {"location": {"city": "Atlanta", "state": "GA", "country": "United States"}}}}]}}, {"id": 35777217, "seedNum": 4, "entrant": {"id": 20733758, "name": "MSU | transrights420", "participants": [{"id": 19081006, "gamerTag": "transrights420", "prefix": "MSU", "user": {"location": {"city": "Starkville", "state": "MS", "country": "United States"}}, "player": {"id": 1479899, "gamerTag": "transrights420", "prefix": "", "user": {"location": {"city": "Starkville", "state": "MS", "country": "United States"}}}}]}}, {"id": 35774756, "seedNum": 1, "entrant": {"id": 20731713, "name": "TPS | cryptonic", "participants": [{"id": 19079269, "gamerTag": "cryptonic", "prefix": "TPS", "user": {"location": {"city": "Kennesaw", "state": "GA", "country": "United States"}}, "player": {"id": 3422494, "gamerTag": "$CAITLIN", "prefix": "TPS", "user": {"location": {"city": "Kennesaw", "state": "GA", "country": "United States"}}}}]}}, {"id": 35775104, "seedNum": 3, "entrant": {"id": 20731858, "name": "2BEERSANDIMTRON", "participants": [{"id": 19079397, "gamerTag": "2BEERSANDIMTRON", "prefix": null, "user": {"location": {"city": null, "state": "GA", "country": "United States"}}, "player": {"id": 3041721, "gamerTag": "2BEERSANDIMTRON", "prefix": null, "user": {"location": {"city": null, "state": "GA", "country": "United States"}}}}]}}]}}}