{"event": {"sets": {"pageInfo": {"totalPages": 6, "total": 81}, "nodes": [{"id": 93348690, "state": 3, "round": -5, "fullRoundText": "Losers Round 2", "completedAt": 1756671217, "winnerId": 21085466, "slots": [{"id": "93348690-0", "entrant": {"id": 21085466, "name": "PlexiTier", "participants": [{"id": 19395365, "gamerTag": "PlexiTier", "prefix": "", "user": {"location": {"city": "Hampton", "state": "GA", "country": "United States"}}, "player": {"id": 1807346, "gamerTag": "PlexiTier", "prefix": "", "user": {"location": {"city": "Hampton", "state": "GA", "country": "United States"}}}}]}, "standing": {"placement": 1, "stats": {"score": {"value": 2}}}}, {"id": "93348690-1", "entrant": {"id": 21071243, "name": "T | Trent", "participants": [{"id": 19382566, "gamerTag": "Trent", "prefix": "T", "user": {"location": {"city": "Norcoss", "state": "GA", "country": "United States"}}, "player": {"id": 4666330, "gamerTag": "Unity", "prefix": "UNT", "user": {"location": {"city": "Norcoss", "state": "GA", "country": "United States"}}}}]}, "standing": {"placement": 2, "stats": {"score": {"value": 0}}}}], "games": null}, {"id": 93348691, "state": 3, "round": -5, "fullRoundText": "Losers Round 2", "completedAt": 1756671703, "winnerId": 21129665, "slots": [{"id": "93348691-0", "entrant": {"id": 21018127, "name": "Hewdraw300", "participants": [{"id": 19334356, "gamerTag": "Hewdraw300", "prefix": null, "user": {"location": {"city": null, "state": null, "country": null}}, "player": {"id": 2383650, "gamerTag": "Hewdraw300", "prefix": null, "user": {"location": {"city": null, "state": null, "country": null}}}}]}, "standing": {"placement": 2, "stats": {"score": {"value": 0}}}}, {"id": "93348691-1", "entrant": {"id": 21129665, "name": "LostCause919", "participants": [{"id": 19435319, "gamerTag": "LostCause919", "prefix": "", "user": {"location": {"city": null, "state": "GA", "country": "United States"}}, "player": {"id": 4950961, "gamerTag": "LostCause919", "prefix": "", "user": {"location": {"city": null, "state": "GA", "country": "United States"}}}}]}, "standing": {"placement": 1, "stats": {"score": {"value": 2}}}}], "games": null}, {"id": 93348555, "state": 3, "round": 2, "fullRoundText": "Winners Round 2", "completedAt": 1756669511, "winnerId": 21004193, "slots": [{"id": "93348555-0", "entrant": {"id": 21004193, "name": "GUMP2 | ToxiC", "participants": [{"id": 19321851, "gamerTag": "ToxiC", "prefix": "GUMP2", "user": {"location": {"city": "Marietta", "state": "GA", "country": "United States"}}, "player": {"id": 2585804, "gamerTag": "ToxiC", "prefix": "GUMP2", "user": {"location": {"city": "Marietta", "state": "GA", "country": "United States"}}}}]}, "standing": {"placement": 1, "stats": {"score": {"value": 2}}}}, {"id": "93348555-1", "entrant": {"id": 21129665, "name": "LostCause919", "participants": [{"id": 19435319, "gamerTag": "LostCause919", "prefix": "", "user": {"location": {"city": null, "state": "GA", "country": "United States"}}, "player": {"id": 4950961, "gamerTag": "LostCause919", "prefix": "", "user": {"location": {"city": null, "state": "GA", "country": "United States"}}}}]}, "standing": {"placement": 2, "stats": {"score": {"value": 0}}}}], "games": [{"id": 32288252, "orderNum": 1, "winnerId": 21004193, "entrant1Score": null, "entrant2Score": 0, "stage": null, "selections": null}, {"id": 32288253, "orderNum": 2, "winnerId": 21004193, "entrant1Score": null, "entrant2Score": 0, "stage": null, "selections": null}]}, {"id": 93348556, "state": 3, "round": 2, "fullRoundText": "Winners Round 2", "completedAt": 1756667731, "winnerId": 21075375, "slots": [{"id": "93348556-0", "entrant": {"id": 21075375, "name": "V2Kwame", "participants": [{"id": 19386189, "gamerTag": "V2Kwame", "prefix": "", "user": {"location": {"city": "Dallas", "state": "GA", "country": "United States"}}, "player": {"id": 2764337, "gamerTag": "V2Kwame", "prefix": "", "user": {"location": {"city": "Dallas", "state": "GA", "country": "United States"}}}}]}, "standing": {"placement": 1, "stats": {"score": {"value": null}}}}, {"id": "93348556-1", "entrant": {"id": 21120327, "name": "TioMing69", "participants": [{"id": 19426663, "gamerTag": "TioMing69", "prefix": null, "user": {"location": {"city": null, "state": null, "country": null}}, "player": {"id": 3161888, "gamerTag": "TioMing69", "prefix": null, "user": {"location": {"city": null, "state": null, "country": null}}}}]}, "standing": {"placement": 2, "stats": {"score": {"value": -1}}}}], "games": null}, {"id": 93348557, "state": 3, "round": 2, "fullRoundText": "Winners Round 2", "completedAt": 1756669351, "winnerId": 21040395, "slots": [{"id": "93348557-0", "entrant": {"id": 21040395, "name": "BlaZR", "participants": [{"id": 19354869, "gamerTag": "BlaZR", "prefix": "", "user": {"location": {"city": "ur mum", "state": null, "country": "United States"}}, "player": {"id": 1804122, "gamerTag": "BlaZR", "prefix": "", "user": {"location": {"city": "ur mum", "state": null, "country": "United States"}}}}]}, "standing": {"placement": 1, "stats": {"score": {"value": 2}}}}, {"id": "93348557-1", "entrant": {"id": 21071243, "name": "T | Trent", "participants": [{"id": 19382566, "gamerTag": "Trent", "prefix": "T", "user": {"location": {"city": "Norcoss", "state": "GA", "country": "United States"}}, "player": {"id": 4666330, "gamerTag": "Unity", "prefix": "UNT", "user": {"location": {"city": "Norcoss", "state": "GA", "country": "United States"}}}}]}, "standing": {"placement": 2, "stats": {"score": {"value": 1}}}}], "games": null}, {"id": 93348558, "state": 3, "round": 2, "fullRoundText": "Winners Round 2", "completedAt": 1756669420, "winnerId": 21128843, "slots": [{"id": "93348558-0", "entrant": {"id": 21128843, "name": "MONEY | ImNoPro", "participants": [{"id": 19434629, "gamerTag": "ImNoPro", "prefix": "MONEY", "user": {"location": {"city": "Calhoun", "state": "GA", "country": "United States"}}, "player": {"id": 2149803, "gamerTag": "ImNoPro", "prefix": "MONEY", "user": {"location": {"city": "Calhoun", "state": "GA", "country": "United States"}}}}]}, "standing": {"placement": 1, "stats": {"score": {"value": 2}}}}, {"id": "93348558-1", "entrant": {"id": 21085466, "name": "PlexiTier", "participants": [{"id": 19395365, "gamerTag": "PlexiTier", "prefix": "", "user": {"location": {"city": "Hampton", "state": "GA", "country": "United States"}}, "player": {"id": 1807346, "gamerTag": "PlexiTier", "prefix": "", "user": {"location": {"city": "Hampton", "state": "GA", "country": "United States"}}}}]}, "standing": {"placement": 2, "stats": {"score": {"value": 0}}}}], "games": null}, {"id": 93348559, "state": 3, "round": 2, "fullRoundText": "Winners Round 2", "completedAt": 1756670592, "winnerId": 21129404, "slots": [{"id": "93348559-0", "entrant": {"id": 21129404, "name": "RM | Twist!?", "participants": [{"id": 19435158, "gamerTag": "Twist!?", "prefix": "RM", "user": {"location": {"city": "Marietta", "state": "GA", "country": "United States"}}, "player": {"id": 1764076, "gamerTag": "Twist!?", "prefix": "RM", "user": {"location": {"city": "Marietta", "state": "GA", "country": "United States"}}}}]}, "standing": {"placement": 1, "stats": {"score": {"value": 2}}}}, {"id": "93348559-1", "entrant": {"id": 21125552, "name": "Smash | S0UND4", "participants": [{"id": 19431313, "gamerTag": "S0UND4", "prefix": "Smash", "user": {"location": {"city": null, "state": null, "country": "Georgia"}}, "player": {"id": 4949248, "gamerTag": "S0UND4", "prefix": "Smash", "user": {"location": {"city": null, "state": null, "country": "Georgia"}}}}]}, "standing": {"placement": 2, "stats": {"score": {"value": 1}}}}], "games": null}, {"id": 93348560, "state": 3, "round": 2, "fullRoundText": "Winners Round 2", "completedAt": 1756667826, "winnerId": 21061138, "slots": [{"id": "93348560-0", "entrant": {"id": 21061138, "name": "CHEESE", "participants": [{"id": 19373326, "gamerTag": "CHEESE", "prefix": null, "user": {"location": {"city": "Buford", "state": "GA", "country": "United States"}}, "player": {"id": 3429754, "gamerTag": "CHEESE", "prefix": null, "user": {"location": {"city": "Buford", "state": "GA", "country": "United States"}}}}]}, "standing": {"placement": 1, "stats": {"score": {"value": null}}}}, {"id": "93348560-1", "entrant": {"id": 21048466, "name": "RM | [0.0]n11CHaN^.^ -A- wOw", "participants": [{"id": 19362037, "gamerTag": "[0.0]n11CHaN^.^ -A- wOw", "prefix": "RM", "user": {"location": {"city": null, "state": null, "country": "United States"}}, "player": {"id": 2122107, "gamerTag": "[0.0]n11CHaN^.^ -A- wOw", "prefix": "RM", "user": {"location": {"city": null, "state": null, "country": "United States"}}}}]}, "standing": {"placement": 2, "stats": {"score": {"value": -1}}}}], "games": null}, {"id": 93348561, "state": 3, "round": 2, "fullRoundText": "Winners Round 2", "completedAt": 1756669477, "winnerId": 21119788, "slots": [{"id": "93348561-0", "entrant": {"id": 21119788, "name": "UTO|WhaLey | Kingwifi", "participants": [{"id": 19426202, "gamerTag": "Kingwifi", "prefix": "UTO|WhaLey", "user": {"location": {"city": "Stone Mountain", "state": "GA", "country": "United States"}}, "player": {"id": 2016149, "gamerTag": "Whaley", "prefix": "KSU|UTO|BLZE", "user": {"location": {"city": "Stone Mountain", "state": "GA", "country": "United States"}}}}]}, "standing": {"placement": 1, "stats": {"score": {"value": 2}}}}, {"id": "93348561-1", "entrant": {"id": 21129651, "name": "Infinite_Radiance", "participants": [{"id": 19435305, "gamerTag": "Infinite_Radiance", "prefix": "", "user": {"location": {"city": null, "state": "GA", "country": "United States"}}, "player": {"id": 4926508, "gamerTag": "Infinite_Radiance", "prefix": "CC UGA", "user": {"location": {"city": null, "state": "GA", "country": "United States"}}}}]}, "standing": {"placement": 2, "stats": {"score": {"value": 1}}}}], "games": null}, {"id": 93348562, "state": 3, "round": 2, "fullRoundText": "Winners Round 2", "completedAt": 1756668534, "winnerId": 21089045, "slots": [{"id": "93348562-0", "entrant": {"id": 21089045, "name": "KSU | Subzero", "participants": [{"id": 19398545, "gamerTag": "Subzero", "prefix": "KSU", "user": {"location": {"city": "Acworth", "state": "GA", "country": "United States"}}, "player": {"id": 1808159, "gamerTag": "Subzero", "prefix": "KSU", "user": {"location": {"city": "Acworth", "state": "GA", "country": "United States"}}}}]}, "standing": {"placement": 1, "stats": {"score": {"value": 2}}}}, {"id": "93348562-1", "entrant": {"id": 21126423, "name": "Vertebrae", "participants": [{"id": 19432167, "gamerTag": "Vertebrae", "prefix": "", "user": {"location": {"city": "Athens", "state": "GA", "country": "United States"}}, "player": {"id": 1583946, "gamerTag": "Vertebrae", "prefix": "CC", "user": {"location": {"city": "Athens", "state": "GA", "country": "United States"}}}}]}, "standing": {"placement": 2, "stats": {"score": {"value": 1}}}}], "games": [{"id": 32287940, "orderNum": 1, "winnerId": 21126423, "entrant1Score": 0, "entrant2Score": null, "stage": null, "selections": [{"id": 47590006, "selectionType": "CHARACTER", "selectionValue": 1453, "entrant": {"id": 21089045}, "character": {"id": 1453, "name": "Joker"}}, {"id": 47590007, "selectionType": "CHARACTER", "selectionValue": 1322, "entrant": {"id": 21126423}, "character": {"id": 1322, "name": "Ridley"}}]}, {"id": 32287941, "orderNum": 2, "winnerId": 21089045, "entrant1Score": null, "entrant2Score": 0, "stage": null, "selections": [{"id": 47590008, "selectionType": "CHARACTER", "selectionValue": 1539, "entrant": {"id": 21089045}, "character": {"id": 1539, "name": "Byleth"}}, {"id": 47590009, "selectionType": "CHARACTER", "selectionValue": 1322, "entrant": {"id": 21126423}, "character": {"id": 1322, "name": "Ridley"}}]}, {"id": 32287942, "orderNum": 3, "winnerId": 21089045, "entrant1Score": null, "entrant2Score": 0, "stage": null, "selections": [{"id": 47590010, "selectionType": "CHARACTER", "selectionValue": 1539, "entrant": {"id": 21089045}, "character": {"id": 1539, "name": "Byleth"}}, {"id": 47590011, "selectionType": "CHARACTER", "selectionValue": 1322, "entrant": {"id": 21126423}, "character": {"id": 1322, "name": "Ridley"}}]}]}, {"id": 93348563, "state": 3, "round": 2, "fullRoundText": "Winners Round 2", "completedAt": 1756669416, "winnerId": 21121102, "slots": [{"id": "93348563-0", "entrant": {"id": 21121102, "name": "carlop", "participants": [{"id": 19427347, "gamerTag": "carlop", "prefix": null, "user": {"location": {"city": "Johns Creek", "state": "GA", "country": "United States"}}, "player": {"id": 3431919, "gamerTag": "carlop", "prefix": null, "user": {"location": {"city": "Johns Creek", "state": "GA", "country": "United States"}}}}]}, "standing": {"placement": 1, "stats": {"score": {"value": 2}}}}, {"id": "93348563-1", "entrant": {"id": 21029806, "name": "Stock Stealers | T.K.O", "participants": [{"id": 19345067, "gamerTag": "T.K.O", "prefix": "Stock Stealers", "user": {"location": {"city": "Smyrna", "state": "GA", "country": "United States"}}, "player": {"id": 4933114, "gamerTag": "T.K.O", "prefix": "Stock Stealer", "user": {"location": {"city": "Smyrna", "state": "GA", "country": "United States"}}}}]}, "standing": {"placement": 2, "stats": {"score": {"value": 0}}}}], "games": null}, {"id": 93348564, "state": 3, "round": 2, "fullRoundText": "Winners Round 2", "completedAt": 1756668688, "winnerId": 21125670, "slots": [{"id": "93348564-0", "entrant": {"id": 21125670, "name": "Omar", "participants": [{"id": 19431429, "gamerTag": "Omar", "prefix": "", "user": {"location": {"city": null, "state": "GA", "country": "United States"}}, "player": {"id": 4300029, "gamerTag": "Omar", "prefix": "", "user": {"location": {"city": null, "state": "GA", "country": "United States"}}}}]}, "standing": {"placement": 1, "stats": {"score": {"value": 2}}}}, {"id": "93348564-1", "entrant": {"id": 21073526, "name": "Mavis", "participants": [{"id": 19384646, "gamerTag": "Mavis", "prefix": "", "user": {"location": {"city": null, "state": "GA", "country": "United States"}}, "player": {"id": 1666352, "gamerTag": "Mavis", "prefix": "", "user": {"location": {"city": null, "state": "GA", "country": "United States"}}}}]}, "standing": {"placement": 2, "stats": {"score": {"value": 0}}}}], "games": null}, {"id": 93348565, "state": 3, "round": 2, "fullRoundText": "Winners Round 2", "completedAt": 1756669100, "winnerId": 21004884, "slots": [{"id": "93348565-0", "entrant": {"id": 21004884, "name": "KSU | colorful\u029a\u025e", "participants": [{"id": 19322534, "gamerTag": "colorful\u029a\u025e", "prefix": "KSU", "user": {"location": {"city": "Kennesaw", "state": "GA", "country": "United States"}}, "player": {"id": 1783074, "gamerTag": "colorful\u029a\u025e", "prefix": "KSU | RM", "user": {"location": {"city": "Kennesaw", "state": "GA", "country": "United States"}}}}]}, "standing": {"placement": 1, "stats": {"score": {"value": 2}}}}, {"id": "93348565-1", "entrant": {"id": 21045139, "name": "Dusk_", "participants": [{"id": 19359311, "gamerTag": "Dusk_", "prefix": null, "user": {"location": {"city": "Atlanta", "state": "GA", "country": "United States"}}, "player": {"id": 2095313, "gamerTag": "Dusk_", "prefix": null, "user": {"location": {"city": "Atlanta", "state": "GA", "country": "United States"}}}}]}, "standing": {"placement": 2, "stats": {"score": {"value": 0}}}}], "games": [{"id": 32288194, "orderNum": 1, "winnerId": 21004884, "entrant1Score": 2, "entrant2Score": 0, "stage": null, "selections": [{"id": 47590394, "selectionType": "CHARACTER", "selectionValue": 1275, "entrant": {"id": 21004884}, "character": {"id": 1275, "name": "Cloud"}}, {"id": 47590395, "selectionType": "CHARACTER", "selectionValue": 1273, "entrant": {"id": 21045139}, "character": {"id": 1273, "name": "Bowser"}}]}, {"id": 32288195, "orderNum": 2, "winnerId": 21004884, "entrant1Score": null, "entrant2Score": 0, "stage": null, "selections": [{"id": 47590396, "selectionType": "CHARACTER", "selectionValue": 1279, "entrant": {"id": 21004884}, "character": {"id": 1279, "name": "Diddy Kong"}}, {"id": 47590397, "selectionType": "CHARACTER", "selectionValue": 1795, "entrant": {"id": 21045139}, "character": {"id": 1795, "name": "Pyra & Mythra"}}]}]}, {"id": 93348566, "state": 3, "round": 2, "fullRoundText": "Winners Round 2", "completedAt": 1756669320, "winnerId": 21084803, "slots": [{"id": "93348566-0", "entrant": {"id": 21031217, "name": "promamamia", "participants": [{"id": 19346365, "gamerTag": "promamamia", "prefix": "", "user": {"location": {"city": "Alpharetta", "state": "GA", "country": "United States"}}, "player": {"id": 3548468, "gamerTag": "promamamia", "prefix": "", "user": {"location": {"city": "Alpharetta", "state": "GA", "country": "United States"}}}}]}, "standing": {"placement": 2, "stats": {"score": {"value": 0}}}}, {"id": "93348566-1", "entrant": {"id": 21084803, "name": "kahdeh", "participants": [{"id": 19394775, "gamerTag": "kahdeh", "prefix": null, "user": {"location": {"city": null, "state": "GA", "country": "United States"}}, "player": {"id": 3730125, "gamerTag": "kahdeh", "prefix": null, "user": {"location": {"city": null, "state": "GA", "country": "United States"}}}}]}, "standing": {"placement": 1, "stats": {"score": {"value": 2}}}}], "games": null}, {"id": 93348567, "state": 3, "round": 2, "fullRoundText": "Winners Round 2", "completedAt": 1756669207, "winnerId": 21047567, "slots": [{"id": "93348567-0", "entrant": {"id": 21047567, "name": "red dot", "participants": [{"id": 19361293, "gamerTag": "red dot", "prefix": "", "user": {"location": {"city": "Milton", "state": "GA", "country": "United States"}}, "player": {"id": 1812177, "gamerTag": "red dot", "prefix": "", "user": {"location": {"city": "Milton", "state": "GA", "country": "United States"}}}}]}, "standing": {"placement": 1, "stats": {"score": {"value": 2}}}}, {"id": "93348567-1", "entrant": {"id": 21125432, "name": "E | Turtle_", "participants": [{"id": 19431208, "gamerTag": "Turtle_", "prefix": "E", "user": {"location": {"city": "Atlanta", "state": "GA", "country": "United States"}}, "player": {"id": 2722036, "gamerTag": "Turtle_", "prefix": "E", "user": {"location": {"city": "Atlanta", "state": "GA", "country": "United States"}}}}]}, "standing": {"placement": 2, "stats": {"score": {"value": 0}}}}], "games": null}]}}}