{"event": {"sets": {"pageInfo": {"totalPages": 4, "total": 59}, "nodes": [{"id": 92216731, "state": 3, "round": -4, "fullRoundText": "Losers Round 2", "completedAt": 1754161415, "winnerId": 20495010, "slots": [{"id": "92216731-0", "entrant": {"id": 20495010, "name": "Alex828", "participants": [{"id": 18873284, "gamerTag": "Alex828", "prefix": "", "user": {"location": {"city": "Valdosta", "state": "GA", "country": "United States"}}, "player": {"id": 1630146, "gamerTag": "Alex828", "prefix": "", "user": {"location": {"city": "Valdosta", "state": "GA", "country": "United States"}}}}]}, "standing": {"placement": 1, "stats": {"score": {"value": 2}}}}, {"id": "92216731-1", "entrant": {"id": 20490345, "name": "bradex", "participants": [{"id": 18869072, "gamerTag": "bradex", "prefix": "", "user": {"location": {"city": "Canton", "state": "GA", "country": "United States"}}, "player": {"id": 1585336, "gamerTag": "bradex", "prefix": "", "user": {"location": {"city": "Canton", "state": "GA", "country": "United States"}}}}]}, "standing": {"placement": 2, "stats": {"score": {"value": 0}}}}], "games": null}, {"id": 92211938, "state": 3, "round": -4, "fullRoundText": "Losers Round 2", "completedAt": 1754158265, "winnerId": 20618956, "slots": [{"id": "92211938-0", "entrant": {"id": 20618956, "name": "P2W | bacon", "participants": [{"id": 18981400, "gamerTag": "bacon", "prefix": "P2W", "user": {"location": {"city": "Atlanta", "state": "GA", "country": "United States"}}, "player": {"id": 1686096, "gamerTag": "bacon", "prefix": "P2W", "user": {"location": {"city": "Atlanta", "state": "GA", "country": "United States"}}}}]}, "standing": {"placement": 1, "stats": {"score": {"value": 2}}}}, {"id": "92211938-1", "entrant": {"id": 20732072, "name": "SgtCarson", "participants": [{"id": 19079580, "gamerTag": "SgtCarson", "prefix": null, "user": {"location": {"city": "Cumming", "state": "GA", "country": "United States"}}, "player": {"id": 68213, "gamerTag": "SgtCarson", "prefix": "", "user": {"location": {"city": "Cumming", "state": "GA", "country": "United States"}}}}]}, "standing": {"placement": 2, "stats": {"score": {"value": 1}}}}], "games": null}, {"id": 92219782, "state": 3, "round": -5, "fullRoundText": "Losers Semi-Final", "completedAt": 1754166933, "winnerId": 20500171, "slots": [{"id": "92219782-0", "entrant": {"id": 20602511, "name": "Dingo", "participants": [{"id": 18967220, "gamerTag": "Dingo", "prefix": null, "user": {"location": {"city": "Augusta", "state": "GA", "country": "United States"}}, "player": {"id": 35890, "gamerTag": "Dingo", "prefix": null, "user": {"location": {"city": "Augusta", "state": "GA", "country": "United States"}}}}]}, "standing": {"placement": 2, "stats": {"score": {"value": 1}}}}, {"id": "92219782-1", "entrant": {"id": 20500171, "name": "Teri", "participants": [{"id": 18877766, "gamerTag": "Teri", "prefix": "", "user": {"location": {"city": "Spartanburg", "state": "SC", "country": "United States"}}, "player": {"id": 63209, "gamerTag": "Teri", "prefix": "", "user": {"location": {"city": "Spartanburg", "state": "SC", "country": "United States"}}}}]}, "standing": {"placement": 1, "stats": {"score": {"value": 3}}}}], "games": [{"id": 31678699, "orderNum": 1, "winnerId": 20500171, "entrant1Score": 0, "entrant2Score": null, "stage": null, "selections": null}, {"id": 31678700, "orderNum": 2, "winnerId": 20602511, "entrant1Score": null, "entrant2Score": 0, "stage": null, "selections": null}, {"id": 31678845, "orderNum": 3, "winnerId": 20500171, "entrant1Score": 0, "entrant2Score": null, "stage": null, "selections": null}, {"id": 31679063, "orderNum": 4, "winnerId": 20500171, "entrant1Score": null, "entrant2Score": null, "stage": null, "selections": null}]}, {"id": 92216725, "state": 3, "round": -3, "fullRoundText": "Losers Round 1", "completedAt": 1754160676, "winnerId": 20803404, "slots": [{"id": "92216725-0", "entrant": {"id": 20493044, "name": "Jame", "participants": [{"id": 18871463, "gamerTag": "Jame", "prefix": null, "user": {"location": {"city": null, "state": "GA", "country": "United States"}}, "player": {"id": 4748211, "gamerTag": "Jame", "prefix": null, "user": {"location": {"city": null, "state": "GA", "country": "United States"}}}}]}, "standing": {"placement": 2, "stats": {"score": {"value": 0}}}}, {"id": "92216725-1", "entrant": {"id": 20803404, "name": "nokotanfan23", "participants": [{"id": 19145513, "gamerTag": "nokotanfan23", "prefix": "", "user": {"location": {"city": "Loganville", "state": "GA", "country": "United States"}}, "player": {"id": 1039731, "gamerTag": "nokotanfan23", "prefix": "", "user": {"location": {"city": "Loganville", "state": "GA", "country": "United States"}}}}]}, "standing": {"placement": 1, "stats": {"score": {"value": 2}}}}], "games": [{"id": 31675890, "orderNum": 1, "winnerId": 20803404, "entrant1Score": null, "entrant2Score": null, "stage": null, "selections": [{"id": 46639397, "selectionType": "CHARACTER", "selectionValue": 2503, "entrant": {"id": 20493044}, "character": {"id": 2503, "name": "Clairen"}}, {"id": 46639398, "selectionType": "CHARACTER", "selectionValue": 2709, "entrant": {"id": 20803404}, "character": {"id": 2709, "name": "Absa"}}]}, {"id": 31675891, "orderNum": 2, "winnerId": 20803404, "entrant1Score": null, "entrant2Score": null, "stage": null, "selections": [{"id": 46639399, "selectionType": "CHARACTER", "selectionValue": 2503, "entrant": {"id": 20493044}, "character": {"id": 2503, "name": "Clairen"}}, {"id": 46639400, "selectionType": "CHARACTER", "selectionValue": 2709, "entrant": {"id": 20803404}, "character": {"id": 2709, "name": "Absa"}}]}]}, {"id": 92211932, "state": 3, "round": -3, "fullRoundText": "Losers Round 1", "completedAt": 1754157068, "winnerId": 20490250, "slots": [{"id": "92211932-0", "entrant": {"id": 20500223, "name": "BE/JLE | CaptainMilkMan", "participants": [{"id": 18877814, "gamerTag": "CaptainMilkMan", "prefix": "BE/JLE", "user": {"location": {"city": "Albany", "state": "GA", "country": "United States"}}, "player": {"id": 1101654, "gamerTag": "CaptainMilkMan", "prefix": "BE/JLE", "user": {"location": {"city": "Albany", "state": "GA", "country": "United States"}}}}]}, "standing": {"placement": 2, "stats": {"score": {"value": 1}}}}, {"id": "92211932-1", "entrant": {"id": 20490250, "name": "DEMIURGE", "participants": [{"id": 18869005, "gamerTag": "DEMIURGE", "prefix": "", "user": {"location": {"city": "Rome", "state": null, "country": null}}, "player": {"id": 1227450, "gamerTag": "DEMIURGE", "prefix": "", "user": {"location": {"city": "Rome", "state": null, "country": null}}}}]}, "standing": {"placement": 1, "stats": {"score": {"value": 2}}}}], "games": null}, {"id": 92216726, "state": 3, "round": -3, "fullRoundText": "Losers Round 1", "completedAt": 1754160903, "winnerId": 20488514, "slots": [{"id": "92216726-0", "entrant": {"id": 20860113, "name": "CoolCactuS", "participants": [{"id": 18892328, "gamerTag": "CoolCactuS", "prefix": null, "user": {"location": {"city": null, "state": null, "country": "United States"}}, "player": {"id": 1885346, "gamerTag": "CoolCactuS", "prefix": "CV", "user": {"location": {"city": null, "state": null, "country": "United States"}}}}]}, "standing": {"placement": 2, "stats": {"score": {"value": 0}}}}, {"id": "92216726-1", "entrant": {"id": 20488514, "name": "BE | Bumble", "participants": [{"id": 18867472, "gamerTag": "Bumble", "prefix": "BE", "user": {"location": {"city": "Savannah", "state": "GA", "country": "United States"}}, "player": {"id": 1169889, "gamerTag": "Bumble", "prefix": "", "user": {"location": {"city": "Savannah", "state": "GA", "country": "United States"}}}}]}, "standing": {"placement": 1, "stats": {"score": {"value": 2}}}}], "games": null}, {"id": 92211933, "state": 3, "round": -3, "fullRoundText": "Losers Round 1", "completedAt": 1754157495, "winnerId": 20828542, "slots": [{"id": "92211933-0", "entrant": {"id": 20489325, "name": "carlop", "participants": [{"id": 18868187, "gamerTag": "carlop", "prefix": null, "user": {"location": {"city": "Johns Creek", "state": "GA", "country": "United States"}}, "player": {"id": 3431919, "gamerTag": "carlop", "prefix": null, "user": {"location": {"city": "Johns Creek", "state": "GA", "country": "United States"}}}}]}, "standing": {"placement": 2, "stats": {"score": {"value": 0}}}}, {"id": "92211933-1", "entrant": {"id": 20828542, "name": "KageGato", "participants": [{"id": 19167093, "gamerTag": "KageGato", "prefix": "", "user": {"location": {"city": "Valdosta", "state": "GA", "country": "United States"}}, "player": {"id": 1392649, "gamerTag": "KageGato", "prefix": "", "user": {"location": {"city": "Valdosta", "state": "GA", "country": "United States"}}}}]}, "standing": {"placement": 1, "stats": {"score": {"value": 1}}}}], "games": null}, {"id": 92216727, "state": 3, "round": -3, "fullRoundText": "Losers Round 1", "completedAt": 1754160466, "winnerId": 20490345, "slots": [{"id": "92216727-0", "entrant": {"id": 20571260, "name": "Argon | Kage", "participants": [{"id": 18940107, "gamerTag": "Kage", "prefix": "Argon", "user": {"location": {"city": "Huntsville", "state": "AL", "country": "United States"}}, "player": {"id": 465685, "gamerTag": "OsamaBin-Ballin", "prefix": "Argon", "user": {"location": {"city": "Huntsville", "state": "AL", "country": "United States"}}}}]}, "standing": {"placement": 2, "stats": {"score": {"value": -1}}}}, {"id": "92216727-1", "entrant": {"id": 20490345, "name": "bradex", "participants": [{"id": 18869072, "gamerTag": "bradex", "prefix": "", "user": {"location": {"city": "Canton", "state": "GA", "country": "United States"}}, "player": {"id": 1585336, "gamerTag": "bradex", "prefix": "", "user": {"location": {"city": "Canton", "state": "GA", "country": "United States"}}}}]}, "standing": {"placement": 1, "stats": {"score": {"value": null}}}}], "games": null}, {"id": 92211934, "state": 3, "round": -3, "fullRoundText": "Losers Round 1", "completedAt": 1754156668, "winnerId": 20732072, "slots": [{"id": "92211934-0", "entrant": {"id": 20732072, "name": "SgtCarson", "participants": [{"id": 19079580, "gamerTag": "SgtCarson", "prefix": null, "user": {"location": {"city": "Cumming", "state": "GA", "country": "United States"}}, "player": {"id": 68213, "gamerTag": "SgtCarson", "prefix": "", "user": {"location": {"city": "Cumming", "state": "GA", "country": "United States"}}}}]}, "standing": {"placement": 1, "stats": {"score": {"value": null}}}}, {"id": "92211934-1", "entrant": {"id": 20495796, "name": "KrobbleGoo", "participants": [{"id": 18873984, "gamerTag": "KrobbleGoo", "prefix": "", "user": {"location": {"city": null, "state": null, "country": "United States"}}, "player": {"id": 3276756, "gamerTag": "KrobbleGoo", "prefix": "", "user": {"location": {"city": null, "state": null, "country": "United States"}}}}]}, "standing": {"placement": 2, "stats": {"score": {"value": -1}}}}], "games": null}, {"id": 92219765, "state": 3, "round": 1, "fullRoundText": "Winners Semi-Final", "completedAt": 1754163126, "winnerId": 20501478, "slots": [{"id": "92219765-0", "entrant": {"id": 20500171, "name": "Teri", "participants": [{"id": 18877766, "gamerTag": "Teri", "prefix": "", "user": {"location": {"city": "Spartanburg", "state": "SC", "country": "United States"}}, "player": {"id": 63209, "gamerTag": "Teri", "prefix": "", "user": {"location": {"city": "Spartanburg", "state": "SC", "country": "United States"}}}}]}, "standing": {"placement": 2, "stats": {"score": {"value": 1}}}}, {"id": "92219765-1", "entrant": {"id": 20501478, "name": "Adam", "participants": [{"id": 18878962, "gamerTag": "Adam", "prefix": "", "user": {"location": {"city": "Decatur", "state": "GA", "country": "United States"}}, "player": {"id": 1521410, "gamerTag": "Adam", "prefix": "", "user": {"location": {"city": "Decatur", "state": "GA", "country": "United States"}}}}]}, "standing": {"placement": 1, "stats": {"score": {"value": 3}}}}], "games": [{"id": 31676483, "orderNum": 1, "winnerId": 20501478, "entrant1Score": 0, "entrant2Score": null, "stage": null, "selections": null}, {"id": 31676484, "orderNum": 2, "winnerId": 20500171, "entrant1Score": null, "entrant2Score": 0, "stage": null, "selections": null}, {"id": 31676587, "orderNum": 3, "winnerId": 20501478, "entrant1Score": 0, "entrant2Score": null, "stage": null, "selections": null}, {"id": 31677069, "orderNum": 4, "winnerId": 20501478, "entrant1Score": null, "entrant2Score": null, "stage": null, "selections": null}]}, {"id": 92216692, "state": 3, "round": 1, "fullRoundText": "Winners Round 1", "completedAt": 1754159706, "winnerId": 20495010, "slots": [{"id": "92216692-0", "entrant": {"id": 20495010, "name": "Alex828", "participants": [{"id": 18873284, "gamerTag": "Alex828", "prefix": "", "user": {"location": {"city": "Valdosta", "state": "GA", "country": "United States"}}, "player": {"id": 1630146, "gamerTag": "Alex828", "prefix": "", "user": {"location": {"city": "Valdosta", "state": "GA", "country": "United States"}}}}]}, "standing": {"placement": 1, "stats": {"score": {"value": 2}}}}, {"id": "92216692-1", "entrant": {"id": 20490014, "name": "ZB | Sanaito", "participants": [{"id": 18868823, "gamerTag": "Sanaito", "prefix": "ZB", "user": {"location": {"city": "Fayetteville", "state": "GA", "country": "United States"}}, "player": {"id": 12761, "gamerTag": "Sanaito", "prefix": "ZB", "user": {"location": {"city": "Fayetteville", "state": "GA", "country": "United States"}}}}]}, "standing": {"placement": 2, "stats": {"score": {"value": 0}}}}], "games": null}, {"id": 92211899, "state": 3, "round": 1, "fullRoundText": "Winners Round 1", "completedAt": 1754156580, "winnerId": 20618956, "slots": [{"id": "92211899-0", "entrant": {"id": 20618956, "name": "P2W | bacon", "participants": [{"id": 18981400, "gamerTag": "bacon", "prefix": "P2W", "user": {"location": {"city": "Atlanta", "state": "GA", "country": "United States"}}, "player": {"id": 1686096, "gamerTag": "bacon", "prefix": "P2W", "user": {"location": {"city": "Atlanta", "state": "GA", "country": "United States"}}}}]}, "standing": {"placement": 1, "stats": {"score": {"value": 2}}}}, {"id": "92211899-1", "entrant": {"id": 20516681, "name": "ZB | wolfy", "participants": [{"id": 18892395, "gamerTag": "wolfy", "prefix": "ZB", "user": {"location": {"city": "Tyrone", "state": "GA", "country": "United States"}}, "player": {"id": 295981, "gamerTag": "wolfy", "prefix": "ZB", "user": {"location": {"city": "Tyrone", "state": "GA", "country": "United States"}}}}]}, "standing": {"placement": 2, "stats": {"score": {"value": 0}}}}], "games": [{"id": 31674581, "orderNum": 1, "winnerId": 20618956, "entrant1Score": null, "entrant2Score": 0, "stage": null, "selections": [{"id": 46637555, "selectionType": "CHARACTER", "selectionValue": 2502, "entrant": {"id": 20516681}, "character": {"id": 2502, "name": "Maypul"}}, {"id": 46637556, "selectionType": "CHARACTER", "selectionValue": 2597, "entrant": {"id": 20618956}, "character": {"id": 2597, "name": "Orcane"}}]}, {"id": 31674582, "orderNum": 2, "winnerId": 20618956, "entrant1Score": null, "entrant2Score": null, "stage": null, "selections": [{"id": 46637557, "selectionType": "CHARACTER", "selectionValue": 2502, "entrant": {"id": 20516681}, "character": {"id": 2502, "name": "Maypul"}}, {"id": 46637558, "selectionType": "CHARACTER", "selectionValue": 2597, "entrant": {"id": 20618956}, "character": {"id": 2597, "name": "Orcane"}}]}]}, {"id": 92211900, "state": 3, "round": 1, "fullRoundText": "Winners Round 1", "completedAt": 1754156213, "winnerId": 20493557, "slots": [{"id": "92211900-0", "entrant": {"id": 20493557, "name": "TEASER FANCLUB | #1 TEASER FAN FOR LIFE", "participants": [{"id": 18871944, "gamerTag": "#1 TEASER FAN FOR LIFE", "prefix": "TEASER FANCLUB", "user": {"location": {"city": "Johns Creek", "state": "GA", "country": "United States"}}, "player": {"id": 181040, "gamerTag": "#1 TEASER FAN FOR LIFE", "prefix": "TEASER FANCLUB", "user": {"location": {"city": "Johns Creek", "state": "GA", "country": "United States"}}}}]}, "standing": {"placement": 1, "stats": {"score": {"value": 2}}}}, {"id": "92211900-1", "entrant": {"id": 20500223, "name": "BE/JLE | CaptainMilkMan", "participants": [{"id": 18877814, "gamerTag": "CaptainMilkMan", "prefix": "BE/JLE", "user": {"location": {"city": "Albany", "state": "GA", "country": "United States"}}, "player": {"id": 1101654, "gamerTag": "CaptainMilkMan", "prefix": "BE/JLE", "user": {"location": {"city": "Albany", "state": "GA", "country": "United States"}}}}]}, "standing": {"placement": 2, "stats": {"score": {"value": 0}}}}], "games": null}, {"id": 92219766, "state": 3, "round": 1, "fullRoundText": "Winners Semi-Final", "completedAt": 1754164186, "winnerId": 20604545, "slots": [{"id": "92219766-0", "entrant": {"id": 20604545, "name": "PiggyG", "participants": [{"id": 18968673, "gamerTag": "PiggyG", "prefix": "", "user": {"location": {"city": null, "state": null, "country": null}}, "player": {"id": 1453564, "gamerTag": "PiggyG", "prefix": "", "user": {"location": {"city": null, "state": null, "country": null}}}}]}, "standing": {"placement": 1, "stats": {"score": {"value": 3}}}}, {"id": "92219766-1", "entrant": {"id": 20603930, "name": "SRN | Games & Flames", "participants": [{"id": 18968147, "gamerTag": "Games & Flames", "prefix": "SRN", "user": {"location": {"city": "Jonesboro", "state": null, "country": "United States"}}, "player": {"id": 1768109, "gamerTag": "Games & Flames", "prefix": "SRN", "user": {"location": {"city": "Jonesboro", "state": null, "country": "United States"}}}}]}, "standing": {"placement": 2, "stats": {"score": {"value": 0}}}}], "games": [{"id": 31677188, "orderNum": 1, "winnerId": 20604545, "entrant1Score": null, "entrant2Score": 0, "stage": null, "selections": null}, {"id": 31677189, "orderNum": 2, "winnerId": 20604545, "entrant1Score": null, "entrant2Score": 0, "stage": null, "selections": null}, {"id": 31677393, "orderNum": 3, "winnerId": 20604545, "entrant1Score": null, "entrant2Score": 0, "stage": null, "selections": null}]}, {"id": 92216693, "state": 3, "round": 1, "fullRoundText": "Winners Round 1", "completedAt": 1754159700, "winnerId": 20490280, "slots": [{"id": "92216693-0", "entrant": {"id": 20490280, "name": "Taylor", "participants": [{"id": 18869026, "gamerTag": "Taylor", "prefix": null, "user": {"location": {"city": "", "state": "GA", "country": "United States"}}, "player": {"id": 926445, "gamerTag": "Taylor", "prefix": null, "user": {"location": {"city": "", "state": "GA", "country": "United States"}}}}]}, "standing": {"placement": 1, "stats": {"score": {"value": 2}}}}, {"id": "92216693-1", "entrant": {"id": 20493044, "name": "Jame", "participants": [{"id": 18871463, "gamerTag": "Jame", "prefix": null, "user": {"location": {"city": null, "state": "GA", "country": "United States"}}, "player": {"id": 4748211, "gamerTag": "Jame", "prefix": null, "user": {"location": {"city": null, "state": "GA", "country": "United States"}}}}]}, "standing": {"placement": 2, "stats": {"score": {"value": 0}}}}], "games": null}]}}}