{"event": {"sets": {"pageInfo": {"totalPages": 4, "total": 57}, "nodes": [{"id": 91976388, "state": 3, "round": 2, "fullRoundText": "Winners Quarter-Final", "completedAt": 1753665211, "winnerId": 20819471, "slots": [{"id": "91976388-0", "entrant": {"id": 20819471, "name": "4o4 | chooryu :)", "participants": [{"id": 19158751, "gamerTag": "chooryu :)", "prefix": "4o4", "user": {"location": {"city": "Kennesaw", "state": "GA", "country": "United States"}}, "player": {"id": 466564, "gamerTag": "chooryu :)", "prefix": "4o4", "user": {"location": {"city": "Kennesaw", "state": "GA", "country": "United States"}}}}]}, "standing": {"placement": 1, "stats": {"score": {"value": 2}}}}, {"id": "91976388-1", "entrant": {"id": 20819711, "name": "Fishboi", "participants": [{"id": 19158928, "gamerTag": "Fishboi", "prefix": null, "user": {"location": {"city": "Peachtree Corners", "state": "GA", "country": "United States"}}, "player": {"id": 1540302, "gamerTag": "Fishboi", "prefix": null, "user": {"location": {"city": "Peachtree Corners", "state": "GA", "country": "United States"}}}}]}, "standing": {"placement": 2, "stats": {"score": {"value": 0}}}}], "games": null}, {"id": 91976310, "state": 3, "round": 2, "fullRoundText": "Winners Quarter-Final", "completedAt": 1753664439, "winnerId": 20798121, "slots": [{"id": "91976310-0", "entrant": {"id": 20798121, "name": "Heart", "participants": [{"id": 19141002, "gamerTag": "Heart", "prefix": "", "user": {"location": {"city": "Atlanta", "state": "GA", "country": "United States"}}, "player": {"id": 4287822, "gamerTag": "Heart", "prefix": "", "user": {"location": {"city": "Atlanta", "state": "GA", "country": "United States"}}}}]}, "standing": {"placement": 1, "stats": {"score": {"value": 2}}}}, {"id": "91976310-1", "entrant": {"id": 20819726, "name": "RM | lawl", "participants": [{"id": 19158943, "gamerTag": "lawl", "prefix": "RM", "user": {"location": {"city": "Dacula", "state": "GA", "country": "United States"}}, "player": {"id": 2116990, "gamerTag": "lawl", "prefix": "RM", "user": {"location": {"city": "Dacula", "state": "GA", "country": "United States"}}}}]}, "standing": {"placement": 2, "stats": {"score": {"value": 0}}}}], "games": null}, {"id": 91976389, "state": 3, "round": 2, "fullRoundText": "Winners Quarter-Final", "completedAt": 1753665462, "winnerId": 20819604, "slots": [{"id": "91976389-0", "entrant": {"id": 20819604, "name": "TnT | Sid", "participants": [{"id": 19158829, "gamerTag": "Sid", "prefix": "TnT", "user": {"location": {"city": "Powder Springs", "state": "GA", "country": "United States"}}, "player": {"id": 1229067, "gamerTag": "Sid", "prefix": "TnT", "user": {"location": {"city": "Powder Springs", "state": "GA", "country": "United States"}}}}]}, "standing": {"placement": 1, "stats": {"score": {"value": 2}}}}, {"id": "91976389-1", "entrant": {"id": 20819579, "name": "Jahku$ha", "participants": [{"id": 19158806, "gamerTag": "Jahku$ha", "prefix": "", "user": {"location": {"city": "Atlanta", "state": "GA", "country": "United States"}}, "player": {"id": 4559746, "gamerTag": "Jahku$ha", "prefix": "", "user": {"location": {"city": "Atlanta", "state": "GA", "country": "United States"}}}}]}, "standing": {"placement": 2, "stats": {"score": {"value": 0}}}}], "games": null}, {"id": 91976390, "state": 3, "round": 2, "fullRoundText": "Winners Quarter-Final", "completedAt": 1753665162, "winnerId": 20815645, "slots": [{"id": "91976390-0", "entrant": {"id": 20815645, "name": "TFT | ALLEYCAT", "participants": [{"id": 19155511, "gamerTag": "ALLEYCAT", "prefix": "TFT", "user": {"location": {"city": "Atlanta", "state": "GA", "country": "United States"}}, "player": {"id": 1940654, "gamerTag": "ALLEYCAT", "prefix": "TFT", "user": {"location": {"city": "Atlanta", "state": "GA", "country": "United States"}}}}]}, "standing": {"placement": 1, "stats": {"score": {"value": 2}}}}, {"id": "91976390-1", "entrant": {"id": 20818960, "name": "TFT | Juug$tarr", "participants": [{"id": 19158307, "gamerTag": "Juug$tarr", "prefix": "TFT", "user": {"location": {"city": "Atlanta", "state": "GA", "country": "United States"}}, "player": {"id": 3621035, "gamerTag": "Juug$tarr", "prefix": "TFT", "user": {"location": {"city": "Atlanta", "state": "GA", "country": "United States"}}}}]}, "standing": {"placement": 2, "stats": {"score": {"value": 0}}}}], "games": null}, {"id": 91976311, "state": 3, "round": 2, "fullRoundText": "Winners Quarter-Final", "completedAt": 1753664932, "winnerId": 20819694, "slots": [{"id": "91976311-0", "entrant": {"id": 20819694, "name": "TnT | Monologgue", "participants": [{"id": 19158911, "gamerTag": "Monologgue", "prefix": "TnT", "user": {"location": {"city": "Atlanta", "state": "GA", "country": "United States"}}, "player": {"id": 1135679, "gamerTag": "Monologgue", "prefix": "TnT", "user": {"location": {"city": "Atlanta", "state": "GA", "country": "United States"}}}}]}, "standing": {"placement": 1, "stats": {"score": {"value": 2}}}}, {"id": "91976311-1", "entrant": {"id": 20819758, "name": "RM | WFF | Sakruoi", "participants": [{"id": 19158974, "gamerTag": "Sakruoi", "prefix": "RM | WFF", "user": {"location": {"city": "atlanta", "state": "GA", "country": "United States"}}, "player": {"id": 1230555, "gamerTag": "Sakruoi", "prefix": "RM | WFF", "user": {"location": {"city": "atlanta", "state": "GA", "country": "United States"}}}}]}, "standing": {"placement": 2, "stats": {"score": {"value": 0}}}}], "games": null}, {"id": 91976391, "state": 3, "round": 2, "fullRoundText": "Winners Quarter-Final", "completedAt": 1753709228, "winnerId": 20819696, "slots": [{"id": "91976391-0", "entrant": {"id": 20758052, "name": "TFT | Frank", "participants": [{"id": 19103805, "gamerTag": "Frank", "prefix": "TFT", "user": {"location": {"city": "Doraville", "state": "GA", "country": "United States"}}, "player": {"id": 1227401, "gamerTag": "Terry Labonte", "prefix": "TFT", "user": {"location": {"city": "Doraville", "state": "GA", "country": "United States"}}}}]}, "standing": {"placement": 2, "stats": {"score": {"value": 1}}}}, {"id": "91976391-1", "entrant": {"id": 20819696, "name": "Mrbray30", "participants": [{"id": 19158912, "gamerTag": "Mrbray30", "prefix": "", "user": {"location": {"city": "Atlanta", "state": "GA", "country": "United States"}}, "player": {"id": 4664413, "gamerTag": "Mrbray30", "prefix": "", "user": {"location": {"city": "Atlanta", "state": "GA", "country": "United States"}}}}]}, "standing": {"placement": 1, "stats": {"score": {"value": 2}}}}], "games": [{"id": 31578866, "orderNum": 1, "winnerId": 20758052, "entrant1Score": null, "entrant2Score": 0, "stage": null, "selections": [{"id": 46491961, "selectionType": "CHARACTER", "selectionValue": 1282, "entrant": {"id": 20758052}, "character": {"id": 1282, "name": "Dr. Mario"}}, {"id": 46491962, "selectionType": "CHARACTER", "selectionValue": 1296, "entrant": {"id": 20819696}, "character": {"id": 1296, "name": "Link"}}]}, {"id": 31578867, "orderNum": 2, "winnerId": 20819696, "entrant1Score": 0, "entrant2Score": null, "stage": null, "selections": [{"id": 46491963, "selectionType": "CHARACTER", "selectionValue": 1282, "entrant": {"id": 20758052}, "character": {"id": 1282, "name": "Dr. Mario"}}, {"id": 46491964, "selectionType": "CHARACTER", "selectionValue": 1296, "entrant": {"id": 20819696}, "character": {"id": 1296, "name": "Link"}}]}, {"id": 31578868, "orderNum": 3, "winnerId": 20819696, "entrant1Score": 0, "entrant2Score": 0, "stage": null, "selections": [{"id": 46491965, "selectionType": "CHARACTER", "selectionValue": 1282, "entrant": {"id": 20758052}, "character": {"id": 1282, "name": "Dr. Mario"}}, {"id": 46491966, "selectionType": "CHARACTER", "selectionValue": 1296, "entrant": {"id": 20819696}, "character": {"id": 1296, "name": "Link"}}]}]}, {"id": 91976312, "state": 3, "round": 2, "fullRoundText": "Winners Quarter-Final", "completedAt": 1753664820, "winnerId": 20819855, "slots": [{"id": "91976312-0", "entrant": {"id": 20819855, "name": "WFF | Olive", "participants": [{"id": 19159065, "gamerTag": "Olive", "prefix": "WFF", "user": {"location": {"city": "Atlanta", "state": "GA", "country": "United States"}}, "player": {"id": 1810274, "gamerTag": "Planet Of Da", "prefix": "WeFarmFrank", "user": {"location": {"city": "Atlanta", "state": "GA", "country": "United States"}}}}]}, "standing": {"placement": 1, "stats": {"score": {"value": 2}}}}, {"id": "91976312-1", "entrant": {"id": 20819703, "name": "TFT | BigCheese", "participants": [{"id": 19158919, "gamerTag": "BigCheese", "prefix": "TFT", "user": {"location": {"city": null, "state": null, "country": null}}, "player": {"id": 3991446, "gamerTag": "BigCheese", "prefix": "TFT", "user": {"location": {"city": null, "state": null, "country": null}}}}]}, "standing": {"placement": 2, "stats": {"score": {"value": 0}}}}], "games": null}, {"id": 91976313, "state": 3, "round": 2, "fullRoundText": "Winners Quarter-Final", "completedAt": 1753665886, "winnerId": 20819856, "slots": [{"id": "91976313-0", "entrant": {"id": 20819856, "name": "WFF | Happy", "participants": [{"id": 19159066, "gamerTag": "Happy", "prefix": "WFF", "user": {"location": {"city": "Peachtree CIty", "state": "GA", "country": "United States"}}, "player": {"id": 1383907, "gamerTag": "Happy", "prefix": "WFF", "user": {"location": {"city": "Peachtree CIty", "state": "GA", "country": "United States"}}}}]}, "standing": {"placement": 1, "stats": {"score": {"value": 2}}}}, {"id": "91976313-1", "entrant": {"id": 20819287, "name": "Jdaddy", "participants": [{"id": 19158611, "gamerTag": "Jdaddy", "prefix": null, "user": {"location": {"city": "Atlanta", "state": "GA", "country": "United States"}}, "player": {"id": 4384721, "gamerTag": "Jdaddy", "prefix": null, "user": {"location": {"city": "Atlanta", "state": "GA", "country": "United States"}}}}]}, "standing": {"placement": 2, "stats": {"score": {"value": 1}}}}], "games": null}, {"id": 91977822, "state": 3, "round": -6, "fullRoundText": "Losers Final", "completedAt": 1753672832, "winnerId": 20819471, "slots": [{"id": "91977822-0", "entrant": {"id": 20819471, "name": "4o4 | chooryu :)", "participants": [{"id": 19158751, "gamerTag": "chooryu :)", "prefix": "4o4", "user": {"location": {"city": "Kennesaw", "state": "GA", "country": "United States"}}, "player": {"id": 466564, "gamerTag": "chooryu :)", "prefix": "4o4", "user": {"location": {"city": "Kennesaw", "state": "GA", "country": "United States"}}}}]}, "standing": {"placement": 1, "stats": {"score": {"value": 3}}}}, {"id": "91977822-1", "entrant": {"id": 20819855, "name": "WFF | Olive", "participants": [{"id": 19159065, "gamerTag": "Olive", "prefix": "WFF", "user": {"location": {"city": "Atlanta", "state": "GA", "country": "United States"}}, "player": {"id": 1810274, "gamerTag": "Planet Of Da", "prefix": "WeFarmFrank", "user": {"location": {"city": "Atlanta", "state": "GA", "country": "United States"}}}}]}, "standing": {"placement": 2, "stats": {"score": {"value": 2}}}}], "games": null}, {"id": 91976417, "state": 3, "round": -4, "fullRoundText": "Losers Round 2", "completedAt": 1753665809, "winnerId": 20819857, "slots": [{"id": "91976417-0", "entrant": {"id": 20758052, "name": "TFT | Frank", "participants": [{"id": 19103805, "gamerTag": "Frank", "prefix": "TFT", "user": {"location": {"city": "Doraville", "state": "GA", "country": "United States"}}, "player": {"id": 1227401, "gamerTag": "Terry Labonte", "prefix": "TFT", "user": {"location": {"city": "Doraville", "state": "GA", "country": "United States"}}}}]}, "standing": {"placement": 2, "stats": {"score": {"value": -1}}}}, {"id": "91976417-1", "entrant": {"id": 20819857, "name": "WFF | Minty", "participants": [{"id": 19159067, "gamerTag": "Minty", "prefix": "WFF", "user": {"location": {"city": "Atlanta", "state": "GA", "country": "United States"}}, "player": {"id": 1193981, "gamerTag": "Minty", "prefix": "WFF", "user": {"location": {"city": "Atlanta", "state": "GA", "country": "United States"}}}}]}, "standing": {"placement": 1, "stats": {"score": {"value": 0}}}}], "games": null}, {"id": 91976418, "state": 3, "round": -4, "fullRoundText": "Losers Round 2", "completedAt": 1753666511, "winnerId": 20818960, "slots": [{"id": "91976418-0", "entrant": {"id": 20818960, "name": "TFT | Juug$tarr", "participants": [{"id": 19158307, "gamerTag": "Juug$tarr", "prefix": "TFT", "user": {"location": {"city": "Atlanta", "state": "GA", "country": "United States"}}, "player": {"id": 3621035, "gamerTag": "Juug$tarr", "prefix": "TFT", "user": {"location": {"city": "Atlanta", "state": "GA", "country": "United States"}}}}]}, "standing": {"placement": 1, "stats": {"score": {"value": 2}}}}, {"id": "91976418-1", "entrant": {"id": 20819874, "name": "Dazey", "participants": [{"id": 19159082, "gamerTag": "Dazey", "prefix": "", "user": {"location": {"city": "Atlanta", "state": "GA", "country": "United States"}}, "player": {"id": 4879983, "gamerTag": "Dazey", "prefix": "", "user": {"location": {"city": "Atlanta", "state": "GA", "country": "United States"}}}}]}, "standing": {"placement": 2, "stats": {"score": {"value": 0}}}}], "games": null}, {"id": 91976419, "state": 3, "round": -4, "fullRoundText": "Losers Round 2", "completedAt": 1753667647, "winnerId": 20819584, "slots": [{"id": "91976419-0", "entrant": {"id": 20819579, "name": "Jahku$ha", "participants": [{"id": 19158806, "gamerTag": "Jahku$ha", "prefix": "", "user": {"location": {"city": "Atlanta", "state": "GA", "country": "United States"}}, "player": {"id": 4559746, "gamerTag": "Jahku$ha", "prefix": "", "user": {"location": {"city": "Atlanta", "state": "GA", "country": "United States"}}}}]}, "standing": {"placement": 2, "stats": {"score": {"value": 0}}}}, {"id": "91976419-1", "entrant": {"id": 20819584, "name": "TFT | Handsome Squidward", "participants": [{"id": 19158811, "gamerTag": "Handsome Squidward", "prefix": "TFT", "user": {"location": {"city": "Calhoun", "state": "GA", "country": "United States"}}, "player": {"id": 2241471, "gamerTag": "lil munch", "prefix": "TFT", "user": {"location": {"city": "Calhoun", "state": "GA", "country": "United States"}}}}]}, "standing": {"placement": 1, "stats": {"score": {"value": 2}}}}], "games": null}, {"id": 91976339, "state": 3, "round": -4, "fullRoundText": "Losers Round 2", "completedAt": 1753666766, "winnerId": 20819287, "slots": [{"id": "91976339-0", "entrant": {"id": 20819287, "name": "Jdaddy", "participants": [{"id": 19158611, "gamerTag": "Jdaddy", "prefix": null, "user": {"location": {"city": "Atlanta", "state": "GA", "country": "United States"}}, "player": {"id": 4384721, "gamerTag": "Jdaddy", "prefix": null, "user": {"location": {"city": "Atlanta", "state": "GA", "country": "United States"}}}}]}, "standing": {"placement": 1, "stats": {"score": {"value": 2}}}}, {"id": "91976339-1", "entrant": {"id": 20819644, "name": "GG | VaR", "participants": [{"id": 19158865, "gamerTag": "VaR", "prefix": "GG", "user": {"location": {"city": "Atlanta", "state": "GA", "country": "United States"}}, "player": {"id": 329546, "gamerTag": "VaR", "prefix": "GG", "user": {"location": {"city": "Atlanta", "state": "GA", "country": "United States"}}}}]}, "standing": {"placement": 2, "stats": {"score": {"value": 1}}}}], "games": null}, {"id": 91976340, "state": 3, "round": -4, "fullRoundText": "Losers Round 2", "completedAt": 1753665321, "winnerId": 20819703, "slots": [{"id": "91976340-0", "entrant": {"id": 20819703, "name": "TFT | BigCheese", "participants": [{"id": 19158919, "gamerTag": "BigCheese", "prefix": "TFT", "user": {"location": {"city": null, "state": null, "country": null}}, "player": {"id": 3991446, "gamerTag": "BigCheese", "prefix": "TFT", "user": {"location": {"city": null, "state": null, "country": null}}}}]}, "standing": {"placement": 1, "stats": {"score": {"value": 2}}}}, {"id": "91976340-1", "entrant": {"id": 20817801, "name": "WHOLE MILK", "participants": [{"id": 19157376, "gamerTag": "WHOLE MILK", "prefix": "", "user": {"location": {"city": "New York", "state": null, "country": "United States"}}, "player": {"id": 2981252, "gamerTag": "WHOLE MILK", "prefix": "", "user": {"location": {"city": "New York", "state": null, "country": "United States"}}}}]}, "standing": {"placement": 2, "stats": {"score": {"value": 0}}}}], "games": null}, {"id": 91976420, "state": 3, "round": -4, "fullRoundText": "Losers Round 2", "completedAt": 1753665802, "winnerId": 20819805, "slots": [{"id": "91976420-0", "entrant": {"id": 20819711, "name": "Fishboi", "participants": [{"id": 19158928, "gamerTag": "Fishboi", "prefix": null, "user": {"location": {"city": "Peachtree Corners", "state": "GA", "country": "United States"}}, "player": {"id": 1540302, "gamerTag": "Fishboi", "prefix": null, "user": {"location": {"city": "Peachtree Corners", "state": "GA", "country": "United States"}}}}]}, "standing": {"placement": 2, "stats": {"score": {"value": 0}}}}, {"id": "91976420-1", "entrant": {"id": 20819805, "name": "RAMS | Bragmuffin", "participants": [{"id": 19159020, "gamerTag": "Bragmuffin", "prefix": "RAMS", "user": {"location": {"city": "Alpharetta", "state": "GA", "country": "United States"}}, "player": {"id": 2354073, "gamerTag": "Bragmuffin", "prefix": "RAMS", "user": {"location": {"city": "Alpharetta", "state": "GA", "country": "United States"}}}}]}, "standing": {"placement": 1, "stats": {"score": {"value": 2}}}}], "games": null}]}}}