{"event": {"sets": {"pageInfo": {"totalPages": 3, "total": 33}, "nodes": [{"id": 92740496, "state": 3, "round": -6, "fullRoundText": "Losers Round 3", "completedAt": 1755375644, "winnerId": 20987471, "slots": [{"id": "92740496-0", "entrant": {"id": 20986591, "name": "Archway", "participants": [{"id": 19305958, "gamerTag": "Archway", "prefix": "", "user": {"location": {"city": "Sandy Springs", "state": "GA", "country": "United States"}}, "player": {"id": 1435251, "gamerTag": "Archway", "prefix": "", "user": {"location": {"city": "Sandy Springs", "state": "GA", "country": "United States"}}}}]}, "standing": {"placement": 2, "stats": {"score": {"value": 0}}}}, {"id": "92740496-1", "entrant": {"id": 20987471, "name": "Eternia Corp. | Prince", "participants": [{"id": 19306714, "gamerTag": "Prince", "prefix": "Eternia Corp.", "user": {"location": {"city": "Atlanta", "state": "GA", "country": "United States"}}, "player": {"id": 3448115, "gamerTag": "Prince", "prefix": "Eternia Corp.", "user": {"location": {"city": "Atlanta", "state": "GA", "country": "United States"}}}}]}, "standing": {"placement": 1, "stats": {"score": {"value": 3}}}}], "games": null}, {"id": 92740493, "state": 3, "round": -6, "fullRoundText": "Losers Round 3", "completedAt": 1755374252, "winnerId": 20984583, "slots": [{"id": "92740493-0", "entrant": {"id": 20984583, "name": "4o4 | Yugo", "participants": [{"id": 19304371, "gamerTag": "Yugo", "prefix": "4o4", "user": {"location": {"city": "Sandy springs", "state": "GA", "country": "United States"}}, "player": {"id": 338020, "gamerTag": "Yugo", "prefix": "4o4", "user": {"location": {"city": "Sandy springs", "state": "GA", "country": "United States"}}}}]}, "standing": {"placement": 1, "stats": {"score": {"value": 3}}}}, {"id": "92740493-1", "entrant": {"id": 20983993, "name": "TortaPounder_Chino", "participants": [{"id": 19303960, "gamerTag": "TortaPounder_Chino", "prefix": "", "user": {"location": {"city": "Lawerenceville", "state": "GA", "country": "United States"}}, "player": {"id": 2642938, "gamerTag": "TortaPounder_Chino", "prefix": "", "user": {"location": {"city": "Lawerenceville", "state": "GA", "country": "United States"}}}}]}, "standing": {"placement": 2, "stats": {"score": {"value": 1}}}}], "games": null}, {"id": 92740494, "state": 3, "round": -6, "fullRoundText": "Losers Round 3", "completedAt": 1755375667, "winnerId": 20981134, "slots": [{"id": "92740494-0", "entrant": {"id": 20981134, "name": "4o4 | KhalRhaego", "participants": [{"id": 19301704, "gamerTag": "KhalRhaego", "prefix": "4o4", "user": {"location": {"city": "Jonesboro", "state": "GA", "country": "United States"}}, "player": {"id": 4076327, "gamerTag": "KhalRhaego", "prefix": "BOLT", "user": {"location": {"city": "Jonesboro", "state": "GA", "country": "United States"}}}}]}, "standing": {"placement": 1, "stats": {"score": {"value": 3}}}}, {"id": "92740494-1", "entrant": {"id": 20987301, "name": "Xangief", "participants": [{"id": 19306584, "gamerTag": "Xangief", "prefix": null, "user": {"location": {"city": "Atlanta", "state": "GA", "country": "United States"}}, "player": {"id": 135082, "gamerTag": "Xangief", "prefix": null, "user": {"location": {"city": "Atlanta", "state": "GA", "country": "United States"}}}}]}, "standing": {"placement": 2, "stats": {"score": {"value": 2}}}}], "games": null}, {"id": 92740495, "state": 3, "round": -6, "fullRoundText": "Losers Round 3", "completedAt": 1755374486, "winnerId": 20939325, "slots": [{"id": "92740495-0", "entrant": {"id": 20939325, "name": "Toph The Goat", "participants": [{"id": 19265096, "gamerTag": "Toph The Goat", "prefix": null, "user": {"location": {"city": "Anderson", "state": "SC", "country": "United States"}}, "player": {"id": 3462084, "gamerTag": "Toph The Goat", "prefix": null, "user": {"location": {"city": "Anderson", "state": "SC", "country": "United States"}}}}]}, "standing": {"placement": 1, "stats": {"score": {"value": 3}}}}, {"id": "92740495-1", "entrant": {"id": 20986884, "name": "Pazure", "participants": [{"id": 19306226, "gamerTag": "Pazure", "prefix": null, "user": {"location": {"city": null, "state": null, "country": "United States"}}, "player": {"id": 72218, "gamerTag": "Pazure", "prefix": null, "user": {"location": {"city": null, "state": null, "country": "United States"}}}}]}, "standing": {"placement": 2, "stats": {"score": {"value": 1}}}}], "games": null}, {"id": 92740489, "state": 3, "round": -5, "fullRoundText": "Losers Round 2", "completedAt": 1755373585, "winnerId": 20983993, "slots": [{"id": "92740489-0", "entrant": {"id": 20942559, "name": "Discount_Akuma", "participants": [{"id": 19268034, "gamerTag": "Discount_Akuma", "prefix": null, "user": {"location": {"city": null, "state": "GA", "country": "United States"}}, "player": {"id": 4222724, "gamerTag": "Discount_Akuma", "prefix": null, "user": {"location": {"city": null, "state": "GA", "country": "United States"}}}}]}, "standing": {"placement": 2, "stats": {"score": {"value": 0}}}}, {"id": "92740489-1", "entrant": {"id": 20983993, "name": "TortaPounder_Chino", "participants": [{"id": 19303960, "gamerTag": "TortaPounder_Chino", "prefix": "", "user": {"location": {"city": "Lawerenceville", "state": "GA", "country": "United States"}}, "player": {"id": 2642938, "gamerTag": "TortaPounder_Chino", "prefix": "", "user": {"location": {"city": "Lawerenceville", "state": "GA", "country": "United States"}}}}]}, "standing": {"placement": 1, "stats": {"score": {"value": 3}}}}], "games": null}, {"id": 92740490, "state": 3, "round": -5, "fullRoundText": "Losers Round 2", "completedAt": 1755374469, "winnerId": 20987301, "slots": [{"id": "92740490-0", "entrant": {"id": 20987301, "name": "Xangief", "participants": [{"id": 19306584, "gamerTag": "Xangief", "prefix": null, "user": {"location": {"city": "Atlanta", "state": "GA", "country": "United States"}}, "player": {"id": 135082, "gamerTag": "Xangief", "prefix": null, "user": {"location": {"city": "Atlanta", "state": "GA", "country": "United States"}}}}]}, "standing": {"placement": 1, "stats": {"score": {"value": 3}}}}, {"id": "92740490-1", "entrant": {"id": 20988074, "name": "AntiMatterJ", "participants": [{"id": 19307223, "gamerTag": "AntiMatterJ", "prefix": null, "user": {"location": {"city": "Duluth", "state": "GA", "country": "United States"}}, "player": {"id": 2803679, "gamerTag": "AntiMatterJ", "prefix": null, "user": {"location": {"city": "Duluth", "state": "GA", "country": "United States"}}}}]}, "standing": {"placement": 2, "stats": {"score": {"value": 0}}}}], "games": null}, {"id": 92740491, "state": 3, "round": -5, "fullRoundText": "Losers Round 2", "completedAt": 1755372969, "winnerId": 20986884, "slots": [{"id": "92740491-0", "entrant": {"id": 20986884, "name": "Pazure", "participants": [{"id": 19306226, "gamerTag": "Pazure", "prefix": null, "user": {"location": {"city": null, "state": null, "country": "United States"}}, "player": {"id": 72218, "gamerTag": "Pazure", "prefix": null, "user": {"location": {"city": null, "state": null, "country": "United States"}}}}]}, "standing": {"placement": 1, "stats": {"score": {"value": 3}}}}, {"id": "92740491-1", "entrant": {"id": 20945301, "name": "Doctor.Doom", "participants": [{"id": 19270355, "gamerTag": "Doctor.Doom", "prefix": "", "user": {"location": {"city": null, "state": "GA", "country": "United States"}}, "player": {"id": 4919900, "gamerTag": "Doctor.Doom", "prefix": "", "user": {"location": {"city": null, "state": "GA", "country": "United States"}}}}]}, "standing": {"placement": 2, "stats": {"score": {"value": 0}}}}], "games": null}, {"id": 92740492, "state": 3, "round": -5, "fullRoundText": "Losers Round 2", "completedAt": 1755373456, "winnerId": 20987471, "slots": [{"id": "92740492-0", "entrant": {"id": 20987471, "name": "Eternia Corp. | Prince", "participants": [{"id": 19306714, "gamerTag": "Prince", "prefix": "Eternia Corp.", "user": {"location": {"city": "Atlanta", "state": "GA", "country": "United States"}}, "player": {"id": 3448115, "gamerTag": "Prince", "prefix": "Eternia Corp.", "user": {"location": {"city": "Atlanta", "state": "GA", "country": "United States"}}}}]}, "standing": {"placement": 1, "stats": {"score": {"value": 3}}}}, {"id": "92740492-1", "entrant": {"id": 20987988, "name": "ToBeFrank | FF | SLAYlor Moon", "participants": [{"id": 19307159, "gamerTag": "SLAYlor Moon", "prefix": "ToBeFrank | FF", "user": {"location": {"city": "Atlanta", "state": "GA", "country": "United States"}}, "player": {"id": 267007, "gamerTag": "SLAYlor Moon", "prefix": "ToBeFrank | FF", "user": {"location": {"city": "Atlanta", "state": "GA", "country": "United States"}}}}]}, "standing": {"placement": 2, "stats": {"score": {"value": 0}}}}], "games": null}, {"id": 92740424, "state": 3, "round": 2, "fullRoundText": "Winners Round 2", "completedAt": 1755372834, "winnerId": 20987589, "slots": [{"id": "92740424-0", "entrant": {"id": 20987589, "name": "4o4Esports | CamPaine", "participants": [{"id": 19306818, "gamerTag": "CamPaine", "prefix": "4o4Esports", "user": {"location": {"city": "Brookhaven", "state": "GA", "country": "United States"}}, "player": {"id": 313909, "gamerTag": "CamPaine", "prefix": "4o4Esports", "user": {"location": {"city": "Brookhaven", "state": "GA", "country": "United States"}}}}]}, "standing": {"placement": 1, "stats": {"score": {"value": 3}}}}, {"id": "92740424-1", "entrant": {"id": 20987988, "name": "ToBeFrank | FF | SLAYlor Moon", "participants": [{"id": 19307159, "gamerTag": "SLAYlor Moon", "prefix": "ToBeFrank | FF", "user": {"location": {"city": "Atlanta", "state": "GA", "country": "United States"}}, "player": {"id": 267007, "gamerTag": "SLAYlor Moon", "prefix": "ToBeFrank | FF", "user": {"location": {"city": "Atlanta", "state": "GA", "country": "United States"}}}}]}, "standing": {"placement": 2, "stats": {"score": {"value": 0}}}}], "games": null}, {"id": 92740425, "state": 3, "round": 2, "fullRoundText": "Winners Round 2", "completedAt": 1755372894, "winnerId": 20981134, "slots": [{"id": "92740425-0", "entrant": {"id": 20981134, "name": "4o4 | KhalRhaego", "participants": [{"id": 19301704, "gamerTag": "KhalRhaego", "prefix": "4o4", "user": {"location": {"city": "Jonesboro", "state": "GA", "country": "United States"}}, "player": {"id": 4076327, "gamerTag": "KhalRhaego", "prefix": "BOLT", "user": {"location": {"city": "Jonesboro", "state": "GA", "country": "United States"}}}}]}, "standing": {"placement": 1, "stats": {"score": {"value": 3}}}}, {"id": "92740425-1", "entrant": {"id": 20987471, "name": "Eternia Corp. | Prince", "participants": [{"id": 19306714, "gamerTag": "Prince", "prefix": "Eternia Corp.", "user": {"location": {"city": "Atlanta", "state": "GA", "country": "United States"}}, "player": {"id": 3448115, "gamerTag": "Prince", "prefix": "Eternia Corp.", "user": {"location": {"city": "Atlanta", "state": "GA", "country": "United States"}}}}]}, "standing": {"placement": 2, "stats": {"score": {"value": 0}}}}], "games": null}, {"id": 92740426, "state": 3, "round": 2, "fullRoundText": "Winners Round 2", "completedAt": 1755372132, "winnerId": 20986847, "slots": [{"id": "92740426-0", "entrant": {"id": 20986847, "name": "Noodle", "participants": [{"id": 19306191, "gamerTag": "Noodle", "prefix": null, "user": {"location": {"city": "McDonough", "state": "GA", "country": "United States"}}, "player": {"id": 3029288, "gamerTag": "Noodle", "prefix": "", "user": {"location": {"city": "McDonough", "state": "GA", "country": "United States"}}}}]}, "standing": {"placement": 1, "stats": {"score": {"value": 3}}}}, {"id": "92740426-1", "entrant": {"id": 20945301, "name": "Doctor.Doom", "participants": [{"id": 19270355, "gamerTag": "Doctor.Doom", "prefix": "", "user": {"location": {"city": null, "state": "GA", "country": "United States"}}, "player": {"id": 4919900, "gamerTag": "Doctor.Doom", "prefix": "", "user": {"location": {"city": null, "state": "GA", "country": "United States"}}}}]}, "standing": {"placement": 2, "stats": {"score": {"value": 0}}}}], "games": null}, {"id": 92740427, "state": 3, "round": 2, "fullRoundText": "Winners Round 2", "completedAt": 1755372344, "winnerId": 20984583, "slots": [{"id": "92740427-0", "entrant": {"id": 20984583, "name": "4o4 | Yugo", "participants": [{"id": 19304371, "gamerTag": "Yugo", "prefix": "4o4", "user": {"location": {"city": "Sandy springs", "state": "GA", "country": "United States"}}, "player": {"id": 338020, "gamerTag": "Yugo", "prefix": "4o4", "user": {"location": {"city": "Sandy springs", "state": "GA", "country": "United States"}}}}]}, "standing": {"placement": 1, "stats": {"score": {"value": 3}}}}, {"id": "92740427-1", "entrant": {"id": 20986884, "name": "Pazure", "participants": [{"id": 19306226, "gamerTag": "Pazure", "prefix": null, "user": {"location": {"city": null, "state": null, "country": "United States"}}, "player": {"id": 72218, "gamerTag": "Pazure", "prefix": null, "user": {"location": {"city": null, "state": null, "country": "United States"}}}}]}, "standing": {"placement": 2, "stats": {"score": {"value": 0}}}}], "games": null}, {"id": 92740428, "state": 3, "round": 2, "fullRoundText": "Winners Round 2", "completedAt": 1755372226, "winnerId": 20985761, "slots": [{"id": "92740428-0", "entrant": {"id": 20985761, "name": "Alex_dotdot", "participants": [{"id": 19305284, "gamerTag": "Alex_dotdot", "prefix": null, "user": {"location": {"city": "Tucker", "state": "GA", "country": "United States"}}, "player": {"id": 657023, "gamerTag": "Alex_dotdot", "prefix": null, "user": {"location": {"city": "Tucker", "state": "GA", "country": "United States"}}}}]}, "standing": {"placement": 1, "stats": {"score": {"value": 3}}}}, {"id": "92740428-1", "entrant": {"id": 20988074, "name": "AntiMatterJ", "participants": [{"id": 19307223, "gamerTag": "AntiMatterJ", "prefix": null, "user": {"location": {"city": "Duluth", "state": "GA", "country": "United States"}}, "player": {"id": 2803679, "gamerTag": "AntiMatterJ", "prefix": null, "user": {"location": {"city": "Duluth", "state": "GA", "country": "United States"}}}}]}, "standing": {"placement": 2, "stats": {"score": {"value": 0}}}}], "games": null}, {"id": 92740429, "state": 3, "round": 2, "fullRoundText": "Winners Round 2", "completedAt": 1755373992, "winnerId": 20986591, "slots": [{"id": "92740429-0", "entrant": {"id": 20986591, "name": "Archway", "participants": [{"id": 19305958, "gamerTag": "Archway", "prefix": "", "user": {"location": {"city": "Sandy Springs", "state": "GA", "country": "United States"}}, "player": {"id": 1435251, "gamerTag": "Archway", "prefix": "", "user": {"location": {"city": "Sandy Springs", "state": "GA", "country": "United States"}}}}]}, "standing": {"placement": 1, "stats": {"score": {"value": 3}}}}, {"id": "92740429-1", "entrant": {"id": 20987301, "name": "Xangief", "participants": [{"id": 19306584, "gamerTag": "Xangief", "prefix": null, "user": {"location": {"city": "Atlanta", "state": "GA", "country": "United States"}}, "player": {"id": 135082, "gamerTag": "Xangief", "prefix": null, "user": {"location": {"city": "Atlanta", "state": "GA", "country": "United States"}}}}]}, "standing": {"placement": 2, "stats": {"score": {"value": 2}}}}], "games": null}, {"id": 92740430, "state": 3, "round": 2, "fullRoundText": "Winners Round 2", "completedAt": 1755372905, "winnerId": 20961219, "slots": [{"id": "92740430-0", "entrant": {"id": 20961219, "name": "4o4 | Musa", "participants": [{"id": 19284016, "gamerTag": "Musa", "prefix": "4o4", "user": {"location": {"city": null, "state": null, "country": "United States"}}, "player": {"id": 131537, "gamerTag": "Musa", "prefix": "4o4", "user": {"location": {"city": null, "state": null, "country": "United States"}}}}]}, "standing": {"placement": 1, "stats": {"score": {"value": 3}}}}, {"id": "92740430-1", "entrant": {"id": 20983993, "name": "TortaPounder_Chino", "participants": [{"id": 19303960, "gamerTag": "TortaPounder_Chino", "prefix": "", "user": {"location": {"city": "Lawerenceville", "state": "GA", "country": "United States"}}, "player": {"id": 2642938, "gamerTag": "TortaPounder_Chino", "prefix": "", "user": {"location": {"city": "Lawerenceville", "state": "GA", "country": "United States"}}}}]}, "standing": {"placement": 2, "stats": {"score": {"value": 0}}}}], "games": null}]}}}