{"event": {"sets": {"pageInfo": {"totalPages": 2, "total": 19}, "nodes": [{"id": 94019088, "state": 3, "round": 5, "fullRoundText": "Grand Final", "completedAt": 1758241870, "winnerId": 21306785, "slots": [{"id": "94019088-0", "entrant": {"id": 21312145, "name": "Follow me pls | Ttv.Snoozy040", "participants": [{"id": 19592697, "gamerTag": "Ttv.Snoozy040", "prefix": "Follow me pls", "user": {"location": {"city": null, "state": null, "country": "United States"}}, "player": {"id": 3190984, "gamerTag": "Ttv.Snoozy040", "prefix": "Follow me pls", "user": {"location": {"city": null, "state": null, "country": "United States"}}}}]}, "standing": {"placement": 2, "stats": {"score": {"value": 0}}}}, {"id": "94019088-1", "entrant": {"id": 21306785, "name": "IriZA", "participants": [{"id": 19588200, "gamerTag": "IriZA", "prefix": "", "user": {"location": {"city": "Savannah", "state": "TX", "country": "United States"}}, "player": {"id": 3784092, "gamerTag": "IriZA", "prefix": "", "user": {"location": {"city": "Savannah", "state": "TX", "country": "United States"}}}}]}, "standing": {"placement": 1, "stats": {"score": {"value": 3}}}}], "games": null}, {"id": 94019089, "state": 3, "round": 5, "fullRoundText": "Grand Final Reset", "completedAt": 1758242616, "winnerId": 21306785, "slots": [{"id": "94019089-0", "entrant": {"id": 21306785, "name": "IriZA", "participants": [{"id": 19588200, "gamerTag": "IriZA", "prefix": "", "user": {"location": {"city": "Savannah", "state": "TX", "country": "United States"}}, "player": {"id": 3784092, "gamerTag": "IriZA", "prefix": "", "user": {"location": {"city": "Savannah", "state": "TX", "country": "United States"}}}}]}, "standing": {"placement": 1, "stats": {"score": {"value": 3}}}}, {"id": "94019089-1", "entrant": {"id": 21312145, "name": "Follow me pls | Ttv.Snoozy040", "participants": [{"id": 19592697, "gamerTag": "Ttv.Snoozy040", "prefix": "Follow me pls", "user": {"location": {"city": null, "state": null, "country": "United States"}}, "player": {"id": 3190984, "gamerTag": "Ttv.Snoozy040", "prefix": "Follow me pls", "user": {"location": {"city": null, "state": null, "country": "United States"}}}}]}, "standing": {"placement": 2, "stats": {"score": {"value": 2}}}}], "games": null}, {"id": 94019087, "state": 3, "round": 4, "fullRoundText": "Winners Final", "completedAt": 1758239719, "winnerId": 21312145, "slots": [{"id": "94019087-0", "entrant": {"id": 21312145, "name": "Follow me pls | Ttv.Snoozy040", "participants": [{"id": 19592697, "gamerTag": "Ttv.Snoozy040", "prefix": "Follow me pls", "user": {"location": {"city": null, "state": null, "country": "United States"}}, "player": {"id": 3190984, "gamerTag": "Ttv.Snoozy040", "prefix": "Follow me pls", "user": {"location": {"city": null, "state": null, "country": "United States"}}}}]}, "standing": {"placement": 1, "stats": {"score": {"value": 3}}}}, {"id": "94019087-1", "entrant": {"id": 21304546, "name": "SQ1 | TheFamilyPanda", "participants": [{"id": 19586143, "gamerTag": "TheFamilyPanda", "prefix": "SQ1", "user": {"location": {"city": "Savannah", "state": "GA", "country": "United States"}}, "player": {"id": 2228673, "gamerTag": "TheFamilyPanda", "prefix": "SQ1", "user": {"location": {"city": "Savannah", "state": "GA", "country": "United States"}}}}]}, "standing": {"placement": 2, "stats": {"score": {"value": 0}}}}], "games": null}, {"id": 94019119, "state": 3, "round": -8, "fullRoundText": "Losers Final", "completedAt": 1758241270, "winnerId": 21306785, "slots": [{"id": "94019119-0", "entrant": {"id": 21304546, "name": "SQ1 | TheFamilyPanda", "participants": [{"id": 19586143, "gamerTag": "TheFamilyPanda", "prefix": "SQ1", "user": {"location": {"city": "Savannah", "state": "GA", "country": "United States"}}, "player": {"id": 2228673, "gamerTag": "TheFamilyPanda", "prefix": "SQ1", "user": {"location": {"city": "Savannah", "state": "GA", "country": "United States"}}}}]}, "standing": {"placement": 2, "stats": {"score": {"value": 1}}}}, {"id": "94019119-1", "entrant": {"id": 21306785, "name": "IriZA", "participants": [{"id": 19588200, "gamerTag": "IriZA", "prefix": "", "user": {"location": {"city": "Savannah", "state": "TX", "country": "United States"}}, "player": {"id": 3784092, "gamerTag": "IriZA", "prefix": "", "user": {"location": {"city": "Savannah", "state": "TX", "country": "United States"}}}}]}, "standing": {"placement": 1, "stats": {"score": {"value": 3}}}}], "games": null}, {"id": 94019118, "state": 3, "round": -7, "fullRoundText": "Losers Semi-Final", "completedAt": 1758240723, "winnerId": 21306785, "slots": [{"id": "94019118-0", "entrant": {"id": 21306785, "name": "IriZA", "participants": [{"id": 19588200, "gamerTag": "IriZA", "prefix": "", "user": {"location": {"city": "Savannah", "state": "TX", "country": "United States"}}, "player": {"id": 3784092, "gamerTag": "IriZA", "prefix": "", "user": {"location": {"city": "Savannah", "state": "TX", "country": "United States"}}}}]}, "standing": {"placement": 1, "stats": {"score": {"value": 3}}}}, {"id": "94019118-1", "entrant": {"id": 21312210, "name": "SQ1 | Luff", "participants": [{"id": 19592758, "gamerTag": "Luff", "prefix": "SQ1", "user": {"location": {"city": "Savannah", "state": "GA", "country": "United States"}}, "player": {"id": 4102348, "gamerTag": "Luff", "prefix": "SQ1", "user": {"location": {"city": "Savannah", "state": "GA", "country": "United States"}}}}]}, "standing": {"placement": 2, "stats": {"score": {"value": 0}}}}], "games": null}, {"id": 94019085, "state": 3, "round": 3, "fullRoundText": "Winners Semi-Final", "completedAt": 1758237848, "winnerId": 21312145, "slots": [{"id": "94019085-0", "entrant": {"id": 21312145, "name": "Follow me pls | Ttv.Snoozy040", "participants": [{"id": 19592697, "gamerTag": "Ttv.Snoozy040", "prefix": "Follow me pls", "user": {"location": {"city": null, "state": null, "country": "United States"}}, "player": {"id": 3190984, "gamerTag": "Ttv.Snoozy040", "prefix": "Follow me pls", "user": {"location": {"city": null, "state": null, "country": "United States"}}}}]}, "standing": {"placement": 1, "stats": {"score": {"value": 3}}}}, {"id": "94019085-1", "entrant": {"id": 21306785, "name": "IriZA", "participants": [{"id": 19588200, "gamerTag": "IriZA", "prefix": "", "user": {"location": {"city": "Savannah", "state": "TX", "country": "United States"}}, "player": {"id": 3784092, "gamerTag": "IriZA", "prefix": "", "user": {"location": {"city": "Savannah", "state": "TX", "country": "United States"}}}}]}, "standing": {"placement": 2, "stats": {"score": {"value": 2}}}}], "games": null}, {"id": 94019086, "state": 3, "round": 3, "fullRoundText": "Winners Semi-Final", "completedAt": 1758238121, "winnerId": 21304546, "slots": [{"id": "94019086-0", "entrant": {"id": 21304463, "name": "otherzenith", "participants": [{"id": 19586074, "gamerTag": "otherzenith", "prefix": "", "user": {"location": {"city": "Kennesaw", "state": null, "country": "United States"}}, "player": {"id": 3827458, "gamerTag": "otherzenith", "prefix": "", "user": {"location": {"city": "Kennesaw", "state": null, "country": "United States"}}}}]}, "standing": {"placement": 2, "stats": {"score": {"value": 2}}}}, {"id": "94019086-1", "entrant": {"id": 21304546, "name": "SQ1 | TheFamilyPanda", "participants": [{"id": 19586143, "gamerTag": "TheFamilyPanda", "prefix": "SQ1", "user": {"location": {"city": "Savannah", "state": "GA", "country": "United States"}}, "player": {"id": 2228673, "gamerTag": "TheFamilyPanda", "prefix": "SQ1", "user": {"location": {"city": "Savannah", "state": "GA", "country": "United States"}}}}]}, "standing": {"placement": 1, "stats": {"score": {"value": 3}}}}], "games": null}, {"id": 94019116, "state": 3, "round": -6, "fullRoundText": "Losers Quarter-Final", "completedAt": 1758238833, "winnerId": 21306785, "slots": [{"id": "94019116-0", "entrant": {"id": 21306785, "name": "IriZA", "participants": [{"id": 19588200, "gamerTag": "IriZA", "prefix": "", "user": {"location": {"city": "Savannah", "state": "TX", "country": "United States"}}, "player": {"id": 3784092, "gamerTag": "IriZA", "prefix": "", "user": {"location": {"city": "Savannah", "state": "TX", "country": "United States"}}}}]}, "standing": {"placement": 1, "stats": {"score": {"value": 3}}}}, {"id": "94019116-1", "entrant": {"id": 21312127, "name": "Aloe", "participants": [{"id": 19592685, "gamerTag": "Aloe", "prefix": null, "user": {"location": {"city": "Savannah", "state": "WI", "country": "United States"}}, "player": {"id": 2656903, "gamerTag": "Aloe", "prefix": null, "user": {"location": {"city": "Savannah", "state": "WI", "country": "United States"}}}}]}, "standing": {"placement": 2, "stats": {"score": {"value": 1}}}}], "games": null}, {"id": 94019117, "state": 3, "round": -6, "fullRoundText": "Losers Quarter-Final", "completedAt": 1758240273, "winnerId": 21312210, "slots": [{"id": "94019117-0", "entrant": {"id": 21304463, "name": "otherzenith", "participants": [{"id": 19586074, "gamerTag": "otherzenith", "prefix": "", "user": {"location": {"city": "Kennesaw", "state": null, "country": "United States"}}, "player": {"id": 3827458, "gamerTag": "otherzenith", "prefix": "", "user": {"location": {"city": "Kennesaw", "state": null, "country": "United States"}}}}]}, "standing": {"placement": 2, "stats": {"score": {"value": 2}}}}, {"id": "94019117-1", "entrant": {"id": 21312210, "name": "SQ1 | Luff", "participants": [{"id": 19592758, "gamerTag": "Luff", "prefix": "SQ1", "user": {"location": {"city": "Savannah", "state": "GA", "country": "United States"}}, "player": {"id": 4102348, "gamerTag": "Luff", "prefix": "SQ1", "user": {"location": {"city": "Savannah", "state": "GA", "country": "United States"}}}}]}, "standing": {"placement": 1, "stats": {"score": {"value": 3}}}}], "games": null}, {"id": 94019114, "state": 3, "round": -5, "fullRoundText": "Losers Round 2", "completedAt": 1758237528, "winnerId": 21312127, "slots": [{"id": "94019114-0", "entrant": {"id": 21312127, "name": "Aloe", "participants": [{"id": 19592685, "gamerTag": "Aloe", "prefix": null, "user": {"location": {"city": "Savannah", "state": "WI", "country": "United States"}}, "player": {"id": 2656903, "gamerTag": "Aloe", "prefix": null, "user": {"location": {"city": "Savannah", "state": "WI", "country": "United States"}}}}]}, "standing": {"placement": 1, "stats": {"score": {"value": 3}}}}, {"id": "94019114-1", "entrant": {"id": 21312100, "name": "SQ1 | Drokifam", "participants": [{"id": 19592661, "gamerTag": "Drokifam", "prefix": "SQ1", "user": {"location": {"city": "Hardeeville", "state": "SC", "country": "United States"}}, "player": {"id": 2801389, "gamerTag": "Drokifam", "prefix": "SQ1", "user": {"location": {"city": "Hardeeville", "state": "SC", "country": "United States"}}}}]}, "standing": {"placement": 2, "stats": {"score": {"value": 0}}}}], "games": null}, {"id": 94019115, "state": 3, "round": -5, "fullRoundText": "Losers Round 2", "completedAt": 1758239085, "winnerId": 21312210, "slots": [{"id": "94019115-0", "entrant": {"id": 21312210, "name": "SQ1 | Luff", "participants": [{"id": 19592758, "gamerTag": "Luff", "prefix": "SQ1", "user": {"location": {"city": "Savannah", "state": "GA", "country": "United States"}}, "player": {"id": 4102348, "gamerTag": "Luff", "prefix": "SQ1", "user": {"location": {"city": "Savannah", "state": "GA", "country": "United States"}}}}]}, "standing": {"placement": 1, "stats": {"score": {"value": 3}}}}, {"id": "94019115-1", "entrant": {"id": 21304429, "name": "dertdobber", "participants": [{"id": 19586040, "gamerTag": "dertdobber", "prefix": null, "user": {"location": {"city": "Savannah", "state": "GA", "country": "United States"}}, "player": {"id": 173899, "gamerTag": "dertdobber", "prefix": null, "user": {"location": {"city": "Savannah", "state": "GA", "country": "United States"}}}}]}, "standing": {"placement": 2, "stats": {"score": {"value": 1}}}}], "games": null}, {"id": 94019081, "state": 3, "round": 2, "fullRoundText": "Winners Quarter-Final", "completedAt": 1758236492, "winnerId": 21312145, "slots": [{"id": "94019081-0", "entrant": {"id": 21304429, "name": "dertdobber", "participants": [{"id": 19586040, "gamerTag": "dertdobber", "prefix": null, "user": {"location": {"city": "Savannah", "state": "GA", "country": "United States"}}, "player": {"id": 173899, "gamerTag": "dertdobber", "prefix": null, "user": {"location": {"city": "Savannah", "state": "GA", "country": "United States"}}}}]}, "standing": {"placement": 2, "stats": {"score": {"value": 1}}}}, {"id": "94019081-1", "entrant": {"id": 21312145, "name": "Follow me pls | Ttv.Snoozy040", "participants": [{"id": 19592697, "gamerTag": "Ttv.Snoozy040", "prefix": "Follow me pls", "user": {"location": {"city": null, "state": null, "country": "United States"}}, "player": {"id": 3190984, "gamerTag": "Ttv.Snoozy040", "prefix": "Follow me pls", "user": {"location": {"city": null, "state": null, "country": "United States"}}}}]}, "standing": {"placement": 1, "stats": {"score": {"value": 3}}}}], "games": null}, {"id": 94019082, "state": 3, "round": 2, "fullRoundText": "Winners Quarter-Final", "completedAt": 1758235138, "winnerId": 21306785, "slots": [{"id": "94019082-0", "entrant": {"id": 21305513, "name": "Armor Jeff", "participants": [{"id": 19587002, "gamerTag": "Armor Jeff", "prefix": "", "user": {"location": {"city": "Savannah", "state": "GA", "country": "United States"}}, "player": {"id": 3937751, "gamerTag": "Armor Jeff", "prefix": "", "user": {"location": {"city": "Savannah", "state": "GA", "country": "United States"}}}}]}, "standing": {"placement": 2, "stats": {"score": {"value": 0}}}}, {"id": "94019082-1", "entrant": {"id": 21306785, "name": "IriZA", "participants": [{"id": 19588200, "gamerTag": "IriZA", "prefix": "", "user": {"location": {"city": "Savannah", "state": "TX", "country": "United States"}}, "player": {"id": 3784092, "gamerTag": "IriZA", "prefix": "", "user": {"location": {"city": "Savannah", "state": "TX", "country": "United States"}}}}]}, "standing": {"placement": 1, "stats": {"score": {"value": 3}}}}], "games": null}, {"id": 94019083, "state": 3, "round": 2, "fullRoundText": "Winners Quarter-Final", "completedAt": 1758236430, "winnerId": 21304463, "slots": [{"id": "94019083-0", "entrant": {"id": 21304463, "name": "otherzenith", "participants": [{"id": 19586074, "gamerTag": "otherzenith", "prefix": "", "user": {"location": {"city": "Kennesaw", "state": null, "country": "United States"}}, "player": {"id": 3827458, "gamerTag": "otherzenith", "prefix": "", "user": {"location": {"city": "Kennesaw", "state": null, "country": "United States"}}}}]}, "standing": {"placement": 1, "stats": {"score": {"value": 3}}}}, {"id": "94019083-1", "entrant": {"id": 21312100, "name": "SQ1 | Drokifam", "participants": [{"id": 19592661, "gamerTag": "Drokifam", "prefix": "SQ1", "user": {"location": {"city": "Hardeeville", "state": "SC", "country": "United States"}}, "player": {"id": 2801389, "gamerTag": "Drokifam", "prefix": "SQ1", "user": {"location": {"city": "Hardeeville", "state": "SC", "country": "United States"}}}}]}, "standing": {"placement": 2, "stats": {"score": {"value": 2}}}}], "games": null}, {"id": 94019084, "state": 3, "round": 2, "fullRoundText": "Winners Quarter-Final", "completedAt": 1758236482, "winnerId": 21304546, "slots": [{"id": "94019084-0", "entrant": {"id": 21304546, "name": "SQ1 | TheFamilyPanda", "participants": [{"id": 19586143, "gamerTag": "TheFamilyPanda", "prefix": "SQ1", "user": {"location": {"city": "Savannah", "state": "GA", "country": "United States"}}, "player": {"id": 2228673, "gamerTag": "TheFamilyPanda", "prefix": "SQ1", "user": {"location": {"city": "Savannah", "state": "GA", "country": "United States"}}}}]}, "standing": {"placement": 1, "stats": {"score": {"value": 3}}}}, {"id": "94019084-1", "entrant": {"id": 21309755, "name": "MoniKrow", "participants": [{"id": 19590839, "gamerTag": "MoniKrow", "prefix": null, "user": {"location": {"city": "Savannah", "state": "GA", "country": "United States"}}, "player": {"id": 4982588, "gamerTag": "MoniKrow", "prefix": null, "user": {"location": {"city": "Savannah", "state": "GA", "country": "United States"}}}}]}, "standing": {"placement": 2, "stats": {"score": {"value": 0}}}}], "games": null}]}}}