{"phase": {"seeds": {"pageInfo": {"totalPages": 1, "total": 9}, "nodes": [{"id": 36931092, "seedNum": 2, "entrant": {"id": 21484335, "name": "jakefan01", "participants": [{"id": 19741939, "gamerTag": "jakefan01", "prefix": "", "user": null, "player": {"id": 5008190, "gamerTag": "jakefan01", "prefix": "", "user": null}}]}}, {"id": 36931261, "seedNum": 3, "entrant": {"id": 21484496, "name": "noided", "participants": [{"id": 19743029, "gamerTag": "noided", "prefix": "", "user": {"location": {"city": "Atlanta", "state": "GA", "country": "United States"}}, "player": {"id": 2586521, "gamerTag": "noided", "prefix": "", "user": {"location": {"city": "Atlanta", "state": "GA", "country": "United States"}}}}]}}, {"id": 36931259, "seedNum": 1, "entrant": {"id": 21484494, "name": "blaise", "participants": [{"id": 19732003, "gamerTag": "blaise", "prefix": "", "user": {"location": {"city": "douglasville", "state": "GA", "country": "United States"}}, "player": {"id": 1326121, "gamerTag": "blaise", "prefix": "", "user": {"location": {"city": "douglasville", "state": "GA", "country": "United States"}}}}]}}, {"id": 36931081, "seedNum": 5, "entrant": {"id": 21484326, "name": "Newt Man", "participants": [{"id": 19740389, "gamerTag": "Newt Man", "prefix": "", "user": {"location": {"city": null, "state": null, "country": "United States"}}, "player": {"id": 4726806, "gamerTag": "Newt Man", "prefix": "", "user": {"location": {"city": null, "state": null, "country": "United States"}}}}]}}, {"id": 36931162, "seedNum": 4, "entrant": {"id": 21484398, "name": "Tyme", "participants": [{"id": 19741344, "gamerTag": "Tyme", "prefix": null, "user": {"location": {"city": null, "state": null, "country": null}}, "player": {"id": 325589, "gamerTag": "Tyme", "prefix": null, "user": {"location": {"city": null, "state": null, "country": null}}}}]}}, {"id": 36931128, "seedNum": 7, "entrant": {"id": 21484364, "name": "June!", "participants": [{"id": 19738445, "gamerTag": "June!", "prefix": null, "user": {"location": {"city": null, "state": "GA", "country": "United States"}}, "player": {"id": 1969803, "gamerTag": "June!", "prefix": null, "user": {"location": {"city": null, "state": "GA", "country": "United States"}}}}]}}, {"id": 36931148, "seedNum": 6, "entrant": {"id": 21484385, "name": "Permafrost", "participants": [{"id": 19741624, "gamerTag": "Permafrost", "prefix": "", "user": {"location": {"city": "Atlanta", "state": "GA", "country": "United States"}}, "player": {"id": 1256898, "gamerTag": "Permafrost", "prefix": "", "user": {"location": {"city": "Atlanta", "state": "GA", "country": "United States"}}}}]}}, {"id": 36930800, "seedNum": 8, "entrant": {"id": 21484177, "name": "TPS | $CAITLIN", "participants": [{"id": 19738374, "gamerTag": "$CAITLIN", "prefix": "TPS", "user": {"location": {"city": "Acworth", "state": "GA", "country": "United States"}}, "player": {"id": 3422494, "gamerTag": "$CAITLIN", "prefix": "TPS", "user": {"location": {"city": "Acworth", "state": "GA", "country": "United States"}}}}]}}, {"id": 36930876, "seedNum": 9, "entrant": {"id": 21484202, "name": "popsicle", "participants": [{"id": 19735277, "gamerTag": "popsicle", "prefix": "", "user": {"location": {"city": "Atlanta", "state": "GA", "country": "United States"}}, "player": {"id": 4435133, "gamerTag": "popsicle", "prefix": "", "user": {"location": {"city": "Atlanta", "state": "GA", "country": "United States"}}}}]}}]}}}