{"phase": {"seeds": {"pageInfo": {"totalPages": 1, "total": 11}, "nodes": [{"id": 36225939, "seedNum": 1, "entrant": {"id": 21005669, "name": "Shiki Senpai", "participants": [{"id": 19323302, "gamerTag": "Shiki Senpai", "prefix": null, "user": {"location": {"city": null, "state": "GA", "country": "United States"}}, "player": {"id": 2254075, "gamerTag": "Shiki Senpai", "prefix": "TMNS", "user": {"location": {"city": null, "state": "GA", "country": "United States"}}}}]}}, {"id": 36308599, "seedNum": 2, "entrant": {"id": 21060131, "name": "Licorice", "participants": [{"id": 19372323, "gamerTag": "Licorice", "prefix": "", "user": {"location": {"city": null, "state": "GA", "country": "United States"}}, "player": {"id": 3559388, "gamerTag": "Licorice", "prefix": "", "user": {"location": {"city": null, "state": "GA", "country": "United States"}}}}]}}, {"id": 36121003, "seedNum": 5, "entrant": {"id": 20944023, "name": "Gorduri Cap", "participants": [{"id": 19269365, "gamerTag": "Gorduri Cap", "prefix": "", "user": {"location": {"city": "", "state": "AK", "country": "United States"}}, "player": {"id": 2068683, "gamerTag": "Spauldo", "prefix": "", "user": {"location": {"city": "", "state": "AK", "country": "United States"}}}}]}}, {"id": 36116392, "seedNum": 4, "entrant": {"id": 20940383, "name": "ATLRiot", "participants": [{"id": 19266092, "gamerTag": "ATLRiot", "prefix": null, "user": {"location": {"city": "Augusta", "state": "GA", "country": "United States"}}, "player": {"id": 2057913, "gamerTag": "ATLRiot", "prefix": "", "user": {"location": {"city": "Augusta", "state": "GA", "country": "United States"}}}}]}}, {"id": 36213171, "seedNum": 3, "entrant": {"id": 20997363, "name": "HAND$OME", "participants": [{"id": 19315244, "gamerTag": "HAND$OME", "prefix": null, "user": {"location": {"city": null, "state": "GA", "country": "United States"}}, "player": {"id": 813037, "gamerTag": "HAND$OME", "prefix": null, "user": {"location": {"city": null, "state": "GA", "country": "United States"}}}}]}}, {"id": 36302738, "seedNum": 6, "entrant": {"id": 21055750, "name": "cheddarcola", "participants": [{"id": 19368588, "gamerTag": "cheddarcola", "prefix": null, "user": {"location": {"city": null, "state": null, "country": "United States"}}, "player": {"id": 4724537, "gamerTag": "cheddarcola", "prefix": null, "user": {"location": {"city": null, "state": null, "country": "United States"}}}}]}}, {"id": 36295473, "seedNum": 7, "entrant": {"id": 21050079, "name": "Greenbean", "participants": [{"id": 19363503, "gamerTag": "Greenbean", "prefix": null, "user": {"location": {"city": "Augusta", "state": "GA", "country": "United States"}}, "player": {"id": 2249747, "gamerTag": "Greenbean", "prefix": null, "user": {"location": {"city": "Augusta", "state": "GA", "country": "United States"}}}}]}}, {"id": 36118167, "seedNum": 9, "entrant": {"id": 20941843, "name": "Yamcha157", "participants": [{"id": 19267400, "gamerTag": "Yamcha157", "prefix": null, "user": {"location": {"city": null, "state": null, "country": null}}, "player": {"id": 3440866, "gamerTag": "Yamcha157", "prefix": null, "user": {"location": {"city": null, "state": null, "country": null}}}}]}}, {"id": 36215227, "seedNum": 8, "entrant": {"id": 20998866, "name": "CV | NiNE", "participants": [{"id": 19316676, "gamerTag": "NiNE", "prefix": "CV", "user": {"location": {"city": "Augusta", "state": "GA", "country": "United States"}}, "player": {"id": 25337, "gamerTag": "NiNE", "prefix": "CV", "user": {"location": {"city": "Augusta", "state": "GA", "country": "United States"}}}}]}}, {"id": 36295413, "seedNum": 10, "entrant": {"id": 21050015, "name": "flappavelli", "participants": [{"id": 19363431, "gamerTag": "flappavelli", "prefix": "", "user": {"location": {"city": null, "state": "GA", "country": "United States"}}, "player": {"id": 4936761, "gamerTag": "flappavelli", "prefix": "", "user": {"location": {"city": null, "state": "GA", "country": "United States"}}}}]}}, {"id": 36304501, "seedNum": 11, "entrant": {"id": 21057109, "name": "Lads | JWow", "participants": [{"id": 19369685, "gamerTag": "JWow", "prefix": "Lads", "user": {"location": {"city": "AUGUSTA", "state": "GA", "country": "United States"}}, "player": {"id": 4937147, "gamerTag": "JWow", "prefix": null, "user": {"location": {"city": "AUGUSTA", "state": "GA", "country": "United States"}}}}]}}]}}}