{"event": {"sets": {"pageInfo": {"totalPages": 3, "total": 34}, "nodes": [{"id": 93698231, "state": 3, "round": -4, "fullRoundText": "Losers Round 1", "completedAt": 1757466419, "winnerId": 21213671, "slots": [{"id": "93698231-0", "entrant": {"id": 21213671, "name": "Noodle", "participants": [{"id": 19509259, "gamerTag": "Noodle", "prefix": "", "user": {"location": {"city": "McDonough", "state": "GA", "country": "United States"}}, "player": {"id": 3029288, "gamerTag": "Noodle", "prefix": "", "user": {"location": {"city": "McDonough", "state": "GA", "country": "United States"}}}}]}, "standing": {"placement": 1, "stats": {"score": {"value": 3}}}}, {"id": "93698231-1", "entrant": {"id": 21211243, "name": "Pazure", "participants": [{"id": 19507122, "gamerTag": "Pazure", "prefix": null, "user": {"location": {"city": null, "state": null, "country": "United States"}}, "player": {"id": 72218, "gamerTag": "Pazure", "prefix": null, "user": {"location": {"city": null, "state": null, "country": "United States"}}}}]}, "standing": {"placement": 2, "stats": {"score": {"value": 0}}}}], "games": null}, {"id": 93698235, "state": 3, "round": -4, "fullRoundText": "Losers Round 1", "completedAt": 1757467813, "winnerId": 21217182, "slots": [{"id": "93698235-0", "entrant": {"id": 21217182, "name": "Envy", "participants": [{"id": 19512275, "gamerTag": "Envy", "prefix": null, "user": {"location": {"city": "Dallas", "state": "GA", "country": "United States"}}, "player": {"id": 1940158, "gamerTag": "Envy", "prefix": null, "user": {"location": {"city": "Dallas", "state": "GA", "country": "United States"}}}}]}, "standing": {"placement": 1, "stats": {"score": {"value": 3}}}}, {"id": "93698235-1", "entrant": {"id": 21216014, "name": "4o4 | CoNavySeal", "participants": [{"id": 19511265, "gamerTag": "CoNavySeal", "prefix": "4o4", "user": {"location": {"city": "Alpharetta", "state": "GA", "country": "United States"}}, "player": {"id": 3818891, "gamerTag": "CoNavySeal", "prefix": "4o4", "user": {"location": {"city": "Alpharetta", "state": "GA", "country": "United States"}}}}]}, "standing": {"placement": 2, "stats": {"score": {"value": 2}}}}], "games": null}, {"id": 93698159, "state": 3, "round": 1, "fullRoundText": "Winners Round 1", "completedAt": 1757465625, "winnerId": 21214016, "slots": [{"id": "93698159-0", "entrant": {"id": 21211243, "name": "Pazure", "participants": [{"id": 19507122, "gamerTag": "Pazure", "prefix": null, "user": {"location": {"city": null, "state": null, "country": "United States"}}, "player": {"id": 72218, "gamerTag": "Pazure", "prefix": null, "user": {"location": {"city": null, "state": null, "country": "United States"}}}}]}, "standing": {"placement": 2, "stats": {"score": {"value": 0}}}}, {"id": "93698159-1", "entrant": {"id": 21214016, "name": "BetrayedPrince", "participants": [{"id": 19509525, "gamerTag": "BetrayedPrince", "prefix": null, "user": {"location": {"city": "McDonough", "state": "GA", "country": "United States"}}, "player": {"id": 211543, "gamerTag": "BetrayedPrince", "prefix": null, "user": {"location": {"city": "McDonough", "state": "GA", "country": "United States"}}}}]}, "standing": {"placement": 1, "stats": {"score": {"value": 3}}}}], "games": null}, {"id": 93698167, "state": 3, "round": 1, "fullRoundText": "Winners Round 1", "completedAt": 1757465713, "winnerId": 21217995, "slots": [{"id": "93698167-0", "entrant": {"id": 21216014, "name": "4o4 | CoNavySeal", "participants": [{"id": 19511265, "gamerTag": "CoNavySeal", "prefix": "4o4", "user": {"location": {"city": "Alpharetta", "state": "GA", "country": "United States"}}, "player": {"id": 3818891, "gamerTag": "CoNavySeal", "prefix": "4o4", "user": {"location": {"city": "Alpharetta", "state": "GA", "country": "United States"}}}}]}, "standing": {"placement": 2, "stats": {"score": {"value": 2}}}}, {"id": "93698167-1", "entrant": {"id": 21217995, "name": "ToBeFrank | FF | SLAYlor Moon", "participants": [{"id": 19512978, "gamerTag": "SLAYlor Moon", "prefix": "ToBeFrank | FF", "user": {"location": {"city": "Atlanta", "state": "GA", "country": "United States"}}, "player": {"id": 267007, "gamerTag": "SLAYlor Moon", "prefix": "ToBeFrank | FF", "user": {"location": {"city": "Atlanta", "state": "GA", "country": "United States"}}}}]}, "standing": {"placement": 1, "stats": {"score": {"value": 3}}}}], "games": null}]}}}