{"event": {"sets": {"pageInfo": {"totalPages": 3, "total": 42}, "nodes": [{"id": 91439443, "state": 3, "round": -4, "fullRoundText": "Losers Round 1", "completedAt": 1752627909, "winnerId": 20694315, "slots": [{"id": "91439443-0", "entrant": {"id": 20694315, "name": "promamamia", "participants": [{"id": 19046679, "gamerTag": "promamamia", "prefix": "", "user": {"location": {"city": "Alpharetta", "state": "GA", "country": "United States"}}, "player": {"id": 3548468, "gamerTag": "promamamia", "prefix": "", "user": {"location": {"city": "Alpharetta", "state": "GA", "country": "United States"}}}}]}, "standing": {"placement": 1, "stats": {"score": {"value": 2}}}}, {"id": "91439443-1", "entrant": {"id": 20695675, "name": "Hq", "participants": [{"id": 19047877, "gamerTag": "Hq", "prefix": "", "user": {"location": {"city": "Suwanee", "state": "GA", "country": "United States"}}, "player": {"id": 4680916, "gamerTag": "Hq", "prefix": "", "user": {"location": {"city": "Suwanee", "state": "GA", "country": "United States"}}}}]}, "standing": {"placement": 2, "stats": {"score": {"value": 1}}}}], "games": null}, {"id": 91439445, "state": 3, "round": -4, "fullRoundText": "Losers Round 1", "completedAt": 1752627888, "winnerId": 20689305, "slots": [{"id": "91439445-0", "entrant": {"id": 20686968, "name": "Billy Jones", "participants": [{"id": 19040081, "gamerTag": "Billy Jones", "prefix": "", "user": {"location": {"city": "Atlanta", "state": "GA", "country": "United States"}}, "player": {"id": 1004383, "gamerTag": "Billy Jones", "prefix": "", "user": {"location": {"city": "Atlanta", "state": "GA", "country": "United States"}}}}]}, "standing": {"placement": 2, "stats": {"score": {"value": 0}}}}, {"id": "91439445-1", "entrant": {"id": 20689305, "name": "CheddrTV", "participants": [{"id": 19042308, "gamerTag": "CheddrTV", "prefix": "", "user": {"location": {"city": null, "state": "GA", "country": "United States"}}, "player": {"id": 4629852, "gamerTag": "CheddrTV", "prefix": "", "user": {"location": {"city": null, "state": "GA", "country": "United States"}}}}]}, "standing": {"placement": 1, "stats": {"score": {"value": 2}}}}], "games": null}, {"id": 91439446, "state": 3, "round": -4, "fullRoundText": "Losers Round 1", "completedAt": 1752628882, "winnerId": 20688729, "slots": [{"id": "91439446-0", "entrant": {"id": 20688729, "name": "jack | jazzman", "participants": [{"id": 19041760, "gamerTag": "jazzman", "prefix": "jack", "user": {"location": {"city": "Athens", "state": "GA", "country": "United States"}}, "player": {"id": 3883272, "gamerTag": "jazzman", "prefix": "jack", "user": {"location": {"city": "Athens", "state": "GA", "country": "United States"}}}}]}, "standing": {"placement": 1, "stats": {"score": {"value": 2}}}}, {"id": "91439446-1", "entrant": {"id": 20701785, "name": "Moopisegg", "participants": [{"id": 19053143, "gamerTag": "Moopisegg", "prefix": "", "user": {"location": {"city": null, "state": null, "country": "United States"}}, "player": {"id": 4680890, "gamerTag": "Moopisegg", "prefix": "", "user": {"location": {"city": null, "state": null, "country": "United States"}}}}]}, "standing": {"placement": 2, "stats": {"score": {"value": 1}}}}], "games": null}, {"id": 91439439, "state": 3, "round": -4, "fullRoundText": "Losers Round 1", "completedAt": 1752628342, "winnerId": 20696548, "slots": [{"id": "91439439-0", "entrant": {"id": 20696548, "name": "Grey", "participants": [{"id": 19048632, "gamerTag": "Grey", "prefix": null, "user": {"location": {"city": null, "state": "GA", "country": "United States"}}, "player": {"id": 1901973, "gamerTag": "Grey", "prefix": null, "user": {"location": {"city": null, "state": "GA", "country": "United States"}}}}]}, "standing": {"placement": 1, "stats": {"score": {"value": 2}}}}, {"id": "91439439-1", "entrant": {"id": 20699234, "name": "Mc'Plow", "participants": [{"id": 19050869, "gamerTag": "Mc'Plow", "prefix": null, "user": {"location": {"city": "Athens", "state": "GA", "country": "United States"}}, "player": {"id": 4060815, "gamerTag": "Mc'Plow", "prefix": null, "user": {"location": {"city": "Athens", "state": "GA", "country": "United States"}}}}]}, "standing": {"placement": 2, "stats": {"score": {"value": 0}}}}], "games": null}, {"id": 91439441, "state": 3, "round": -4, "fullRoundText": "Losers Round 1", "completedAt": 1752628221, "winnerId": 20696483, "slots": [{"id": "91439441-0", "entrant": {"id": 20696483, "name": "Penguin", "participants": [{"id": 19048572, "gamerTag": "Penguin", "prefix": "", "user": {"location": {"city": "Atlanta", "state": "GA", "country": "United States"}}, "player": {"id": 4287822, "gamerTag": "Heart", "prefix": "", "user": {"location": {"city": "Atlanta", "state": "GA", "country": "United States"}}}}]}, "standing": {"placement": 1, "stats": {"score": {"value": 2}}}}, {"id": "91439441-1", "entrant": {"id": 20680385, "name": "Mothmanne", "participants": [{"id": 19034340, "gamerTag": "Mothmanne", "prefix": null, "user": {"location": {"city": null, "state": null, "country": "United States"}}, "player": {"id": 3649197, "gamerTag": "Mothmanne", "prefix": null, "user": {"location": {"city": null, "state": null, "country": "United States"}}}}]}, "standing": {"placement": 2, "stats": {"score": {"value": 0}}}}], "games": null}, {"id": 91439442, "state": 3, "round": -4, "fullRoundText": "Losers Round 1", "completedAt": 1752628842, "winnerId": 20699515, "slots": [{"id": "91439442-0", "entrant": {"id": 20699515, "name": "ThatUser183", "participants": [{"id": 19051106, "gamerTag": "ThatUser183", "prefix": null, "user": {"location": {"city": "Suwanee", "state": "GA", "country": "United States"}}, "player": {"id": 2807415, "gamerTag": "ThatUser183", "prefix": null, "user": {"location": {"city": "Suwanee", "state": "GA", "country": "United States"}}}}]}, "standing": {"placement": 1, "stats": {"score": {"value": 2}}}}, {"id": "91439442-1", "entrant": {"id": 20696202, "name": "PL | Shusui", "participants": [{"id": 19048325, "gamerTag": "Shusui", "prefix": "PL", "user": {"location": {"city": "Suwanee", "state": "GA", "country": "United States"}}, "player": {"id": 3465710, "gamerTag": "Shusui", "prefix": "", "user": {"location": {"city": "Suwanee", "state": "GA", "country": "United States"}}}}]}, "standing": {"placement": 2, "stats": {"score": {"value": 1}}}}], "games": null}, {"id": 91439367, "state": 3, "round": 1, "fullRoundText": "Winners Round 1", "completedAt": 1752626612, "winnerId": 20688729, "slots": [{"id": "91439367-0", "entrant": {"id": 20688729, "name": "jack | jazzman", "participants": [{"id": 19041760, "gamerTag": "jazzman", "prefix": "jack", "user": {"location": {"city": "Athens", "state": "GA", "country": "United States"}}, "player": {"id": 3883272, "gamerTag": "jazzman", "prefix": "jack", "user": {"location": {"city": "Athens", "state": "GA", "country": "United States"}}}}]}, "standing": {"placement": 1, "stats": {"score": {"value": 2}}}}, {"id": "91439367-1", "entrant": {"id": 20699234, "name": "Mc'Plow", "participants": [{"id": 19050869, "gamerTag": "Mc'Plow", "prefix": null, "user": {"location": {"city": "Athens", "state": "GA", "country": "United States"}}, "player": {"id": 4060815, "gamerTag": "Mc'Plow", "prefix": null, "user": {"location": {"city": "Athens", "state": "GA", "country": "United States"}}}}]}, "standing": {"placement": 2, "stats": {"score": {"value": 0}}}}], "games": null}, {"id": 91439371, "state": 3, "round": 1, "fullRoundText": "Winners Round 1", "completedAt": 1752627564, "winnerId": 20686972, "slots": [{"id": "91439371-0", "entrant": {"id": 20686972, "name": "Mighty Morfin", "participants": [{"id": 19040085, "gamerTag": "Mighty Morfin", "prefix": "", "user": {"location": {"city": "Gainesville", "state": "GA", "country": "United States"}}, "player": {"id": 1630530, "gamerTag": "Mighty Morfin", "prefix": "", "user": {"location": {"city": "Gainesville", "state": "GA", "country": "United States"}}}}]}, "standing": {"placement": 1, "stats": {"score": {"value": 2}}}}, {"id": "91439371-1", "entrant": {"id": 20680385, "name": "Mothmanne", "participants": [{"id": 19034340, "gamerTag": "Mothmanne", "prefix": null, "user": {"location": {"city": null, "state": null, "country": "United States"}}, "player": {"id": 3649197, "gamerTag": "Mothmanne", "prefix": null, "user": {"location": {"city": null, "state": null, "country": "United States"}}}}]}, "standing": {"placement": 2, "stats": {"score": {"value": 1}}}}], "games": null}, {"id": 91439373, "state": 3, "round": 1, "fullRoundText": "Winners Round 1", "completedAt": 1752626154, "winnerId": 20694315, "slots": [{"id": "91439373-0", "entrant": {"id": 20694315, "name": "promamamia", "participants": [{"id": 19046679, "gamerTag": "promamamia", "prefix": "", "user": {"location": {"city": "Alpharetta", "state": "GA", "country": "United States"}}, "player": {"id": 3548468, "gamerTag": "promamamia", "prefix": "", "user": {"location": {"city": "Alpharetta", "state": "GA", "country": "United States"}}}}]}, "standing": {"placement": 1, "stats": {"score": {"value": 2}}}}, {"id": "91439373-1", "entrant": {"id": 20696202, "name": "PL | Shusui", "participants": [{"id": 19048325, "gamerTag": "Shusui", "prefix": "PL", "user": {"location": {"city": "Suwanee", "state": "GA", "country": "United States"}}, "player": {"id": 3465710, "gamerTag": "Shusui", "prefix": "", "user": {"location": {"city": "Suwanee", "state": "GA", "country": "United States"}}}}]}, "standing": {"placement": 2, "stats": {"score": {"value": 0}}}}], "games": null}, {"id": 91439375, "state": 3, "round": 1, "fullRoundText": "Winners Round 1", "completedAt": 1752626514, "winnerId": 20699515, "slots": [{"id": "91439375-0", "entrant": {"id": 20699515, "name": "ThatUser183", "participants": [{"id": 19051106, "gamerTag": "ThatUser183", "prefix": null, "user": {"location": {"city": "Suwanee", "state": "GA", "country": "United States"}}, "player": {"id": 2807415, "gamerTag": "ThatUser183", "prefix": null, "user": {"location": {"city": "Suwanee", "state": "GA", "country": "United States"}}}}]}, "standing": {"placement": 1, "stats": {"score": {"value": 2}}}}, {"id": "91439375-1", "entrant": {"id": 20695675, "name": "Hq", "participants": [{"id": 19047877, "gamerTag": "Hq", "prefix": "", "user": {"location": {"city": "Suwanee", "state": "GA", "country": "United States"}}, "player": {"id": 4680916, "gamerTag": "Hq", "prefix": "", "user": {"location": {"city": "Suwanee", "state": "GA", "country": "United States"}}}}]}, "standing": {"placement": 2, "stats": {"score": {"value": 0}}}}], "games": null}, {"id": 91439379, "state": 3, "round": 1, "fullRoundText": "Winners Round 1", "completedAt": 1752626538, "winnerId": 20693109, "slots": [{"id": "91439379-0", "entrant": {"id": 20693109, "name": "Master J.J.", "participants": [{"id": 19045767, "gamerTag": "Master J.J.", "prefix": "", "user": {"location": {"city": "New Britain", "state": "CT", "country": "United States"}}, "player": {"id": 41440, "gamerTag": "Master J.J.", "prefix": "", "user": {"location": {"city": "New Britain", "state": "CT", "country": "United States"}}}}]}, "standing": {"placement": 1, "stats": {"score": {"value": 2}}}}, {"id": "91439379-1", "entrant": {"id": 20689305, "name": "CheddrTV", "participants": [{"id": 19042308, "gamerTag": "CheddrTV", "prefix": "", "user": {"location": {"city": null, "state": "GA", "country": "United States"}}, "player": {"id": 4629852, "gamerTag": "CheddrTV", "prefix": "", "user": {"location": {"city": null, "state": "GA", "country": "United States"}}}}]}, "standing": {"placement": 2, "stats": {"score": {"value": 0}}}}], "games": null}, {"id": 91439381, "state": 3, "round": 1, "fullRoundText": "Winners Round 1", "completedAt": 1752626524, "winnerId": 20696548, "slots": [{"id": "91439381-0", "entrant": {"id": 20696548, "name": "Grey", "participants": [{"id": 19048632, "gamerTag": "Grey", "prefix": null, "user": {"location": {"city": null, "state": "GA", "country": "United States"}}, "player": {"id": 1901973, "gamerTag": "Grey", "prefix": null, "user": {"location": {"city": null, "state": "GA", "country": "United States"}}}}]}, "standing": {"placement": 1, "stats": {"score": {"value": 2}}}}, {"id": "91439381-1", "entrant": {"id": 20701785, "name": "Moopisegg", "participants": [{"id": 19053143, "gamerTag": "Moopisegg", "prefix": "", "user": {"location": {"city": null, "state": null, "country": "United States"}}, "player": {"id": 4680890, "gamerTag": "Moopisegg", "prefix": "", "user": {"location": {"city": null, "state": null, "country": "United States"}}}}]}, "standing": {"placement": 2, "stats": {"score": {"value": 0}}}}], "games": null}]}}}