{"phase": {"seeds": {"pageInfo": {"totalPages": 1, "total": 19}, "nodes": [{"id": 37032078, "seedNum": 2, "entrant": {"id": 21556764, "name": "Buddylikefriend", "participants": [{"id": 19808833, "gamerTag": "Buddylikefriend", "prefix": null, "user": {"location": {"city": "Atlanta", "state": "GA", "country": "United States"}}, "player": {"id": 785557, "gamerTag": "Buddylikefriend", "prefix": null, "user": {"location": {"city": "Atlanta", "state": "GA", "country": "United States"}}}}]}}, {"id": 37025384, "seedNum": 3, "entrant": {"id": 21552266, "name": "4o4 | Musa", "participants": [{"id": 19804649, "gamerTag": "Musa", "prefix": "4o4", "user": {"location": {"city": null, "state": null, "country": "United States"}}, "player": {"id": 131537, "gamerTag": "Musa", "prefix": "4o4", "user": {"location": {"city": null, "state": null, "country": "United States"}}}}]}}, {"id": 37031491, "seedNum": 4, "entrant": {"id": 21556243, "name": "Burboovas", "participants": [{"id": 19808306, "gamerTag": "Burboovas", "prefix": null, "user": {"location": {"city": null, "state": null, "country": null}}, "player": {"id": 3927191, "gamerTag": "Burboovas", "prefix": null, "user": {"location": {"city": null, "state": null, "country": null}}}}]}}, {"id": 37024318, "seedNum": 6, "entrant": {"id": 21551560, "name": "Noodle", "participants": [{"id": 19803921, "gamerTag": "Noodle", "prefix": "", "user": {"location": {"city": "McDonough", "state": "GA", "country": "United States"}}, "player": {"id": 3029288, "gamerTag": "Noodle", "prefix": "", "user": {"location": {"city": "McDonough", "state": "GA", "country": "United States"}}}}]}}, {"id": 37032015, "seedNum": 1, "entrant": {"id": 21556698, "name": "4o4 | chrisymandias", "participants": [{"id": 19808771, "gamerTag": "chrisymandias", "prefix": "4o4", "user": {"location": {"city": "Dacula", "state": "GA", "country": "United States"}}, "player": {"id": 258173, "gamerTag": "chrisymandias", "prefix": "4o4", "user": {"location": {"city": "Dacula", "state": "GA", "country": "United States"}}}}]}}, {"id": 37031804, "seedNum": 8, "entrant": {"id": 21556489, "name": "Archway", "participants": [{"id": 19808545, "gamerTag": "Archway", "prefix": "", "user": {"location": {"city": "Sandy Springs", "state": "GA", "country": "United States"}}, "player": {"id": 1435251, "gamerTag": "Archway", "prefix": "", "user": {"location": {"city": "Sandy Springs", "state": "GA", "country": "United States"}}}}]}}, {"id": 37031461, "seedNum": 5, "entrant": {"id": 21556216, "name": "4o4 | byronic zero", "participants": [{"id": 19808280, "gamerTag": "byronic zero", "prefix": "4o4", "user": {"location": {"city": "Atlanta", "state": "GA", "country": "United States"}}, "player": {"id": 3577590, "gamerTag": "byronic zero", "prefix": "4o4", "user": {"location": {"city": "Atlanta", "state": "GA", "country": "United States"}}}}]}}, {"id": 37032036, "seedNum": 9, "entrant": {"id": 21556722, "name": "EEK!", "participants": [{"id": 19808799, "gamerTag": "EEK!", "prefix": null, "user": {"location": {"city": "Atlanta", "state": "GA", "country": "United States"}}, "player": {"id": 148794, "gamerTag": "EEK!", "prefix": null, "user": {"location": {"city": "Atlanta", "state": "GA", "country": "United States"}}}}]}}, {"id": 37031738, "seedNum": 7, "entrant": {"id": 21556443, "name": "4o4 | Yugo", "participants": [{"id": 19808502, "gamerTag": "Yugo", "prefix": "4o4", "user": {"location": {"city": "Sandy springs", "state": "GA", "country": "United States"}}, "player": {"id": 338020, "gamerTag": "Yugo", "prefix": "4o4", "user": {"location": {"city": "Sandy springs", "state": "GA", "country": "United States"}}}}]}}, {"id": 37024669, "seedNum": 10, "entrant": {"id": 21551682, "name": "Brennan", "participants": [{"id": 19804023, "gamerTag": "Brennan", "prefix": "", "user": {"location": {"city": "Atlanta", "state": "GA", "country": "United States"}}, "player": {"id": 1856111, "gamerTag": "Brennan", "prefix": "", "user": {"location": {"city": "Atlanta", "state": "GA", "country": "United States"}}}}]}}, {"id": 37030582, "seedNum": 11, "entrant": {"id": 21555604, "name": "Jabberwock", "participants": [{"id": 19807716, "gamerTag": "Jabberwock", "prefix": null, "user": {"location": {"city": "Jasper", "state": "GA", "country": "United States"}}, "player": {"id": 4954334, "gamerTag": "Jabberwock", "prefix": null, "user": {"location": {"city": "Jasper", "state": "GA", "country": "United States"}}}}]}}, {"id": 37032061, "seedNum": 15, "entrant": {"id": 21556747, "name": "BLEST", "participants": [{"id": 19808817, "gamerTag": "BLEST", "prefix": null, "user": {"location": {"city": "Lilburn", "state": "GA", "country": "United States"}}, "player": {"id": 3440897, "gamerTag": "BLEST", "prefix": null, "user": {"location": {"city": "Lilburn", "state": "GA", "country": "United States"}}}}]}}, {"id": 37030052, "seedNum": 13, "entrant": {"id": 21555133, "name": "Leon Nights", "participants": [{"id": 19807275, "gamerTag": "Leon Nights", "prefix": null, "user": {"location": {"city": "Atlanta", "state": "GA", "country": "United States"}}, "player": {"id": 4752335, "gamerTag": "Leon Nights", "prefix": null, "user": {"location": {"city": "Atlanta", "state": "GA", "country": "United States"}}}}]}}, {"id": 37011556, "seedNum": 17, "entrant": {"id": 21542582, "name": "Necro17", "participants": [{"id": 19795460, "gamerTag": "Necro17", "prefix": null, "user": {"location": {"city": "Alpharetta", "state": "GA", "country": "United States"}}, "player": {"id": 4983658, "gamerTag": "Necro17", "prefix": null, "user": {"location": {"city": "Alpharetta", "state": "GA", "country": "United States"}}}}]}}, {"id": 37031984, "seedNum": 18, "entrant": {"id": 21556667, "name": "Xangief", "participants": [{"id": 19808743, "gamerTag": "Xangief", "prefix": null, "user": {"location": {"city": "Atlanta", "state": "GA", "country": "United States"}}, "player": {"id": 135082, "gamerTag": "Xangief", "prefix": null, "user": {"location": {"city": "Atlanta", "state": "GA", "country": "United States"}}}}]}}, {"id": 37031554, "seedNum": 19, "entrant": {"id": 21556292, "name": "Gelsk", "participants": [{"id": 19808363, "gamerTag": "Gelsk", "prefix": null, "user": {"location": {"city": "Alameda", "state": "CA", "country": "United States"}}, "player": {"id": 1853371, "gamerTag": "Gelsk", "prefix": null, "user": {"location": {"city": "Alameda", "state": "CA", "country": "United States"}}}}]}}, {"id": 37030800, "seedNum": 12, "entrant": {"id": 21555818, "name": "bsharkz", "participants": [{"id": 19807912, "gamerTag": "bsharkz", "prefix": "", "user": {"location": {"city": "Atlanta", "state": "FL", "country": "United States"}}, "player": {"id": 4297884, "gamerTag": "bsharkz", "prefix": "", "user": {"location": {"city": "Atlanta", "state": "FL", "country": "United States"}}}}]}}, {"id": 37027031, "seedNum": 14, "entrant": {"id": 21553210, "name": "Pazure", "participants": [{"id": 19805437, "gamerTag": "Pazure", "prefix": null, "user": {"location": {"city": null, "state": null, "country": "United States"}}, "player": {"id": 72218, "gamerTag": "Pazure", "prefix": null, "user": {"location": {"city": null, "state": null, "country": "United States"}}}}]}}, {"id": 37024943, "seedNum": 16, "entrant": {"id": 21551915, "name": "Cupp!", "participants": [{"id": 19804295, "gamerTag": "Cupp!", "prefix": "", "user": {"location": {"city": "Atlanta", "state": "GA", "country": "United States"}}, "player": {"id": 3779462, "gamerTag": "Cupp!", "prefix": "", "user": {"location": {"city": "Atlanta", "state": "GA", "country": "United States"}}}}]}}]}}}