{"phase": {"seeds": {"pageInfo": {"totalPages": 1, "total": 16}, "nodes": [{"id": 36300066, "seedNum": 1, "entrant": {"id": 21053600, "name": "DGS | spickles", "participants": [{"id": 19366222, "gamerTag": "spickles", "prefix": "DGS", "user": {"location": {"city": null, "state": null, "country": "United States"}}, "player": {"id": 1154793, "gamerTag": "spickles", "prefix": "DGS", "user": {"location": {"city": null, "state": null, "country": "United States"}}}}]}}, {"id": 36280920, "seedNum": 2, "entrant": {"id": 21040628, "name": "The Simpsons | Ryu from Streets", "participants": [{"id": 19355089, "gamerTag": "Ryu from Streets", "prefix": "The Simpsons", "user": {"location": {"city": null, "state": null, "country": null}}, "player": {"id": 2348605, "gamerTag": "Ryu from Streets", "prefix": "GUMP2", "user": {"location": {"city": null, "state": null, "country": null}}}}]}}, {"id": 36292912, "seedNum": 3, "entrant": {"id": 21048840, "name": "EZ.JV", "participants": [{"id": 19362344, "gamerTag": "EZ.JV", "prefix": "", "user": {"location": {"city": "Los Altos", "state": "CA", "country": "United States"}}, "player": {"id": 674852, "gamerTag": "EZ.JV", "prefix": "", "user": {"location": {"city": "Los Altos", "state": "CA", "country": "United States"}}}}]}}, {"id": 36300067, "seedNum": 4, "entrant": {"id": 21053601, "name": "KUMA| | Steamedklams", "participants": [{"id": 19366672, "gamerTag": "Steamedklams", "prefix": "KUMA|", "user": {"location": {"city": null, "state": null, "country": "United States"}}, "player": {"id": 997285, "gamerTag": "Steamedklams", "prefix": "KUMA|", "user": {"location": {"city": null, "state": null, "country": "United States"}}}}]}}, {"id": 36296649, "seedNum": 7, "entrant": {"id": 21050949, "name": "GUMP2 | RoKu", "participants": [{"id": 19364345, "gamerTag": "RoKu", "prefix": "GUMP2", "user": {"location": {"city": "Peachtree Corners", "state": "GA", "country": "United States"}}, "player": {"id": 1107285, "gamerTag": "RoKu", "prefix": "TFT", "user": {"location": {"city": "Peachtree Corners", "state": "GA", "country": "United States"}}}}]}}, {"id": 36284579, "seedNum": 9, "entrant": {"id": 21043540, "name": "promamamia", "participants": [{"id": 19357893, "gamerTag": "promamamia", "prefix": "", "user": {"location": {"city": "Alpharetta", "state": "GA", "country": "United States"}}, "player": {"id": 3548468, "gamerTag": "promamamia", "prefix": "", "user": {"location": {"city": "Alpharetta", "state": "GA", "country": "United States"}}}}]}}, {"id": 36292676, "seedNum": 5, "entrant": {"id": 21048609, "name": "GT | Pacil", "participants": [{"id": 19362154, "gamerTag": "Pacil", "prefix": "GT", "user": {"location": {"city": "Leesburg", "state": "VA", "country": "United States"}}, "player": {"id": 2249009, "gamerTag": "Pacil", "prefix": null, "user": {"location": {"city": "Leesburg", "state": "VA", "country": "United States"}}}}]}}, {"id": 36298116, "seedNum": 8, "entrant": {"id": 21052053, "name": "UTO|WhaLey | Kingwifi", "participants": [{"id": 19365341, "gamerTag": "Kingwifi", "prefix": "UTO|WhaLey", "user": {"location": {"city": "Stone Mountain", "state": "GA", "country": "United States"}}, "player": {"id": 2016149, "gamerTag": "Whaley", "prefix": "KSU|UTO|BLZE", "user": {"location": {"city": "Stone Mountain", "state": "GA", "country": "United States"}}}}]}}, {"id": 36294367, "seedNum": 6, "entrant": {"id": 21049271, "name": "red dot", "participants": [{"id": 19362730, "gamerTag": "red dot", "prefix": "", "user": {"location": {"city": "Milton", "state": "GA", "country": "United States"}}, "player": {"id": 1812177, "gamerTag": "red dot", "prefix": "", "user": {"location": {"city": "Milton", "state": "GA", "country": "United States"}}}}]}}, {"id": 36299057, "seedNum": 10, "entrant": {"id": 21052849, "name": "Osay Blvck", "participants": [{"id": 19365556, "gamerTag": "Osay Blvck", "prefix": null, "user": {"location": {"city": "Lawrenceville", "state": "GA", "country": "United States"}}, "player": {"id": 1563372, "gamerTag": "Osay Blvck", "prefix": null, "user": {"location": {"city": "Lawrenceville", "state": "GA", "country": "United States"}}}}]}}, {"id": 36289214, "seedNum": 11, "entrant": {"id": 21046029, "name": "Typo | Slack", "participants": [{"id": 19360094, "gamerTag": "Slack", "prefix": "Typo", "user": {"location": {"city": "warner robins", "state": "GA", "country": "United States"}}, "player": {"id": 940533, "gamerTag": "Slack", "prefix": "Typo", "user": {"location": {"city": "warner robins", "state": "GA", "country": "United States"}}}}]}}, {"id": 36296789, "seedNum": 13, "entrant": {"id": 21051068, "name": "Ford", "participants": [{"id": 19364456, "gamerTag": "Ford", "prefix": null, "user": {"location": {"city": "", "state": "GA", "country": "United States"}}, "player": {"id": 3471629, "gamerTag": "Ford", "prefix": null, "user": {"location": {"city": "", "state": "GA", "country": "United States"}}}}]}}, {"id": 36283017, "seedNum": 12, "entrant": {"id": 21042332, "name": "FNG | BEANMAN", "participants": [{"id": 19356758, "gamerTag": "BEANMAN", "prefix": "FNG", "user": {"location": {"city": null, "state": null, "country": "United States"}}, "player": {"id": 3024601, "gamerTag": "BEANMAN", "prefix": "FNG", "user": {"location": {"city": null, "state": null, "country": "United States"}}}}]}}, {"id": 36296755, "seedNum": 14, "entrant": {"id": 21051058, "name": "Fluu", "participants": [{"id": 19364448, "gamerTag": "Fluu", "prefix": "", "user": {"location": {"city": "Decatur", "state": "GA", "country": "United States"}}, "player": {"id": 3621776, "gamerTag": "Fluu", "prefix": "", "user": {"location": {"city": "Decatur", "state": "GA", "country": "United States"}}}}]}}, {"id": 36299055, "seedNum": 15, "entrant": {"id": 21052846, "name": "Manburnot", "participants": [{"id": 19365110, "gamerTag": "Manburnot", "prefix": "", "user": {"location": {"city": "Norcross", "state": "GA", "country": "United States"}}, "player": {"id": 4831519, "gamerTag": "Manburnot", "prefix": "", "user": {"location": {"city": "Norcross", "state": "GA", "country": "United States"}}}}]}}, {"id": 36296836, "seedNum": 16, "entrant": {"id": 21051120, "name": "<F\u0164K>", "participants": [{"id": 19364506, "gamerTag": "<F\u0164K>", "prefix": "", "user": {"location": {"city": null, "state": null, "country": "United States"}}, "player": {"id": 4936962, "gamerTag": "<F\u0164K>", "prefix": "", "user": {"location": {"city": null, "state": null, "country": "United States"}}}}]}}]}}}