{"event": {"sets": {"pageInfo": {"totalPages": 3, "total": 41}, "nodes": [{"id": 94551046, "state": 3, "round": -6, "fullRoundText": "Losers Round 3", "completedAt": 1759367489, "winnerId": 21433506, "slots": [{"id": "94551046-0", "entrant": {"id": 21433506, "name": "BOLT | KhalRhaego", "participants": [{"id": 19699988, "gamerTag": "KhalRhaego", "prefix": "BOLT", "user": {"location": {"city": "Jonesboro", "state": "GA", "country": "United States"}}, "player": {"id": 4076327, "gamerTag": "KhalRhaego", "prefix": "BOLT", "user": {"location": {"city": "Jonesboro", "state": "GA", "country": "United States"}}}}]}, "standing": {"placement": 1, "stats": {"score": {"value": 2}}}}, {"id": "94551046-1", "entrant": {"id": 21438462, "name": "4o4 | blitz", "participants": [{"id": 19703936, "gamerTag": "blitz", "prefix": "4o4", "user": {"location": {"city": "Lawrenceville", "state": "GA", "country": "United States"}}, "player": {"id": 2228539, "gamerTag": "blitz", "prefix": "4o4", "user": {"location": {"city": "Lawrenceville", "state": "GA", "country": "United States"}}}}]}, "standing": {"placement": 2, "stats": {"score": {"value": 0}}}}], "games": null}, {"id": 94551047, "state": 3, "round": -6, "fullRoundText": "Losers Round 3", "completedAt": 1759367481, "winnerId": 21438577, "slots": [{"id": "94551047-0", "entrant": {"id": 21437447, "name": "PrimeStone", "participants": [{"id": 19703032, "gamerTag": "PrimeStone", "prefix": null, "user": {"location": {"city": "Loganville", "state": "GA", "country": "United States"}}, "player": {"id": 1130909, "gamerTag": "PrimeStone", "prefix": null, "user": {"location": {"city": "Loganville", "state": "GA", "country": "United States"}}}}]}, "standing": {"placement": 2, "stats": {"score": {"value": 0}}}}, {"id": "94551047-1", "entrant": {"id": 21438577, "name": "Smoochie", "participants": [{"id": 19704064, "gamerTag": "Smoochie", "prefix": null, "user": {"location": {"city": null, "state": "GA", "country": "United States"}}, "player": {"id": 2877248, "gamerTag": "Smoochie", "prefix": null, "user": {"location": {"city": null, "state": "GA", "country": "United States"}}}}]}, "standing": {"placement": 1, "stats": {"score": {"value": 2}}}}], "games": null}, {"id": 94551048, "state": 3, "round": -6, "fullRoundText": "Losers Round 3", "completedAt": 1759367295, "winnerId": 21436623, "slots": [{"id": "94551048-0", "entrant": {"id": 21438218, "name": "Armanisaint", "participants": [{"id": 19703713, "gamerTag": "Armanisaint", "prefix": null, "user": {"location": {"city": "Roswell", "state": "GA", "country": "United States"}}, "player": {"id": 3943806, "gamerTag": "Armanisaint", "prefix": null, "user": {"location": {"city": "Roswell", "state": "GA", "country": "United States"}}}}]}, "standing": {"placement": 2, "stats": {"score": {"value": 0}}}}, {"id": "94551048-1", "entrant": {"id": 21436623, "name": "Aneubys", "participants": [{"id": 19702278, "gamerTag": "Aneubys", "prefix": "", "user": {"location": {"city": "Smyrna", "state": "GA", "country": "United States"}}, "player": {"id": 3901259, "gamerTag": "Aneubys", "prefix": "", "user": {"location": {"city": "Smyrna", "state": "GA", "country": "United States"}}}}]}, "standing": {"placement": 1, "stats": {"score": {"value": 2}}}}], "games": null}, {"id": 94551049, "state": 3, "round": -6, "fullRoundText": "Losers Round 3", "completedAt": 1759367233, "winnerId": 21436960, "slots": [{"id": "94551049-0", "entrant": {"id": 21436960, "name": "Myk_JUMP", "participants": [{"id": 19702578, "gamerTag": "Myk_JUMP", "prefix": "", "user": {"location": {"city": "Atlanta", "state": "GA", "country": "United States"}}, "player": {"id": 469002, "gamerTag": "Myk_JUMP", "prefix": "", "user": {"location": {"city": "Atlanta", "state": "GA", "country": "United States"}}}}]}, "standing": {"placement": 1, "stats": {"score": {"value": 2}}}}, {"id": "94551049-1", "entrant": {"id": 21438342, "name": "C-2", "participants": [{"id": 19703825, "gamerTag": "C-2", "prefix": "", "user": {"location": {"city": "Atlanta", "state": "GA", "country": "United States"}}, "player": {"id": 1228856, "gamerTag": "C-2", "prefix": "", "user": {"location": {"city": "Atlanta", "state": "GA", "country": "United States"}}}}]}, "standing": {"placement": 2, "stats": {"score": {"value": 0}}}}], "games": null}, {"id": 94551042, "state": 3, "round": -5, "fullRoundText": "Losers Round 2", "completedAt": 1759366858, "winnerId": 21438462, "slots": [{"id": "94551042-0", "entrant": {"id": 21438462, "name": "4o4 | blitz", "participants": [{"id": 19703936, "gamerTag": "blitz", "prefix": "4o4", "user": {"location": {"city": "Lawrenceville", "state": "GA", "country": "United States"}}, "player": {"id": 2228539, "gamerTag": "blitz", "prefix": "4o4", "user": {"location": {"city": "Lawrenceville", "state": "GA", "country": "United States"}}}}]}, "standing": {"placement": 1, "stats": {"score": {"value": 2}}}}, {"id": "94551042-1", "entrant": {"id": 21437435, "name": "Limitless_GuNzZ", "participants": [{"id": 19703020, "gamerTag": "Limitless_GuNzZ", "prefix": "", "user": {"location": {"city": "Atlanta", "state": "GA", "country": "United States"}}, "player": {"id": 1627766, "gamerTag": "Limitless_GuNzZ", "prefix": "", "user": {"location": {"city": "Atlanta", "state": "GA", "country": "United States"}}}}]}, "standing": {"placement": 2, "stats": {"score": {"value": 1}}}}], "games": null}, {"id": 94551043, "state": 3, "round": -5, "fullRoundText": "Losers Round 2", "completedAt": 1759366923, "winnerId": 21438577, "slots": [{"id": "94551043-0", "entrant": {"id": 21437404, "name": "Macho_Franchise", "participants": [{"id": 19702987, "gamerTag": "Macho_Franchise", "prefix": null, "user": {"location": {"city": "Marietta", "state": "GA", "country": "United States"}}, "player": {"id": 874463, "gamerTag": "Macho_Franchise", "prefix": null, "user": {"location": {"city": "Marietta", "state": "GA", "country": "United States"}}}}]}, "standing": {"placement": 2, "stats": {"score": {"value": 1}}}}, {"id": "94551043-1", "entrant": {"id": 21438577, "name": "Smoochie", "participants": [{"id": 19704064, "gamerTag": "Smoochie", "prefix": null, "user": {"location": {"city": null, "state": "GA", "country": "United States"}}, "player": {"id": 2877248, "gamerTag": "Smoochie", "prefix": null, "user": {"location": {"city": null, "state": "GA", "country": "United States"}}}}]}, "standing": {"placement": 1, "stats": {"score": {"value": 2}}}}], "games": null}, {"id": 94551044, "state": 3, "round": -5, "fullRoundText": "Losers Round 2", "completedAt": 1759366700, "winnerId": 21436623, "slots": [{"id": "94551044-0", "entrant": {"id": 21436623, "name": "Aneubys", "participants": [{"id": 19702278, "gamerTag": "Aneubys", "prefix": "", "user": {"location": {"city": "Smyrna", "state": "GA", "country": "United States"}}, "player": {"id": 3901259, "gamerTag": "Aneubys", "prefix": "", "user": {"location": {"city": "Smyrna", "state": "GA", "country": "United States"}}}}]}, "standing": {"placement": 1, "stats": {"score": {"value": 2}}}}, {"id": "94551044-1", "entrant": {"id": 21439183, "name": "RD | Beans", "participants": [{"id": 19704593, "gamerTag": "Beans", "prefix": "RD", "user": {"location": {"city": "Lawrenceville", "state": "GA", "country": "United States"}}, "player": {"id": 2899057, "gamerTag": "Beans", "prefix": "RD", "user": {"location": {"city": "Lawrenceville", "state": "GA", "country": "United States"}}}}]}, "standing": {"placement": 2, "stats": {"score": {"value": 0}}}}], "games": null}, {"id": 94551045, "state": 3, "round": -5, "fullRoundText": "Losers Round 2", "completedAt": 1759366198, "winnerId": 21438342, "slots": [{"id": "94551045-0", "entrant": {"id": 21396196, "name": "finnickyfinn", "participants": [{"id": 19667467, "gamerTag": "finnickyfinn", "prefix": null, "user": {"location": {"city": null, "state": null, "country": "United States"}}, "player": {"id": 3561899, "gamerTag": "finnickyfinn", "prefix": null, "user": {"location": {"city": null, "state": null, "country": "United States"}}}}]}, "standing": {"placement": 2, "stats": {"score": {"value": 0}}}}, {"id": "94551045-1", "entrant": {"id": 21438342, "name": "C-2", "participants": [{"id": 19703825, "gamerTag": "C-2", "prefix": "", "user": {"location": {"city": "Atlanta", "state": "GA", "country": "United States"}}, "player": {"id": 1228856, "gamerTag": "C-2", "prefix": "", "user": {"location": {"city": "Atlanta", "state": "GA", "country": "United States"}}}}]}, "standing": {"placement": 1, "stats": {"score": {"value": 2}}}}], "games": null}, {"id": 94550977, "state": 3, "round": 2, "fullRoundText": "Winners Round 2", "completedAt": 1759365381, "winnerId": 21438524, "slots": [{"id": "94550977-0", "entrant": {"id": 21438524, "name": "JJBREEZE", "participants": [{"id": 19704015, "gamerTag": "JJBREEZE", "prefix": "", "user": {"location": {"city": "Atlanta", "state": "GA", "country": "United States"}}, "player": {"id": 688460, "gamerTag": "JJBREEZE", "prefix": "", "user": {"location": {"city": "Atlanta", "state": "GA", "country": "United States"}}}}]}, "standing": {"placement": 1, "stats": {"score": {"value": 2}}}}, {"id": "94550977-1", "entrant": {"id": 21438342, "name": "C-2", "participants": [{"id": 19703825, "gamerTag": "C-2", "prefix": "", "user": {"location": {"city": "Atlanta", "state": "GA", "country": "United States"}}, "player": {"id": 1228856, "gamerTag": "C-2", "prefix": "", "user": {"location": {"city": "Atlanta", "state": "GA", "country": "United States"}}}}]}, "standing": {"placement": 2, "stats": {"score": {"value": 0}}}}], "games": null}, {"id": 94550978, "state": 3, "round": 2, "fullRoundText": "Winners Round 2", "completedAt": 1759364489, "winnerId": 21437447, "slots": [{"id": "94550978-0", "entrant": {"id": 21437447, "name": "PrimeStone", "participants": [{"id": 19703032, "gamerTag": "PrimeStone", "prefix": null, "user": {"location": {"city": "Loganville", "state": "GA", "country": "United States"}}, "player": {"id": 1130909, "gamerTag": "PrimeStone", "prefix": null, "user": {"location": {"city": "Loganville", "state": "GA", "country": "United States"}}}}]}, "standing": {"placement": 1, "stats": {"score": {"value": 2}}}}, {"id": "94550978-1", "entrant": {"id": 21396196, "name": "finnickyfinn", "participants": [{"id": 19667467, "gamerTag": "finnickyfinn", "prefix": null, "user": {"location": {"city": null, "state": null, "country": "United States"}}, "player": {"id": 3561899, "gamerTag": "finnickyfinn", "prefix": null, "user": {"location": {"city": null, "state": null, "country": "United States"}}}}]}, "standing": {"placement": 2, "stats": {"score": {"value": 0}}}}], "games": null}, {"id": 94550979, "state": 3, "round": 2, "fullRoundText": "Winners Round 2", "completedAt": 1759365676, "winnerId": 21436681, "slots": [{"id": "94550979-0", "entrant": {"id": 21436681, "name": "O.N.2", "participants": [{"id": 19702330, "gamerTag": "O.N.2", "prefix": "", "user": {"location": {"city": "SNELLVILLE", "state": "GA", "country": "United States"}}, "player": {"id": 1042436, "gamerTag": "O.N.2", "prefix": "", "user": {"location": {"city": "SNELLVILLE", "state": "GA", "country": "United States"}}}}]}, "standing": {"placement": 1, "stats": {"score": {"value": 2}}}}, {"id": "94550979-1", "entrant": {"id": 21439183, "name": "RD | Beans", "participants": [{"id": 19704593, "gamerTag": "Beans", "prefix": "RD", "user": {"location": {"city": "Lawrenceville", "state": "GA", "country": "United States"}}, "player": {"id": 2899057, "gamerTag": "Beans", "prefix": "RD", "user": {"location": {"city": "Lawrenceville", "state": "GA", "country": "United States"}}}}]}, "standing": {"placement": 2, "stats": {"score": {"value": 0}}}}], "games": null}, {"id": 94550980, "state": 3, "round": 2, "fullRoundText": "Winners Round 2", "completedAt": 1759365393, "winnerId": 21433506, "slots": [{"id": "94550980-0", "entrant": {"id": 21433506, "name": "BOLT | KhalRhaego", "participants": [{"id": 19699988, "gamerTag": "KhalRhaego", "prefix": "BOLT", "user": {"location": {"city": "Jonesboro", "state": "GA", "country": "United States"}}, "player": {"id": 4076327, "gamerTag": "KhalRhaego", "prefix": "BOLT", "user": {"location": {"city": "Jonesboro", "state": "GA", "country": "United States"}}}}]}, "standing": {"placement": 1, "stats": {"score": {"value": 2}}}}, {"id": "94550980-1", "entrant": {"id": 21436623, "name": "Aneubys", "participants": [{"id": 19702278, "gamerTag": "Aneubys", "prefix": "", "user": {"location": {"city": "Smyrna", "state": "GA", "country": "United States"}}, "player": {"id": 3901259, "gamerTag": "Aneubys", "prefix": "", "user": {"location": {"city": "Smyrna", "state": "GA", "country": "United States"}}}}]}, "standing": {"placement": 2, "stats": {"score": {"value": 0}}}}], "games": null}, {"id": 94550981, "state": 3, "round": 2, "fullRoundText": "Winners Round 2", "completedAt": 1759365535, "winnerId": 21435819, "slots": [{"id": "94550981-0", "entrant": {"id": 21435819, "name": "Genghis D0n", "participants": [{"id": 19701580, "gamerTag": "Genghis D0n", "prefix": "", "user": {"location": {"city": "Atlanta", "state": "GA", "country": "United States"}}, "player": {"id": 724224, "gamerTag": "Genghis D0n", "prefix": "", "user": {"location": {"city": "Atlanta", "state": "GA", "country": "United States"}}}}]}, "standing": {"placement": 1, "stats": {"score": {"value": 2}}}}, {"id": "94550981-1", "entrant": {"id": 21438577, "name": "Smoochie", "participants": [{"id": 19704064, "gamerTag": "Smoochie", "prefix": null, "user": {"location": {"city": null, "state": "GA", "country": "United States"}}, "player": {"id": 2877248, "gamerTag": "Smoochie", "prefix": null, "user": {"location": {"city": null, "state": "GA", "country": "United States"}}}}]}, "standing": {"placement": 2, "stats": {"score": {"value": 0}}}}], "games": null}, {"id": 94550982, "state": 3, "round": 2, "fullRoundText": "Winners Round 2", "completedAt": 1759365315, "winnerId": 21436960, "slots": [{"id": "94550982-0", "entrant": {"id": 21436960, "name": "Myk_JUMP", "participants": [{"id": 19702578, "gamerTag": "Myk_JUMP", "prefix": "", "user": {"location": {"city": "Atlanta", "state": "GA", "country": "United States"}}, "player": {"id": 469002, "gamerTag": "Myk_JUMP", "prefix": "", "user": {"location": {"city": "Atlanta", "state": "GA", "country": "United States"}}}}]}, "standing": {"placement": 1, "stats": {"score": {"value": 2}}}}, {"id": "94550982-1", "entrant": {"id": 21424434, "name": "ItsManiBro", "participants": [{"id": 19692087, "gamerTag": "ItsManiBro", "prefix": null, "user": {"location": {"city": "Cartersville", "state": "GA", "country": "United States"}}, "player": {"id": 3511353, "gamerTag": "ItsManiBro", "prefix": null, "user": {"location": {"city": "Cartersville", "state": "GA", "country": "United States"}}}}]}, "standing": {"placement": 2, "stats": {"score": {"value": 1}}}}], "games": null}, {"id": 94550983, "state": 3, "round": 2, "fullRoundText": "Winners Round 2", "completedAt": 1759365259, "winnerId": 21437896, "slots": [{"id": "94550983-0", "entrant": {"id": 21437896, "name": "Pokchop", "participants": [{"id": 19703438, "gamerTag": "Pokchop", "prefix": "", "user": {"location": {"city": "Atlanta", "state": "GA", "country": "United States"}}, "player": {"id": 150402, "gamerTag": "Pokchop", "prefix": "", "user": {"location": {"city": "Atlanta", "state": "GA", "country": "United States"}}}}]}, "standing": {"placement": 1, "stats": {"score": {"value": 2}}}}, {"id": "94550983-1", "entrant": {"id": 21437435, "name": "Limitless_GuNzZ", "participants": [{"id": 19703020, "gamerTag": "Limitless_GuNzZ", "prefix": "", "user": {"location": {"city": "Atlanta", "state": "GA", "country": "United States"}}, "player": {"id": 1627766, "gamerTag": "Limitless_GuNzZ", "prefix": "", "user": {"location": {"city": "Atlanta", "state": "GA", "country": "United States"}}}}]}, "standing": {"placement": 2, "stats": {"score": {"value": 0}}}}], "games": null}]}}}