{"phase": {"seeds": {"pageInfo": {"totalPages": 1, "total": 7}, "nodes": [{"id": 36522329, "seedNum": 2, "entrant": {"id": 21202107, "name": "BE/JLE | CaptainMilkMan", "participants": [{"id": 19498886, "gamerTag": "CaptainMilkMan", "prefix": "BE/JLE", "user": {"location": {"city": "Albany", "state": "GA", "country": "United States"}}, "player": {"id": 1101654, "gamerTag": "CaptainMilkMan", "prefix": "BE/JLE", "user": {"location": {"city": "Albany", "state": "GA", "country": "United States"}}}}]}}, {"id": 36888922, "seedNum": 1, "entrant": {"id": 21454383, "name": "CJay", "participants": [{"id": 19718025, "gamerTag": "CJay", "prefix": null, "user": {"location": {"city": "tallahassee", "state": "FL", "country": "United States"}}, "player": {"id": 1852984, "gamerTag": "CJay", "prefix": null, "user": {"location": {"city": "tallahassee", "state": "FL", "country": "United States"}}}}]}}, {"id": 36820024, "seedNum": 3, "entrant": {"id": 21407328, "name": "Alex828", "participants": [{"id": 19676885, "gamerTag": "Alex828", "prefix": "", "user": {"location": {"city": "Valdosta", "state": "GA", "country": "United States"}}, "player": {"id": 1630146, "gamerTag": "Alex828", "prefix": "", "user": {"location": {"city": "Valdosta", "state": "GA", "country": "United States"}}}}]}}, {"id": 36832889, "seedNum": 4, "entrant": {"id": 21415804, "name": "TheNickXV", "participants": [{"id": 19684457, "gamerTag": "TheNickXV", "prefix": "", "user": {"location": {"city": null, "state": "GA", "country": "United States"}}, "player": {"id": 1100033, "gamerTag": "TheNickXV", "prefix": "", "user": {"location": {"city": null, "state": "GA", "country": "United States"}}}}]}}, {"id": 36888604, "seedNum": 5, "entrant": {"id": 21454165, "name": "Boxboy", "participants": [{"id": 19717839, "gamerTag": "Boxboy", "prefix": "", "user": {"location": {"city": "Tifton", "state": "GA", "country": "United States"}}, "player": {"id": 1174039, "gamerTag": "Boxboy", "prefix": "", "user": {"location": {"city": "Tifton", "state": "GA", "country": "United States"}}}}]}}, {"id": 36833302, "seedNum": 6, "entrant": {"id": 21416100, "name": "CapNPuncH", "participants": [{"id": 19684723, "gamerTag": "CapNPuncH", "prefix": "", "user": {"location": {"city": "Tifton", "state": "GA", "country": "United States"}}, "player": {"id": 2634215, "gamerTag": "CapNPuncH", "prefix": "", "user": {"location": {"city": "Tifton", "state": "GA", "country": "United States"}}}}]}}, {"id": 36850471, "seedNum": 7, "entrant": {"id": 21429070, "name": "VMS | aMSa Fan", "participants": [{"id": 19696165, "gamerTag": "aMSa Fan", "prefix": "VMS", "user": {"location": {"city": "Valdosta", "state": "GA", "country": "United States"}}, "player": {"id": 4526456, "gamerTag": "LogMan", "prefix": "VMS", "user": {"location": {"city": "Valdosta", "state": "GA", "country": "United States"}}}}]}}]}}}