{"phase": {"seeds": {"pageInfo": {"totalPages": 1, "total": 9}, "nodes": [{"id": 36772254, "seedNum": 4, "entrant": {"id": 21375085, "name": "Foam Root", "participants": [{"id": 19649153, "gamerTag": "Foam Root", "prefix": null, "user": {"location": {"city": "Covington", "state": "GA", "country": "United States"}}, "player": {"id": 541222, "gamerTag": "Foam Root", "prefix": "", "user": {"location": {"city": "Covington", "state": "GA", "country": "United States"}}}}]}}, {"id": 36797720, "seedNum": 7, "entrant": {"id": 21392801, "name": "Espadah | ReaperNoLimit", "participants": [{"id": 19664600, "gamerTag": "ReaperNoLimit", "prefix": "Espadah", "user": {"location": {"city": "Warner robbins", "state": "GA", "country": "United States"}}, "player": {"id": 1650376, "gamerTag": "ReaperNoLimit", "prefix": "Espadah", "user": {"location": {"city": "Warner robbins", "state": "GA", "country": "United States"}}}}]}}, {"id": 36803825, "seedNum": 1, "entrant": {"id": 21397193, "name": "Noodle", "participants": [{"id": 19668288, "gamerTag": "Noodle", "prefix": "", "user": {"location": {"city": "McDonough", "state": "GA", "country": "United States"}}, "player": {"id": 3029288, "gamerTag": "Noodle", "prefix": "", "user": {"location": {"city": "McDonough", "state": "GA", "country": "United States"}}}}]}}, {"id": 36803803, "seedNum": 3, "entrant": {"id": 21397172, "name": "ZB | Gerard", "participants": [{"id": 19668273, "gamerTag": "Gerard", "prefix": "ZB", "user": null, "player": {"id": 3241865, "gamerTag": "Gerard", "prefix": "ZB", "user": null}}]}}, {"id": 36806553, "seedNum": 2, "entrant": {"id": 21399242, "name": "Mom92", "participants": [{"id": 19669962, "gamerTag": "Mom92", "prefix": null, "user": {"location": {"city": "Columbus", "state": "GA", "country": "United States"}}, "player": {"id": 138735, "gamerTag": "Mom92", "prefix": null, "user": {"location": {"city": "Columbus", "state": "GA", "country": "United States"}}}}]}}, {"id": 36807270, "seedNum": 9, "entrant": {"id": 21399786, "name": "Station", "participants": [{"id": 19668088, "gamerTag": "Station", "prefix": "", "user": {"location": {"city": null, "state": null, "country": "United States"}}, "player": {"id": 3944248, "gamerTag": "Station", "prefix": "", "user": {"location": {"city": null, "state": null, "country": "United States"}}}}]}}, {"id": 36805650, "seedNum": 5, "entrant": {"id": 21398742, "name": "Michael", "participants": [{"id": 19669560, "gamerTag": "Michael", "prefix": "", "user": {"location": {"city": null, "state": null, "country": "United States"}}, "player": {"id": 4996270, "gamerTag": "Michael", "prefix": "", "user": {"location": {"city": null, "state": null, "country": "United States"}}}}]}}, {"id": 36667390, "seedNum": 6, "entrant": {"id": 21304126, "name": "Skate", "participants": [{"id": 19585807, "gamerTag": "Skate", "prefix": null, "user": {"location": {"city": null, "state": null, "country": "United States"}}, "player": {"id": 4045198, "gamerTag": "Skate", "prefix": null, "user": {"location": {"city": null, "state": null, "country": "United States"}}}}]}}, {"id": 36780810, "seedNum": 8, "entrant": {"id": 21381056, "name": "GAW | Doctor Sleep", "participants": [{"id": 19654496, "gamerTag": "Doctor Sleep", "prefix": "GAW", "user": {"location": {"city": null, "state": "GA", "country": "United States"}}, "player": {"id": 4967767, "gamerTag": "Doctor Sleep", "prefix": "GAW", "user": {"location": {"city": null, "state": "GA", "country": "United States"}}}}]}}]}}}