{"phase": {"seeds": {"pageInfo": {"totalPages": 1, "total": 25}, "nodes": [{"id": 36834141, "seedNum": 2, "entrant": {"id": 21416758, "name": "Geemoney$", "participants": [{"id": 19685327, "gamerTag": "Geemoney$", "prefix": "", "user": {"location": {"city": "Jacksonville", "state": "FL", "country": "United States"}}, "player": {"id": 252344, "gamerTag": "Geemoney$", "prefix": "", "user": {"location": {"city": "Jacksonville", "state": "FL", "country": "United States"}}}}]}}, {"id": 36768940, "seedNum": 1, "entrant": {"id": 21372903, "name": "EZ.JV", "participants": [{"id": 19647231, "gamerTag": "EZ.JV", "prefix": "", "user": {"location": {"city": "Los Altos", "state": "CA", "country": "United States"}}, "player": {"id": 674852, "gamerTag": "EZ.JV", "prefix": "", "user": {"location": {"city": "Los Altos", "state": "CA", "country": "United States"}}}}]}}, {"id": 36836946, "seedNum": 3, "entrant": {"id": 21418664, "name": "Alting", "participants": [{"id": 19687118, "gamerTag": "Alting", "prefix": "", "user": {"location": {"city": null, "state": "GA", "country": "United States"}}, "player": {"id": 400199, "gamerTag": "Alting", "prefix": "", "user": {"location": {"city": null, "state": "GA", "country": "United States"}}}}]}}, {"id": 36784330, "seedNum": 4, "entrant": {"id": 21383203, "name": "Nhiem", "participants": [{"id": 19656311, "gamerTag": "Nhiem", "prefix": "", "user": {"location": {"city": "Atlanta", "state": "GA", "country": "United States"}}, "player": {"id": 1429448, "gamerTag": "Nhiem", "prefix": "", "user": {"location": {"city": "Atlanta", "state": "GA", "country": "United States"}}}}]}}, {"id": 36828249, "seedNum": 9, "entrant": {"id": 21412842, "name": "Xcel", "participants": [{"id": 19681771, "gamerTag": "Xcel", "prefix": null, "user": {"location": {"city": "Calhoun", "state": "GA", "country": "United States"}}, "player": {"id": 2302299, "gamerTag": "Xcel", "prefix": null, "user": {"location": {"city": "Calhoun", "state": "GA", "country": "United States"}}}}]}}, {"id": 36769057, "seedNum": 13, "entrant": {"id": 21372977, "name": "Kitsch", "participants": [{"id": 19647298, "gamerTag": "Kitsch", "prefix": null, "user": {"location": {"city": "Atlanta", "state": "GA", "country": "United States"}}, "player": {"id": 4575825, "gamerTag": "Kitsch", "prefix": null, "user": {"location": {"city": "Atlanta", "state": "GA", "country": "United States"}}}}]}}, {"id": 36836452, "seedNum": 5, "entrant": {"id": 21418182, "name": "KSU|UTO | Whaley", "participants": [{"id": 19686685, "gamerTag": "Whaley", "prefix": "KSU|UTO", "user": {"location": {"city": "Stone Mountain", "state": "GA", "country": "United States"}}, "player": {"id": 2016149, "gamerTag": "Whaley", "prefix": "KSU|UTO|BLZE", "user": {"location": {"city": "Stone Mountain", "state": "GA", "country": "United States"}}}}]}}, {"id": 36774827, "seedNum": 8, "entrant": {"id": 21376764, "name": "Arc", "participants": [{"id": 19650704, "gamerTag": "Arc", "prefix": null, "user": {"location": {"city": "East Palo Alto", "state": "GA", "country": "United States"}}, "player": {"id": 2285547, "gamerTag": "Arc", "prefix": null, "user": {"location": {"city": "East Palo Alto", "state": "GA", "country": "United States"}}}}]}}, {"id": 36768905, "seedNum": 6, "entrant": {"id": 21372868, "name": "Pacil", "participants": [{"id": 19647207, "gamerTag": "Pacil", "prefix": "", "user": {"location": {"city": "Leesburg", "state": "VA", "country": "United States"}}, "player": {"id": 2249009, "gamerTag": "Pacil", "prefix": null, "user": {"location": {"city": "Leesburg", "state": "VA", "country": "United States"}}}}]}}, {"id": 36836451, "seedNum": 7, "entrant": {"id": 21418183, "name": "Rain~", "participants": [{"id": 19686686, "gamerTag": "Rain~", "prefix": null, "user": {"location": {"city": "Atlanta", "state": "GA", "country": "United States"}}, "player": {"id": 4240164, "gamerTag": "Rain~", "prefix": null, "user": {"location": {"city": "Atlanta", "state": "GA", "country": "United States"}}}}]}}, {"id": 36834097, "seedNum": 10, "entrant": {"id": 21416711, "name": "SaggyMilkJug", "participants": [{"id": 19685288, "gamerTag": "SaggyMilkJug", "prefix": "", "user": {"location": {"city": "Atlanta", "state": "GA", "country": "United States"}}, "player": {"id": 4651404, "gamerTag": "SaggyMilkJug", "prefix": "", "user": {"location": {"city": "Atlanta", "state": "GA", "country": "United States"}}}}]}}, {"id": 36768890, "seedNum": 17, "entrant": {"id": 21372853, "name": "Ford", "participants": [{"id": 19647196, "gamerTag": "Ford", "prefix": null, "user": {"location": {"city": "", "state": "GA", "country": "United States"}}, "player": {"id": 3471629, "gamerTag": "Ford", "prefix": null, "user": {"location": {"city": "", "state": "GA", "country": "United States"}}}}]}}, {"id": 36770990, "seedNum": 12, "entrant": {"id": 21374284, "name": "Cam", "participants": [{"id": 19648406, "gamerTag": "Cam", "prefix": null, "user": {"location": {"city": null, "state": "GA", "country": "United States"}}, "player": {"id": 3263394, "gamerTag": "Cam", "prefix": null, "user": {"location": {"city": null, "state": "GA", "country": "United States"}}}}]}}, {"id": 36825701, "seedNum": 16, "entrant": {"id": 21411391, "name": "KSU | Subzero", "participants": [{"id": 19680550, "gamerTag": "Subzero", "prefix": "KSU", "user": {"location": {"city": "Acworth", "state": "GA", "country": "United States"}}, "player": {"id": 1808159, "gamerTag": "Subzero", "prefix": "KSU", "user": {"location": {"city": "Acworth", "state": "GA", "country": "United States"}}}}]}}, {"id": 36809098, "seedNum": 18, "entrant": {"id": 21401032, "name": "Jojodoss", "participants": [{"id": 19671453, "gamerTag": "Jojodoss", "prefix": null, "user": {"location": {"city": null, "state": null, "country": "United States"}}, "player": {"id": 3553592, "gamerTag": "Jojodoss", "prefix": null, "user": {"location": {"city": null, "state": null, "country": "United States"}}}}]}}, {"id": 36809978, "seedNum": 19, "entrant": {"id": 21401701, "name": "Flan", "participants": [{"id": 19671863, "gamerTag": "Flan", "prefix": "", "user": {"location": {"city": null, "state": null, "country": "United States"}}, "player": {"id": 1992615, "gamerTag": "Flan", "prefix": "", "user": {"location": {"city": null, "state": null, "country": "United States"}}}}]}}, {"id": 36774884, "seedNum": 11, "entrant": {"id": 21376821, "name": "Nyramyss", "participants": [{"id": 19650724, "gamerTag": "Nyramyss", "prefix": "", "user": {"location": {"city": "Acworth", "state": "GA", "country": "United States"}}, "player": {"id": 2648735, "gamerTag": "Nyramyss", "prefix": "", "user": {"location": {"city": "Acworth", "state": "GA", "country": "United States"}}}}]}}, {"id": 36809857, "seedNum": 14, "entrant": {"id": 21401596, "name": "KSU | colorful\u029a\u025e", "participants": [{"id": 19671795, "gamerTag": "colorful\u029a\u025e", "prefix": "KSU", "user": {"location": {"city": "Kennesaw", "state": "GA", "country": "United States"}}, "player": {"id": 1783074, "gamerTag": "colorful\u029a\u025e", "prefix": "KSU | RM", "user": {"location": {"city": "Kennesaw", "state": "GA", "country": "United States"}}}}]}}, {"id": 36835398, "seedNum": 15, "entrant": {"id": 21417683, "name": "RM | Prince Peach", "participants": [{"id": 19686203, "gamerTag": "Prince Peach", "prefix": "RM", "user": {"location": {"city": "Stone Mountain", "state": "GA", "country": "United States"}}, "player": {"id": 3003562, "gamerTag": "Prince Peach", "prefix": "RM", "user": {"location": {"city": "Stone Mountain", "state": "GA", "country": "United States"}}}}]}}, {"id": 36774501, "seedNum": 20, "entrant": {"id": 21376567, "name": "Phryo", "participants": [{"id": 19650530, "gamerTag": "Phryo", "prefix": null, "user": {"location": {"city": "Cumming", "state": "GA", "country": "United States"}}, "player": {"id": 4690570, "gamerTag": "Phryo", "prefix": null, "user": {"location": {"city": "Cumming", "state": "GA", "country": "United States"}}}}]}}, {"id": 36808879, "seedNum": 21, "entrant": {"id": 21400891, "name": "Surume", "participants": [{"id": 19671307, "gamerTag": "Surume", "prefix": null, "user": {"location": {"city": null, "state": "GA", "country": "United States"}}, "player": {"id": 4938866, "gamerTag": "Surume", "prefix": null, "user": {"location": {"city": null, "state": "GA", "country": "United States"}}}}]}}, {"id": 36810711, "seedNum": 22, "entrant": {"id": 21402206, "name": "DD | Kingpoyothefirst", "participants": [{"id": 19672251, "gamerTag": "Kingpoyothefirst", "prefix": "DD", "user": {"location": {"city": null, "state": null, "country": null}}, "player": {"id": 2934299, "gamerTag": "Kingpoyothefirst", "prefix": "DD", "user": {"location": {"city": null, "state": null, "country": null}}}}]}}, {"id": 36778419, "seedNum": 23, "entrant": {"id": 21379407, "name": "Solstice", "participants": [{"id": 19652961, "gamerTag": "Solstice", "prefix": "", "user": {"location": {"city": "Atlanta", "state": null, "country": "United States"}}, "player": {"id": 4929526, "gamerTag": "Solstice", "prefix": "", "user": {"location": {"city": "Atlanta", "state": null, "country": "United States"}}}}]}}, {"id": 36820402, "seedNum": 24, "entrant": {"id": 21407633, "name": "RazzBerryPie", "participants": [{"id": 19677162, "gamerTag": "RazzBerryPie", "prefix": null, "user": {"location": {"city": null, "state": null, "country": "United States"}}, "player": {"id": 4940409, "gamerTag": "RazzBerryPie", "prefix": null, "user": {"location": {"city": null, "state": null, "country": "United States"}}}}]}}, {"id": 36826068, "seedNum": 25, "entrant": {"id": 21411418, "name": "Ziffy", "participants": [{"id": 19680576, "gamerTag": "Ziffy", "prefix": "", "user": {"location": {"city": null, "state": null, "country": "United States"}}, "player": {"id": 4998838, "gamerTag": "Ziffy", "prefix": "", "user": {"location": {"city": null, "state": null, "country": "United States"}}}}]}}]}}}