{"phase": {"seeds": {"pageInfo": {"totalPages": 1, "total": 19}, "nodes": [{"id": 36223728, "seedNum": 1, "entrant": {"id": 21004234, "name": "EZ.JV", "participants": [{"id": 19321897, "gamerTag": "EZ.JV", "prefix": "", "user": {"location": {"city": "Los Altos", "state": "CA", "country": "United States"}}, "player": {"id": 674852, "gamerTag": "EZ.JV", "prefix": "", "user": {"location": {"city": "Los Altos", "state": "CA", "country": "United States"}}}}]}}, {"id": 36316461, "seedNum": 4, "entrant": {"id": 21065816, "name": "UTO|WhaLey | Kingwifi", "participants": [{"id": 19377430, "gamerTag": "Kingwifi", "prefix": "UTO|WhaLey", "user": {"location": {"city": "Stone Mountain", "state": "GA", "country": "United States"}}, "player": {"id": 2016149, "gamerTag": "Whaley", "prefix": "KSU|UTO|BLZE", "user": {"location": {"city": "Stone Mountain", "state": "GA", "country": "United States"}}}}]}}, {"id": 36222328, "seedNum": 3, "entrant": {"id": 21003474, "name": "Pacil", "participants": [{"id": 19321199, "gamerTag": "Pacil", "prefix": "", "user": {"location": {"city": "Leesburg", "state": "VA", "country": "United States"}}, "player": {"id": 2249009, "gamerTag": "Pacil", "prefix": null, "user": {"location": {"city": "Leesburg", "state": "VA", "country": "United States"}}}}]}}, {"id": 36311669, "seedNum": 2, "entrant": {"id": 21062315, "name": "Xcel", "participants": [{"id": 19374420, "gamerTag": "Xcel", "prefix": null, "user": {"location": {"city": "Calhoun", "state": "GA", "country": "United States"}}, "player": {"id": 2302299, "gamerTag": "Xcel", "prefix": null, "user": {"location": {"city": "Calhoun", "state": "GA", "country": "United States"}}}}]}}, {"id": 36327363, "seedNum": 7, "entrant": {"id": 21073390, "name": "Tuna", "participants": [{"id": 19384520, "gamerTag": "Tuna", "prefix": "", "user": {"location": {"city": null, "state": null, "country": "Japan"}}, "player": {"id": 2701623, "gamerTag": "Tuna", "prefix": "", "user": {"location": {"city": null, "state": null, "country": "Japan"}}}}]}}, {"id": 36290801, "seedNum": 8, "entrant": {"id": 21047190, "name": "Ford", "participants": [{"id": 19361007, "gamerTag": "Ford", "prefix": null, "user": {"location": {"city": "", "state": "GA", "country": "United States"}}, "player": {"id": 3471629, "gamerTag": "Ford", "prefix": null, "user": {"location": {"city": "", "state": "GA", "country": "United States"}}}}]}}, {"id": 36224523, "seedNum": 6, "entrant": {"id": 21004751, "name": "Kitsch", "participants": [{"id": 19322400, "gamerTag": "Kitsch", "prefix": null, "user": {"location": {"city": "Atlanta", "state": "GA", "country": "United States"}}, "player": {"id": 4575825, "gamerTag": "Kitsch", "prefix": null, "user": {"location": {"city": "Atlanta", "state": "GA", "country": "United States"}}}}]}}, {"id": 36311027, "seedNum": 11, "entrant": {"id": 21061847, "name": "Jojodoss", "participants": [{"id": 19374007, "gamerTag": "Jojodoss", "prefix": null, "user": {"location": {"city": null, "state": null, "country": "United States"}}, "player": {"id": 3553592, "gamerTag": "Jojodoss", "prefix": null, "user": {"location": {"city": null, "state": null, "country": "United States"}}}}]}}, {"id": 36312617, "seedNum": 9, "entrant": {"id": 21062828, "name": "Phryo", "participants": [{"id": 19374849, "gamerTag": "Phryo", "prefix": "", "user": {"location": {"city": "Cumming", "state": "GA", "country": "United States"}}, "player": {"id": 4690570, "gamerTag": "Phryo", "prefix": null, "user": {"location": {"city": "Cumming", "state": "GA", "country": "United States"}}}}]}}, {"id": 36222252, "seedNum": 10, "entrant": {"id": 21003441, "name": "Zolso", "participants": [{"id": 19321168, "gamerTag": "Zolso", "prefix": null, "user": {"location": {"city": "Irvine", "state": "CA", "country": "United States"}}, "player": {"id": 3191312, "gamerTag": "Zolso", "prefix": null, "user": {"location": {"city": "Irvine", "state": "CA", "country": "United States"}}}}]}}, {"id": 36321773, "seedNum": 12, "entrant": {"id": 21068916, "name": "Ro_Noah", "participants": [{"id": 19380429, "gamerTag": "Ro_Noah", "prefix": "", "user": {"location": {"city": null, "state": null, "country": null}}, "player": {"id": 877869, "gamerTag": "Ro_Noah", "prefix": "", "user": {"location": {"city": null, "state": null, "country": null}}}}]}}, {"id": 36222417, "seedNum": 15, "entrant": {"id": 21003523, "name": "Solstice", "participants": [{"id": 19321241, "gamerTag": "Solstice", "prefix": null, "user": {"location": {"city": "Atlanta", "state": null, "country": "United States"}}, "player": {"id": 4929526, "gamerTag": "Solstice", "prefix": "", "user": {"location": {"city": "Atlanta", "state": null, "country": "United States"}}}}]}}, {"id": 36311149, "seedNum": 13, "entrant": {"id": 21061938, "name": "PPman", "participants": [{"id": 19374085, "gamerTag": "PPman", "prefix": null, "user": {"location": {"city": "Savannah", "state": "GA", "country": "United States"}}, "player": {"id": 2998647, "gamerTag": "PPman", "prefix": null, "user": {"location": {"city": "Savannah", "state": "GA", "country": "United States"}}}}]}}, {"id": 36267777, "seedNum": 14, "entrant": {"id": 21031075, "name": "crzycatlvr", "participants": [{"id": 19346223, "gamerTag": "crzycatlvr", "prefix": "", "user": {"location": {"city": "Atlanta", "state": "GA", "country": "United States"}}, "player": {"id": 4754680, "gamerTag": "crzycatlvr", "prefix": "", "user": {"location": {"city": "Atlanta", "state": "GA", "country": "United States"}}}}]}}, {"id": 36312416, "seedNum": 16, "entrant": {"id": 21062751, "name": "Surume", "participants": [{"id": 19374786, "gamerTag": "Surume", "prefix": null, "user": {"location": {"city": null, "state": "GA", "country": "United States"}}, "player": {"id": 4938866, "gamerTag": "Surume", "prefix": null, "user": {"location": {"city": null, "state": "GA", "country": "United States"}}}}]}}, {"id": 36327216, "seedNum": 18, "entrant": {"id": 21073278, "name": "Surge | George", "participants": [{"id": 19384427, "gamerTag": "George", "prefix": "Surge", "user": {"location": {"city": null, "state": null, "country": "United States"}}, "player": {"id": 4940368, "gamerTag": "George", "prefix": "Surge", "user": {"location": {"city": null, "state": null, "country": "United States"}}}}]}}, {"id": 36233190, "seedNum": 5, "entrant": {"id": 21009841, "name": "punk2 | tape", "participants": [{"id": 19326998, "gamerTag": "tape", "prefix": "punk2", "user": {"location": {"city": "Douglasville", "state": "GA", "country": "United States"}}, "player": {"id": 2493488, "gamerTag": "tape", "prefix": "punk2", "user": {"location": {"city": "Douglasville", "state": "GA", "country": "United States"}}}}]}}, {"id": 36325220, "seedNum": 17, "entrant": {"id": 21071766, "name": "SimplyG", "participants": [{"id": 19383053, "gamerTag": "SimplyG", "prefix": "", "user": {"location": {"city": null, "state": null, "country": "United States"}}, "player": {"id": 4940199, "gamerTag": "SimplyG", "prefix": "", "user": {"location": {"city": null, "state": null, "country": "United States"}}}}]}}, {"id": 36327669, "seedNum": 19, "entrant": {"id": 21073684, "name": "RazzBerryPie", "participants": [{"id": 19384792, "gamerTag": "RazzBerryPie", "prefix": null, "user": {"location": {"city": null, "state": null, "country": "United States"}}, "player": {"id": 4940409, "gamerTag": "RazzBerryPie", "prefix": null, "user": {"location": {"city": null, "state": null, "country": "United States"}}}}]}}]}}}