{"event": {"sets": {"pageInfo": {"totalPages": 22, "total": 318}, "nodes": [{"id": 92227322, "state": 3, "round": -5, "fullRoundText": "Losers Round 2", "completedAt": 1754169949, "winnerId": 20827624, "slots": [{"id": "92227322-0", "entrant": {"id": 20703948, "name": "TTV | JB_Staticxz", "participants": [{"id": 19054848, "gamerTag": "JB_Staticxz", "prefix": "TTV", "user": {"location": {"city": "lawrenceville", "state": "GA", "country": "United States"}}, "player": {"id": 3796232, "gamerTag": "JB_Staticxz", "prefix": "TTV", "user": {"location": {"city": "lawrenceville", "state": "GA", "country": "United States"}}}}]}, "standing": {"placement": 2, "stats": {"score": {"value": 0}}}}, {"id": "92227322-1", "entrant": {"id": 20827624, "name": "Zarek", "participants": [{"id": 19166290, "gamerTag": "Zarek", "prefix": "", "user": {"location": {"city": "Atlanta", "state": "GA", "country": "United States"}}, "player": {"id": 405682, "gamerTag": "Zarek", "prefix": "", "user": {"location": {"city": "Atlanta", "state": "GA", "country": "United States"}}}}]}, "standing": {"placement": 1, "stats": {"score": {"value": 2}}}}], "games": null}, {"id": 92227751, "state": 3, "round": -5, "fullRoundText": "Losers Round 2", "completedAt": 1754176169, "winnerId": 20726269, "slots": [{"id": "92227751-0", "entrant": {"id": 20726269, "name": "Sehbai", "participants": [{"id": 19074573, "gamerTag": "Sehbai", "prefix": "", "user": {"location": {"city": "Oxford", "state": "AL", "country": "United States"}}, "player": {"id": 2181360, "gamerTag": "Sehbai", "prefix": "", "user": {"location": {"city": "Oxford", "state": "AL", "country": "United States"}}}}]}, "standing": {"placement": 1, "stats": {"score": {"value": 2}}}}, {"id": "92227751-1", "entrant": {"id": 20708965, "name": "Nyramyss", "participants": [{"id": 19059603, "gamerTag": "Nyramyss", "prefix": "", "user": {"location": {"city": "Acworth", "state": "GA", "country": "United States"}}, "player": {"id": 2648735, "gamerTag": "Nyramyss", "prefix": "", "user": {"location": {"city": "Acworth", "state": "GA", "country": "United States"}}}}]}, "standing": {"placement": 2, "stats": {"score": {"value": 0}}}}], "games": null}, {"id": 92227513, "state": 3, "round": -5, "fullRoundText": "Losers Round 2", "completedAt": 1754168651, "winnerId": 20492179, "slots": [{"id": "92227513-0", "entrant": {"id": 20492179, "name": "Daiyan", "participants": [{"id": 18870720, "gamerTag": "Daiyan", "prefix": "", "user": {"location": {"city": "Lawrenceville", "state": "GA", "country": "United States"}}, "player": {"id": 1059715, "gamerTag": "Daiyan", "prefix": "", "user": {"location": {"city": "Lawrenceville", "state": "GA", "country": "United States"}}}}]}, "standing": {"placement": 1, "stats": {"score": {"value": 2}}}}, {"id": "92227513-1", "entrant": {"id": 20774058, "name": "RainTalonX", "participants": [{"id": 19118382, "gamerTag": "RainTalonX", "prefix": "", "user": {"location": {"city": "Huntsville", "state": "AL", "country": "United States"}}, "player": {"id": 1137968, "gamerTag": "RainTalonX", "prefix": "", "user": {"location": {"city": "Huntsville", "state": "AL", "country": "United States"}}}}]}, "standing": {"placement": 2, "stats": {"score": {"value": 0}}}}], "games": null}, {"id": 92227963, "state": 3, "round": -5, "fullRoundText": "Losers Round 2", "completedAt": 1754176426, "winnerId": 20721826, "slots": [{"id": "92227963-0", "entrant": {"id": 20721826, "name": "TCS BTV | Knockoutjoe", "participants": [{"id": 19070831, "gamerTag": "Knockoutjoe", "prefix": "TCS BTV", "user": {"location": {"city": "Antioch", "state": "TN", "country": "United States"}}, "player": {"id": 2741707, "gamerTag": "Knockoutjoe", "prefix": "TCS BTV", "user": {"location": {"city": "Antioch", "state": "TN", "country": "United States"}}}}]}, "standing": {"placement": 1, "stats": {"score": {"value": 2}}}}, {"id": "92227963-1", "entrant": {"id": 20487997, "name": "TFT | Handsome Squidward", "participants": [{"id": 18867147, "gamerTag": "Handsome Squidward", "prefix": "TFT", "user": {"location": {"city": "Calhoun", "state": "GA", "country": "United States"}}, "player": {"id": 2241471, "gamerTag": "lil munch", "prefix": "TFT", "user": {"location": {"city": "Calhoun", "state": "GA", "country": "United States"}}}}]}, "standing": {"placement": 2, "stats": {"score": {"value": 0}}}}], "games": null}, {"id": 92227827, "state": 3, "round": 2, "fullRoundText": "Winners Round 2", "completedAt": 1754174559, "winnerId": 20690838, "slots": [{"id": "92227827-0", "entrant": {"id": 20690838, "name": "SR | Kola", "participants": [{"id": 19043759, "gamerTag": "Kola", "prefix": "SR", "user": {"location": {"city": "Duluth", "state": "GA", "country": "United States"}}, "player": {"id": 18802, "gamerTag": "Kola", "prefix": "SR", "user": {"location": {"city": "Duluth", "state": "GA", "country": "United States"}}}}]}, "standing": {"placement": 1, "stats": {"score": {"value": 2}}}}, {"id": "92227827-1", "entrant": {"id": 20487997, "name": "TFT | Handsome Squidward", "participants": [{"id": 18867147, "gamerTag": "Handsome Squidward", "prefix": "TFT", "user": {"location": {"city": "Calhoun", "state": "GA", "country": "United States"}}, "player": {"id": 2241471, "gamerTag": "lil munch", "prefix": "TFT", "user": {"location": {"city": "Calhoun", "state": "GA", "country": "United States"}}}}]}, "standing": {"placement": 2, "stats": {"score": {"value": 0}}}}], "games": null}, {"id": 92227615, "state": 3, "round": 2, "fullRoundText": "Winners Round 2", "completedAt": 1754174602, "winnerId": 20749158, "slots": [{"id": "92227615-0", "entrant": {"id": 20749158, "name": "NS | BeastModePaul", "participants": [{"id": 19094723, "gamerTag": "BeastModePaul", "prefix": "NS", "user": {"location": {"city": null, "state": null, "country": null}}, "player": {"id": 1868170, "gamerTag": "BeastModePaul", "prefix": "NS", "user": {"location": {"city": null, "state": null, "country": null}}}}]}, "standing": {"placement": 1, "stats": {"score": {"value": 2}}}}, {"id": "92227615-1", "entrant": {"id": 20708965, "name": "Nyramyss", "participants": [{"id": 19059603, "gamerTag": "Nyramyss", "prefix": "", "user": {"location": {"city": "Acworth", "state": "GA", "country": "United States"}}, "player": {"id": 2648735, "gamerTag": "Nyramyss", "prefix": "", "user": {"location": {"city": "Acworth", "state": "GA", "country": "United States"}}}}]}, "standing": {"placement": 2, "stats": {"score": {"value": 0}}}}], "games": null}, {"id": 92110789, "state": 3, "round": 2, "fullRoundText": "Winners Quarter-Final", "completedAt": 1754182692, "winnerId": 20666441, "slots": [{"id": "92110789-0", "entrant": {"id": 20666441, "name": "WIN | Peabnut", "participants": [{"id": 19022842, "gamerTag": "Peabnut", "prefix": "WIN", "user": {"location": {"city": "Rock Hill", "state": "SC", "country": "United States"}}, "player": {"id": 49302, "gamerTag": "Peabnut", "prefix": "WIN", "user": {"location": {"city": "Rock Hill", "state": "SC", "country": "United States"}}}}]}, "standing": {"placement": 1, "stats": {"score": {"value": 2}}}}, {"id": "92110789-1", "entrant": {"id": 20487903, "name": "DGS | spickles", "participants": [{"id": 18867085, "gamerTag": "spickles", "prefix": "DGS", "user": {"location": {"city": null, "state": null, "country": "United States"}}, "player": {"id": 1154793, "gamerTag": "spickles", "prefix": "DGS", "user": {"location": {"city": null, "state": null, "country": "United States"}}}}]}, "standing": {"placement": 2, "stats": {"score": {"value": 1}}}}], "games": null}, {"id": 92227186, "state": 3, "round": 2, "fullRoundText": "Winners Round 2", "completedAt": 1754167100, "winnerId": 20666441, "slots": [{"id": "92227186-0", "entrant": {"id": 20666441, "name": "WIN | Peabnut", "participants": [{"id": 19022842, "gamerTag": "Peabnut", "prefix": "WIN", "user": {"location": {"city": "Rock Hill", "state": "SC", "country": "United States"}}, "player": {"id": 49302, "gamerTag": "Peabnut", "prefix": "WIN", "user": {"location": {"city": "Rock Hill", "state": "SC", "country": "United States"}}}}]}, "standing": {"placement": 1, "stats": {"score": {"value": 2}}}}, {"id": "92227186-1", "entrant": {"id": 20827624, "name": "Zarek", "participants": [{"id": 19166290, "gamerTag": "Zarek", "prefix": "", "user": {"location": {"city": "Atlanta", "state": "GA", "country": "United States"}}, "player": {"id": 405682, "gamerTag": "Zarek", "prefix": "", "user": {"location": {"city": "Atlanta", "state": "GA", "country": "United States"}}}}]}, "standing": {"placement": 2, "stats": {"score": {"value": 0}}}}], "games": null}, {"id": 92227377, "state": 3, "round": 2, "fullRoundText": "Winners Round 2", "completedAt": 1754168074, "winnerId": 20555293, "slots": [{"id": "92227377-0", "entrant": {"id": 20555293, "name": "omega", "participants": [{"id": 18925691, "gamerTag": "omega", "prefix": "", "user": {"location": {"city": "Suwanee", "state": "GA", "country": "United States"}}, "player": {"id": 24638, "gamerTag": "omega", "prefix": "", "user": {"location": {"city": "Suwanee", "state": "GA", "country": "United States"}}}}]}, "standing": {"placement": 1, "stats": {"score": {"value": 2}}}}, {"id": "92227377-1", "entrant": {"id": 20774058, "name": "RainTalonX", "participants": [{"id": 19118382, "gamerTag": "RainTalonX", "prefix": "", "user": {"location": {"city": "Huntsville", "state": "AL", "country": "United States"}}, "player": {"id": 1137968, "gamerTag": "RainTalonX", "prefix": "", "user": {"location": {"city": "Huntsville", "state": "AL", "country": "United States"}}}}]}, "standing": {"placement": 2, "stats": {"score": {"value": 0}}}}], "games": null}, {"id": 92227378, "state": 3, "round": 2, "fullRoundText": "Winners Round 2", "completedAt": 1754167709, "winnerId": 20490407, "slots": [{"id": "92227378-0", "entrant": {"id": 20490407, "name": "TC | Mr.Speedman", "participants": [{"id": 18869131, "gamerTag": "Mr.Speedman", "prefix": "TC", "user": {"location": {"city": "Roswell", "state": "GA", "country": "United States"}}, "player": {"id": 36192, "gamerTag": "Mr.Speedman", "prefix": "TC", "user": {"location": {"city": "Roswell", "state": "GA", "country": "United States"}}}}]}, "standing": {"placement": 1, "stats": {"score": {"value": 2}}}}, {"id": "92227378-1", "entrant": {"id": 20492179, "name": "Daiyan", "participants": [{"id": 18870720, "gamerTag": "Daiyan", "prefix": "", "user": {"location": {"city": "Lawrenceville", "state": "GA", "country": "United States"}}, "player": {"id": 1059715, "gamerTag": "Daiyan", "prefix": "", "user": {"location": {"city": "Lawrenceville", "state": "GA", "country": "United States"}}}}]}, "standing": {"placement": 2, "stats": {"score": {"value": 1}}}}], "games": null}, {"id": 92110790, "state": 3, "round": 2, "fullRoundText": "Winners Quarter-Final", "completedAt": 1754180925, "winnerId": 20555293, "slots": [{"id": "92110790-0", "entrant": {"id": 20555293, "name": "omega", "participants": [{"id": 18925691, "gamerTag": "omega", "prefix": "", "user": {"location": {"city": "Suwanee", "state": "GA", "country": "United States"}}, "player": {"id": 24638, "gamerTag": "omega", "prefix": "", "user": {"location": {"city": "Suwanee", "state": "GA", "country": "United States"}}}}]}, "standing": {"placement": 1, "stats": {"score": {"value": 2}}}}, {"id": "92110790-1", "entrant": {"id": 20735917, "name": "DTN | Fatality", "participants": [{"id": 19082720, "gamerTag": "Fatality", "prefix": "DTN", "user": {"location": {"city": "Lilburn", "state": "GA", "country": "United States"}}, "player": {"id": 15921, "gamerTag": "Fatality", "prefix": "DTN", "user": {"location": {"city": "Lilburn", "state": "GA", "country": "United States"}}}}]}, "standing": {"placement": 2, "stats": {"score": {"value": 0}}}}], "games": null}, {"id": 92227187, "state": 3, "round": 2, "fullRoundText": "Winners Round 2", "completedAt": 1754167408, "winnerId": 20831892, "slots": [{"id": "92227187-0", "entrant": {"id": 20571259, "name": "Argon | Kage", "participants": [{"id": 18940107, "gamerTag": "Kage", "prefix": "Argon", "user": {"location": {"city": "Huntsville", "state": "AL", "country": "United States"}}, "player": {"id": 465685, "gamerTag": "OsamaBin-Ballin", "prefix": "Argon", "user": {"location": {"city": "Huntsville", "state": "AL", "country": "United States"}}}}]}, "standing": {"placement": 2, "stats": {"score": {"value": 1}}}}, {"id": "92227187-1", "entrant": {"id": 20831892, "name": "iNGenius", "participants": [{"id": 19170319, "gamerTag": "iNGenius", "prefix": "", "user": {"location": {"city": null, "state": null, "country": null}}, "player": {"id": 3194293, "gamerTag": "iNGenius", "prefix": "", "user": {"location": {"city": null, "state": null, "country": null}}}}]}, "standing": {"placement": 1, "stats": {"score": {"value": 2}}}}], "games": null}, {"id": 92227828, "state": 3, "round": 2, "fullRoundText": "Winners Round 2", "completedAt": 1754174792, "winnerId": 20497378, "slots": [{"id": "92227828-0", "entrant": {"id": 20721826, "name": "TCS BTV | Knockoutjoe", "participants": [{"id": 19070831, "gamerTag": "Knockoutjoe", "prefix": "TCS BTV", "user": {"location": {"city": "Antioch", "state": "TN", "country": "United States"}}, "player": {"id": 2741707, "gamerTag": "Knockoutjoe", "prefix": "TCS BTV", "user": {"location": {"city": "Antioch", "state": "TN", "country": "United States"}}}}]}, "standing": {"placement": 2, "stats": {"score": {"value": 1}}}}, {"id": "92227828-1", "entrant": {"id": 20497378, "name": "Dubz", "participants": [{"id": 18875528, "gamerTag": "Dubz", "prefix": "", "user": {"location": {"city": "Grayson", "state": "GA", "country": "United States"}}, "player": {"id": 22583, "gamerTag": "Dubz", "prefix": "", "user": {"location": {"city": "Grayson", "state": "GA", "country": "United States"}}}}]}, "standing": {"placement": 1, "stats": {"score": {"value": 2}}}}], "games": [{"id": 31682884, "orderNum": 1, "winnerId": 20721826, "entrant1Score": null, "entrant2Score": 0, "stage": null, "selections": null}, {"id": 31683062, "orderNum": 2, "winnerId": 20497378, "entrant1Score": 0, "entrant2Score": null, "stage": null, "selections": null}, {"id": 31683063, "orderNum": 3, "winnerId": 20497378, "entrant1Score": 0, "entrant2Score": null, "stage": null, "selections": null}]}, {"id": 92227616, "state": 3, "round": 2, "fullRoundText": "Winners Round 2", "completedAt": 1754173551, "winnerId": 20488306, "slots": [{"id": "92227616-0", "entrant": {"id": 20488306, "name": "VA | StreetDzine", "participants": [{"id": 18867299, "gamerTag": "StreetDzine", "prefix": "VA", "user": {"location": {"city": null, "state": null, "country": "United States"}}, "player": {"id": 989587, "gamerTag": "StreetDzine", "prefix": "VA", "user": {"location": {"city": null, "state": null, "country": "United States"}}}}]}, "standing": {"placement": 1, "stats": {"score": {"value": 2}}}}, {"id": "92227616-1", "entrant": {"id": 20726269, "name": "Sehbai", "participants": [{"id": 19074573, "gamerTag": "Sehbai", "prefix": "", "user": {"location": {"city": "Oxford", "state": "AL", "country": "United States"}}, "player": {"id": 2181360, "gamerTag": "Sehbai", "prefix": "", "user": {"location": {"city": "Oxford", "state": "AL", "country": "United States"}}}}]}, "standing": {"placement": 2, "stats": {"score": {"value": 0}}}}], "games": null}, {"id": 92227188, "state": 3, "round": 2, "fullRoundText": "Winners Round 2", "completedAt": 1754167170, "winnerId": 20733414, "slots": [{"id": "92227188-0", "entrant": {"id": 20733414, "name": "Kailen", "participants": [{"id": 19080738, "gamerTag": "Kailen", "prefix": "", "user": {"location": {"city": "Atlanta", "state": "GA", "country": "United States"}}, "player": {"id": 1647157, "gamerTag": "Kailen", "prefix": "", "user": {"location": {"city": "Atlanta", "state": "GA", "country": "United States"}}}}]}, "standing": {"placement": 1, "stats": {"score": {"value": 2}}}}, {"id": "92227188-1", "entrant": {"id": 20717425, "name": "HOPE | Sung Jinwoo", "participants": [{"id": 19066790, "gamerTag": "Sung Jinwoo", "prefix": "HOPE", "user": {"location": {"city": "Atlanta", "state": "GA", "country": "United States"}}, "player": {"id": 595350, "gamerTag": "Sung Jinwoo", "prefix": "HOPE", "user": {"location": {"city": "Atlanta", "state": "GA", "country": "United States"}}}}]}, "standing": {"placement": 2, "stats": {"score": {"value": 0}}}}], "games": null}]}}}