{"event": {"sets": {"pageInfo": {"totalPages": 5, "total": 62}, "nodes": [{"id": 91652177, "state": 3, "round": -3, "fullRoundText": "Losers Round 1", "completedAt": 1753040762, "winnerId": 20726598, "slots": [{"id": "91652177-0", "entrant": {"id": 20724337, "name": "EEL | Jabuns", "participants": [{"id": 19073031, "gamerTag": "Jabuns", "prefix": "EEL", "user": {"location": {"city": "Rex", "state": "GA", "country": "United States"}}, "player": {"id": 722240, "gamerTag": "Jabuns", "prefix": "EEL", "user": {"location": {"city": "Rex", "state": "GA", "country": "United States"}}}}]}, "standing": {"placement": 2, "stats": {"score": {"value": 0}}}}, {"id": "91652177-1", "entrant": {"id": 20726598, "name": "noided", "participants": [{"id": 19074800, "gamerTag": "noided", "prefix": "", "user": {"location": {"city": "Atlanta", "state": "GA", "country": "United States"}}, "player": {"id": 2586521, "gamerTag": "noided", "prefix": "", "user": {"location": {"city": "Atlanta", "state": "GA", "country": "United States"}}}}]}, "standing": {"placement": 1, "stats": {"score": {"value": 3}}}}], "games": null}, {"id": 91652105, "state": 3, "round": 1, "fullRoundText": "Winners Round 1", "completedAt": 1753038873, "winnerId": 20583356, "slots": [{"id": "91652105-0", "entrant": {"id": 20583356, "name": "Colbol", "participants": [{"id": 18950278, "gamerTag": "Colbol", "prefix": "", "user": {"location": {"city": "Tucker", "state": "GA", "country": "United States"}}, "player": {"id": 1009, "gamerTag": "Colbol", "prefix": "", "user": {"location": {"city": "Tucker", "state": "GA", "country": "United States"}}}}]}, "standing": {"placement": 1, "stats": {"score": {"value": 3}}}}, {"id": "91652105-1", "entrant": {"id": 20635764, "name": "Blaze | Blazescorpion", "participants": [{"id": 18996190, "gamerTag": "Blazescorpion", "prefix": "Blaze", "user": {"location": {"city": "Glenwood", "state": "GA", "country": "United States"}}, "player": {"id": 4793510, "gamerTag": "Blazescorpion", "prefix": "Blaze", "user": {"location": {"city": "Glenwood", "state": "GA", "country": "United States"}}}}]}, "standing": {"placement": 2, "stats": {"score": {"value": 0}}}}], "games": null}, {"id": 91652106, "state": 3, "round": 1, "fullRoundText": "Winners Round 1", "completedAt": 1753039355, "winnerId": 20636486, "slots": [{"id": "91652106-0", "entrant": {"id": 20636486, "name": "tomguy", "participants": [{"id": 18996782, "gamerTag": "tomguy", "prefix": "", "user": {"location": {"city": "Atlanta", "state": "GA", "country": "United States"}}, "player": {"id": 147458, "gamerTag": "tomguy", "prefix": "", "user": {"location": {"city": "Atlanta", "state": "GA", "country": "United States"}}}}]}, "standing": {"placement": 1, "stats": {"score": {"value": 3}}}}, {"id": "91652106-1", "entrant": {"id": 20573154, "name": "Ronan", "participants": [{"id": 18941627, "gamerTag": "Ronan", "prefix": "", "user": {"location": {"city": "Atlanta", "state": "GA", "country": "United States"}}, "player": {"id": 147384, "gamerTag": "Ronan", "prefix": "", "user": {"location": {"city": "Atlanta", "state": "GA", "country": "United States"}}}}]}, "standing": {"placement": 2, "stats": {"score": {"value": 1}}}}], "games": null}, {"id": 91652107, "state": 3, "round": 1, "fullRoundText": "Winners Round 1", "completedAt": 1753040203, "winnerId": 20571158, "slots": [{"id": "91652107-0", "entrant": {"id": 20571158, "name": "skyguy | Chris Danger", "participants": [{"id": 18940013, "gamerTag": "Chris Danger", "prefix": "skyguy", "user": {"location": {"city": "Atlanta", "state": "GA", "country": "United States"}}, "player": {"id": 2808268, "gamerTag": "Chris Danger", "prefix": "skyguy", "user": {"location": {"city": "Atlanta", "state": "GA", "country": "United States"}}}}]}, "standing": {"placement": 1, "stats": {"score": {"value": 3}}}}, {"id": "91652107-1", "entrant": {"id": 20579179, "name": "Deign", "participants": [{"id": 18946785, "gamerTag": "Deign", "prefix": "", "user": {"location": {"city": null, "state": null, "country": "United States"}}, "player": {"id": 325595, "gamerTag": "Deign", "prefix": "", "user": {"location": {"city": null, "state": null, "country": "United States"}}}}]}, "standing": {"placement": 2, "stats": {"score": {"value": 0}}}}], "games": null}, {"id": 91652108, "state": 3, "round": 1, "fullRoundText": "Winners Round 1", "completedAt": 1753039219, "winnerId": 20745121, "slots": [{"id": "91652108-0", "entrant": {"id": 20745121, "name": "Karan", "participants": [{"id": 19090863, "gamerTag": "Karan", "prefix": "", "user": {"location": {"city": "Atlanta", "state": "GA", "country": "United States"}}, "player": {"id": 35472, "gamerTag": "Karan", "prefix": "", "user": {"location": {"city": "Atlanta", "state": "GA", "country": "United States"}}}}]}, "standing": {"placement": 1, "stats": {"score": {"value": 3}}}}, {"id": "91652108-1", "entrant": {"id": 20579183, "name": "Tyme", "participants": [{"id": 18946789, "gamerTag": "Tyme", "prefix": null, "user": {"location": {"city": null, "state": null, "country": null}}, "player": {"id": 325589, "gamerTag": "Tyme", "prefix": null, "user": {"location": {"city": null, "state": null, "country": null}}}}]}, "standing": {"placement": 2, "stats": {"score": {"value": 1}}}}], "games": null}, {"id": 91652109, "state": 3, "round": 1, "fullRoundText": "Winners Round 1", "completedAt": 1753040606, "winnerId": 20570674, "slots": [{"id": "91652109-0", "entrant": {"id": 20570674, "name": "natebug01", "participants": [{"id": 18939578, "gamerTag": "natebug01", "prefix": null, "user": {"location": {"city": "atl", "state": "GA", "country": "United States"}}, "player": {"id": 69973, "gamerTag": "natebug01", "prefix": null, "user": {"location": {"city": "atl", "state": "GA", "country": "United States"}}}}]}, "standing": {"placement": 1, "stats": {"score": {"value": null}}}}, {"id": "91652109-1", "entrant": {"id": 20571319, "name": "nascar amy", "participants": [{"id": 18940161, "gamerTag": "nascar amy", "prefix": null, "user": {"location": {"city": "Atlanta", "state": "GA", "country": "United States"}}, "player": {"id": 2304498, "gamerTag": "nascar amy", "prefix": null, "user": {"location": {"city": "Atlanta", "state": "GA", "country": "United States"}}}}]}, "standing": {"placement": 2, "stats": {"score": {"value": -1}}}}], "games": null}, {"id": 91652110, "state": 3, "round": 1, "fullRoundText": "Winners Round 1", "completedAt": 1753038936, "winnerId": 20571149, "slots": [{"id": "91652110-0", "entrant": {"id": 20571149, "name": "GCB | fries", "participants": [{"id": 18940005, "gamerTag": "fries", "prefix": "GCB", "user": {"location": {"city": "Greer", "state": "SC", "country": "United States"}}, "player": {"id": 1120136, "gamerTag": "fries", "prefix": "GCB", "user": {"location": {"city": "Greer", "state": "SC", "country": "United States"}}}}]}, "standing": {"placement": 1, "stats": {"score": {"value": 3}}}}, {"id": "91652110-1", "entrant": {"id": 20699962, "name": "OGC | bune", "participants": [{"id": 19051484, "gamerTag": "bune", "prefix": "OGC", "user": {"location": {"city": "Macon", "state": "GA", "country": "United States"}}, "player": {"id": 3054829, "gamerTag": "bune", "prefix": "OGC", "user": {"location": {"city": "Macon", "state": "GA", "country": "United States"}}}}]}, "standing": {"placement": 2, "stats": {"score": {"value": 0}}}}], "games": null}, {"id": 91652111, "state": 3, "round": 1, "fullRoundText": "Winners Round 1", "completedAt": 1753040147, "winnerId": 20571452, "slots": [{"id": "91652111-0", "entrant": {"id": 20571452, "name": "skyguy | bag", "participants": [{"id": 18940280, "gamerTag": "bag", "prefix": "skyguy", "user": {"location": {"city": "Atlanta", "state": "GA", "country": "United States"}}, "player": {"id": 271346, "gamerTag": "bag", "prefix": "skyguy", "user": {"location": {"city": "Atlanta", "state": "GA", "country": "United States"}}}}]}, "standing": {"placement": 1, "stats": {"score": {"value": 3}}}}, {"id": "91652111-1", "entrant": {"id": 20586506, "name": "NMBS | roshi", "participants": [{"id": 18953160, "gamerTag": "roshi", "prefix": "NMBS", "user": {"location": {"city": "Atlanta", "state": "GA", "country": "United States"}}, "player": {"id": 37667, "gamerTag": "roshi", "prefix": "NMBS", "user": {"location": {"city": "Atlanta", "state": "GA", "country": "United States"}}}}]}, "standing": {"placement": 2, "stats": {"score": {"value": 0}}}}], "games": [{"id": 31400928, "orderNum": 1, "winnerId": 20571452, "entrant1Score": null, "entrant2Score": 0, "stage": null, "selections": [{"id": 46225085, "selectionType": "CHARACTER", "selectionValue": 7, "entrant": {"id": 20571452}, "character": {"id": 7, "name": "Ganondorf"}}]}, {"id": 31400929, "orderNum": 2, "winnerId": 20571452, "entrant1Score": null, "entrant2Score": 0, "stage": null, "selections": [{"id": 46225086, "selectionType": "CHARACTER", "selectionValue": 7, "entrant": {"id": 20571452}, "character": {"id": 7, "name": "Ganondorf"}}]}, {"id": 31400930, "orderNum": 3, "winnerId": 20571452, "entrant1Score": null, "entrant2Score": 0, "stage": null, "selections": [{"id": 46225087, "selectionType": "CHARACTER", "selectionValue": 7, "entrant": {"id": 20571452}, "character": {"id": 7, "name": "Ganondorf"}}]}]}, {"id": 91652112, "state": 3, "round": 1, "fullRoundText": "Winners Round 1", "completedAt": 1753040681, "winnerId": 20570679, "slots": [{"id": "91652112-0", "entrant": {"id": 20570679, "name": "Erran", "participants": [{"id": 18939583, "gamerTag": "Erran", "prefix": "", "user": {"location": {"city": "Atlanta", "state": "GA", "country": "United States"}}, "player": {"id": 36706, "gamerTag": "Erran", "prefix": "", "user": {"location": {"city": "Atlanta", "state": "GA", "country": "United States"}}}}]}, "standing": {"placement": 1, "stats": {"score": {"value": 3}}}}, {"id": "91652112-1", "entrant": {"id": 20580067, "name": "MH | Savvy", "participants": [{"id": 18947540, "gamerTag": "Savvy", "prefix": "MH", "user": {"location": {"city": "", "state": "SC", "country": "United States"}}, "player": {"id": 46433, "gamerTag": "Savvy", "prefix": "MH", "user": {"location": {"city": "", "state": "SC", "country": "United States"}}}}]}, "standing": {"placement": 2, "stats": {"score": {"value": 0}}}}], "games": null}, {"id": 91652113, "state": 3, "round": 1, "fullRoundText": "Winners Round 1", "completedAt": 1753040370, "winnerId": 20573679, "slots": [{"id": "91652113-0", "entrant": {"id": 20573679, "name": "vivesthesia", "participants": [{"id": 18942059, "gamerTag": "vivesthesia", "prefix": null, "user": {"location": {"city": "Atlanta", "state": "GA", "country": "United States"}}, "player": {"id": 4395171, "gamerTag": "vivesthesia", "prefix": null, "user": {"location": {"city": "Atlanta", "state": "GA", "country": "United States"}}}}]}, "standing": {"placement": 1, "stats": {"score": {"value": 0}}}}, {"id": "91652113-1", "entrant": {"id": 20573681, "name": "TPS | cryptonic", "participants": [{"id": 18942061, "gamerTag": "cryptonic", "prefix": "TPS", "user": {"location": {"city": "Kennesaw", "state": "GA", "country": "United States"}}, "player": {"id": 3422494, "gamerTag": "$CAITLIN", "prefix": "TPS", "user": {"location": {"city": "Kennesaw", "state": "GA", "country": "United States"}}}}]}, "standing": {"placement": 2, "stats": {"score": {"value": -1}}}}], "games": null}, {"id": 91652114, "state": 3, "round": 1, "fullRoundText": "Winners Round 1", "completedAt": 1753039674, "winnerId": 20573849, "slots": [{"id": "91652114-0", "entrant": {"id": 20573849, "name": "cheeks", "participants": [{"id": 18942208, "gamerTag": "cheeks", "prefix": "", "user": {"location": {"city": "Greenville", "state": "SC", "country": "United States"}}, "player": {"id": 2168044, "gamerTag": "cheeks", "prefix": "", "user": {"location": {"city": "Greenville", "state": "SC", "country": "United States"}}}}]}, "standing": {"placement": 1, "stats": {"score": {"value": 3}}}}, {"id": "91652114-1", "entrant": {"id": 20571372, "name": "blaise", "participants": [{"id": 18940210, "gamerTag": "blaise", "prefix": "", "user": {"location": {"city": "douglasville", "state": "GA", "country": "United States"}}, "player": {"id": 1326121, "gamerTag": "blaise", "prefix": "", "user": {"location": {"city": "douglasville", "state": "GA", "country": "United States"}}}}]}, "standing": {"placement": 2, "stats": {"score": {"value": 0}}}}], "games": null}, {"id": 91652115, "state": 3, "round": 1, "fullRoundText": "Winners Round 1", "completedAt": 1753039147, "winnerId": 20722643, "slots": [{"id": "91652115-0", "entrant": {"id": 20722643, "name": "Austintacious", "participants": [{"id": 19071580, "gamerTag": "Austintacious", "prefix": "", "user": {"location": {"city": "Atlanta", "state": "GA", "country": "United States"}}, "player": {"id": 14025, "gamerTag": "Austintacious", "prefix": "", "user": {"location": {"city": "Atlanta", "state": "GA", "country": "United States"}}}}]}, "standing": {"placement": 1, "stats": {"score": {"value": 3}}}}, {"id": "91652115-1", "entrant": {"id": 20740202, "name": "KHW | Frumps", "participants": [{"id": 19086221, "gamerTag": "Frumps", "prefix": "KHW", "user": {"location": {"city": "Greenville", "state": "SC", "country": "United States"}}, "player": {"id": 2844590, "gamerTag": "Frumps", "prefix": "KHW", "user": {"location": {"city": "Greenville", "state": "SC", "country": "United States"}}}}]}, "standing": {"placement": 2, "stats": {"score": {"value": 0}}}}], "games": null}, {"id": 91652116, "state": 3, "round": 1, "fullRoundText": "Winners Round 1", "completedAt": 1753039006, "winnerId": 20716016, "slots": [{"id": "91652116-0", "entrant": {"id": 20716016, "name": "Alia", "participants": [{"id": 19065768, "gamerTag": "Alia", "prefix": "", "user": {"location": {"city": "Columbia", "state": "SC", "country": "United States"}}, "player": {"id": 3619482, "gamerTag": "Alia", "prefix": "", "user": {"location": {"city": "Columbia", "state": "SC", "country": "United States"}}}}]}, "standing": {"placement": 1, "stats": {"score": {"value": 3}}}}, {"id": "91652116-1", "entrant": {"id": 20573867, "name": "MSU | transrights420", "participants": [{"id": 18942222, "gamerTag": "transrights420", "prefix": "MSU", "user": {"location": {"city": "Starkville", "state": "MS", "country": "United States"}}, "player": {"id": 1479899, "gamerTag": "transrights420", "prefix": "", "user": {"location": {"city": "Starkville", "state": "MS", "country": "United States"}}}}]}, "standing": {"placement": 2, "stats": {"score": {"value": 0}}}}], "games": null}, {"id": 91652117, "state": 3, "round": 1, "fullRoundText": "Winners Round 1", "completedAt": 1753040011, "winnerId": 20570953, "slots": [{"id": "91652117-0", "entrant": {"id": 20570953, "name": "audrey", "participants": [{"id": 18939831, "gamerTag": "audrey", "prefix": null, "user": {"location": {"city": "Dunwoody", "state": "GA", "country": "United States"}}, "player": {"id": 1335864, "gamerTag": "audrey", "prefix": null, "user": {"location": {"city": "Dunwoody", "state": "GA", "country": "United States"}}}}]}, "standing": {"placement": 1, "stats": {"score": {"value": 3}}}}, {"id": "91652117-1", "entrant": {"id": 20572289, "name": "President Polar Bear", "participants": [{"id": 18940994, "gamerTag": "President Polar Bear", "prefix": "", "user": {"location": {"city": "Atlanta", "state": "GA", "country": "United States"}}, "player": {"id": 34568, "gamerTag": "President Polar Bear", "prefix": "", "user": {"location": {"city": "Atlanta", "state": "GA", "country": "United States"}}}}]}, "standing": {"placement": 2, "stats": {"score": {"value": 0}}}}], "games": null}, {"id": 91652118, "state": 3, "round": 1, "fullRoundText": "Winners Round 1", "completedAt": 1753040504, "winnerId": 20570702, "slots": [{"id": "91652118-0", "entrant": {"id": 20570702, "name": "lioX0X0", "participants": [{"id": 18939602, "gamerTag": "lioX0X0", "prefix": "", "user": {"location": {"city": "Atlanta", "state": "GA", "country": "United States"}}, "player": {"id": 2326935, "gamerTag": "lioX0X0", "prefix": "", "user": {"location": {"city": "Atlanta", "state": "GA", "country": "United States"}}}}]}, "standing": {"placement": 1, "stats": {"score": {"value": 3}}}}, {"id": "91652118-1", "entrant": {"id": 20571671, "name": "SKRUNT | diremaykr", "participants": [{"id": 18940453, "gamerTag": "diremaykr", "prefix": "SKRUNT", "user": {"location": {"city": "Buford", "state": "GA", "country": "United States"}}, "player": {"id": 3207366, "gamerTag": "diremaykr", "prefix": "", "user": {"location": {"city": "Buford", "state": "GA", "country": "United States"}}}}]}, "standing": {"placement": 2, "stats": {"score": {"value": 0}}}}], "games": null}]}}}