{"phase": {"seeds": {"pageInfo": {"totalPages": 1, "total": 30}, "nodes": [{"id": 36017184, "seedNum": 5, "entrant": {"id": 20875607, "name": "WFF | Olive", "participants": [{"id": 19208623, "gamerTag": "Olive", "prefix": "WFF", "user": {"location": {"city": "Atlanta", "state": "GA", "country": "United States"}}, "player": {"id": 1810274, "gamerTag": "Planet Of Da", "prefix": "WeFarmFrank", "user": {"location": {"city": "Atlanta", "state": "GA", "country": "United States"}}}}]}}, {"id": 36013164, "seedNum": 6, "entrant": {"id": 20874724, "name": "TnT | Damp\u00e9", "participants": [{"id": 19208058, "gamerTag": "Damp\u00e9", "prefix": "TnT", "user": {"location": {"city": "Atlanta", "state": "GA", "country": "United States"}}, "player": {"id": 1170738, "gamerTag": "Damp\u00e9", "prefix": "TnT", "user": {"location": {"city": "Atlanta", "state": "GA", "country": "United States"}}}}]}}, {"id": 36017086, "seedNum": 7, "entrant": {"id": 20875523, "name": "TnT | Sid", "participants": [{"id": 19208548, "gamerTag": "Sid", "prefix": "TnT", "user": {"location": {"city": "Powder Springs", "state": "GA", "country": "United States"}}, "player": {"id": 1229067, "gamerTag": "Sid", "prefix": "TnT", "user": {"location": {"city": "Powder Springs", "state": "GA", "country": "United States"}}}}]}}, {"id": 36017220, "seedNum": 8, "entrant": {"id": 20875638, "name": "RAMS | RussianJesus", "participants": [{"id": 19208650, "gamerTag": "RussianJesus", "prefix": "RAMS", "user": {"location": {"city": "Atlanta", "state": "GA", "country": "United States"}}, "player": {"id": 1140567, "gamerTag": "RussianJesus", "prefix": "RAMS", "user": {"location": {"city": "Atlanta", "state": "GA", "country": "United States"}}}}]}}, {"id": 35927091, "seedNum": 3, "entrant": {"id": 20822631, "name": "TFT | Frank", "participants": [{"id": 19161605, "gamerTag": "Frank", "prefix": "TFT", "user": {"location": {"city": "Doraville", "state": "GA", "country": "United States"}}, "player": {"id": 1227401, "gamerTag": "Terry Labonte", "prefix": "TFT", "user": {"location": {"city": "Doraville", "state": "GA", "country": "United States"}}}}]}}, {"id": 36014132, "seedNum": 13, "entrant": {"id": 20875429, "name": "TnT | Monologgue", "participants": [{"id": 19208439, "gamerTag": "Monologgue", "prefix": "TnT", "user": {"location": {"city": "Atlanta", "state": "GA", "country": "United States"}}, "player": {"id": 1135679, "gamerTag": "Monologgue", "prefix": "TnT", "user": {"location": {"city": "Atlanta", "state": "GA", "country": "United States"}}}}]}}, {"id": 36012334, "seedNum": 15, "entrant": {"id": 20874193, "name": "Mrbray30", "participants": [{"id": 19207539, "gamerTag": "Mrbray30", "prefix": "", "user": {"location": {"city": "Atlanta", "state": "GA", "country": "United States"}}, "player": {"id": 4664413, "gamerTag": "Mrbray30", "prefix": "", "user": {"location": {"city": "Atlanta", "state": "GA", "country": "United States"}}}}]}}, {"id": 36017224, "seedNum": 17, "entrant": {"id": 20875642, "name": "MTM | Bob Weiner", "participants": [{"id": 19208653, "gamerTag": "Bob Weiner", "prefix": "MTM", "user": {"location": {"city": "Kennesaw", "state": "GA", "country": "United States"}}, "player": {"id": 2142601, "gamerTag": "Bob Weiner", "prefix": "MTM", "user": {"location": {"city": "Kennesaw", "state": "GA", "country": "United States"}}}}]}}, {"id": 36014140, "seedNum": 1, "entrant": {"id": 20875438, "name": "Heart", "participants": [{"id": 19208446, "gamerTag": "Heart", "prefix": "", "user": {"location": {"city": "Atlanta", "state": "GA", "country": "United States"}}, "player": {"id": 4287822, "gamerTag": "Heart", "prefix": "", "user": {"location": {"city": "Atlanta", "state": "GA", "country": "United States"}}}}]}}, {"id": 36013413, "seedNum": 10, "entrant": {"id": 20874905, "name": "TFT | Handsome Squidward", "participants": [{"id": 19208208, "gamerTag": "Handsome Squidward", "prefix": "TFT", "user": {"location": {"city": "Calhoun", "state": "GA", "country": "United States"}}, "player": {"id": 2241471, "gamerTag": "lil munch", "prefix": "TFT", "user": {"location": {"city": "Calhoun", "state": "GA", "country": "United States"}}}}]}}, {"id": 36017404, "seedNum": 14, "entrant": {"id": 20875667, "name": "RAMS | Bragmuffin", "participants": [{"id": 19208672, "gamerTag": "Bragmuffin", "prefix": "RAMS", "user": {"location": {"city": "Alpharetta", "state": "GA", "country": "United States"}}, "player": {"id": 2354073, "gamerTag": "Bragmuffin", "prefix": "RAMS", "user": {"location": {"city": "Alpharetta", "state": "GA", "country": "United States"}}}}]}}, {"id": 36017199, "seedNum": 16, "entrant": {"id": 20875621, "name": "Mickeydeez", "participants": [{"id": 19208633, "gamerTag": "Mickeydeez", "prefix": "", "user": {"location": {"city": "Atlanta", "state": "GA", "country": "United States"}}, "player": {"id": 4825580, "gamerTag": "Mickeydeez", "prefix": "", "user": {"location": {"city": "Atlanta", "state": "GA", "country": "United States"}}}}]}}, {"id": 36008027, "seedNum": 2, "entrant": {"id": 20871402, "name": "ALLEYCAT", "participants": [{"id": 19205016, "gamerTag": "ALLEYCAT", "prefix": null, "user": {"location": {"city": "Atlanta", "state": "GA", "country": "United States"}}, "player": {"id": 1940654, "gamerTag": "ALLEYCAT", "prefix": "TFT", "user": {"location": {"city": "Atlanta", "state": "GA", "country": "United States"}}}}]}}, {"id": 36017406, "seedNum": 4, "entrant": {"id": 20875665, "name": "GUMP2 | RoKu", "participants": [{"id": 19208670, "gamerTag": "RoKu", "prefix": "GUMP2", "user": {"location": {"city": "Peachtree Corners", "state": "GA", "country": "United States"}}, "player": {"id": 1107285, "gamerTag": "RoKu", "prefix": "TFT", "user": {"location": {"city": "Peachtree Corners", "state": "GA", "country": "United States"}}}}]}}, {"id": 36010925, "seedNum": 18, "entrant": {"id": 20873197, "name": "Jahku$ha", "participants": [{"id": 19206676, "gamerTag": "Jahku$ha", "prefix": "", "user": {"location": {"city": "Atlanta", "state": "GA", "country": "United States"}}, "player": {"id": 4559746, "gamerTag": "Jahku$ha", "prefix": "", "user": {"location": {"city": "Atlanta", "state": "GA", "country": "United States"}}}}]}}, {"id": 35972598, "seedNum": 24, "entrant": {"id": 20849099, "name": "TFT | TFT - Guillotine", "participants": [{"id": 19185339, "gamerTag": "TFT - Guillotine", "prefix": "TFT", "user": {"location": {"city": "Atlanta", "state": "GA", "country": "United States"}}, "player": {"id": 4263821, "gamerTag": "TFT - Guillotine", "prefix": "TFT", "user": {"location": {"city": "Atlanta", "state": "GA", "country": "United States"}}}}]}}, {"id": 36013086, "seedNum": 11, "entrant": {"id": 20874673, "name": "TFT | Juug$tarr", "participants": [{"id": 19208002, "gamerTag": "Juug$tarr", "prefix": "TFT", "user": {"location": {"city": "Atlanta", "state": "GA", "country": "United States"}}, "player": {"id": 3621035, "gamerTag": "Juug$tarr", "prefix": "TFT", "user": {"location": {"city": "Atlanta", "state": "GA", "country": "United States"}}}}]}}, {"id": 36008286, "seedNum": 12, "entrant": {"id": 20871676, "name": "RM | WFF | Sakruoi", "participants": [{"id": 19205264, "gamerTag": "Sakruoi", "prefix": "RM | WFF", "user": {"location": {"city": "atlanta", "state": "GA", "country": "United States"}}, "player": {"id": 1230555, "gamerTag": "Sakruoi", "prefix": "RM | WFF", "user": {"location": {"city": "atlanta", "state": "GA", "country": "United States"}}}}]}}, {"id": 36014121, "seedNum": 19, "entrant": {"id": 20875419, "name": "Zarek", "participants": [{"id": 19208433, "gamerTag": "Zarek", "prefix": "", "user": {"location": {"city": "Atlanta", "state": "GA", "country": "United States"}}, "player": {"id": 405682, "gamerTag": "Zarek", "prefix": "", "user": {"location": {"city": "Atlanta", "state": "GA", "country": "United States"}}}}]}}, {"id": 36012788, "seedNum": 20, "entrant": {"id": 20874470, "name": "Nurikami", "participants": [{"id": 19207793, "gamerTag": "Nurikami", "prefix": null, "user": {"location": {"city": "Sandy Springs", "state": "GA", "country": "United States"}}, "player": {"id": 2894467, "gamerTag": "Nurikami", "prefix": null, "user": {"location": {"city": "Sandy Springs", "state": "GA", "country": "United States"}}}}]}}, {"id": 36017216, "seedNum": 21, "entrant": {"id": 20875634, "name": "millano", "participants": [{"id": 19208647, "gamerTag": "millano", "prefix": "", "user": null, "player": {"id": 4214682, "gamerTag": "millano", "prefix": "", "user": null}}]}}, {"id": 36017183, "seedNum": 22, "entrant": {"id": 20875605, "name": "TFT | yxngcyborg", "participants": [{"id": 19208622, "gamerTag": "yxngcyborg", "prefix": "TFT", "user": {"location": {"city": "Atlanta", "state": "GA", "country": "United States"}}, "player": {"id": 1751817, "gamerTag": "Ricky Rudd", "prefix": "TFT", "user": {"location": {"city": "Atlanta", "state": "GA", "country": "United States"}}}}]}}, {"id": 36017238, "seedNum": 23, "entrant": {"id": 20875656, "name": "TnT | annamation", "participants": [{"id": 19208662, "gamerTag": "annamation", "prefix": "TnT", "user": {"location": {"city": "Atlanta", "state": "GA", "country": "United States"}}, "player": {"id": 1699369, "gamerTag": "annamation", "prefix": "TnT", "user": {"location": {"city": "Atlanta", "state": "GA", "country": "United States"}}}}]}}, {"id": 36017218, "seedNum": 25, "entrant": {"id": 20875636, "name": "assclapFGC", "participants": [{"id": 19208649, "gamerTag": "assclapFGC", "prefix": "", "user": {"location": {"city": "Scottdale", "state": "GA", "country": "United States"}}, "player": {"id": 3481864, "gamerTag": "assclapFGC", "prefix": "", "user": {"location": {"city": "Scottdale", "state": "GA", "country": "United States"}}}}]}}, {"id": 36009048, "seedNum": 9, "entrant": {"id": 20872144, "name": "TFT | BigCheese", "participants": [{"id": 19205666, "gamerTag": "BigCheese", "prefix": "TFT", "user": {"location": {"city": null, "state": null, "country": null}}, "player": {"id": 3991446, "gamerTag": "BigCheese", "prefix": "TFT", "user": {"location": {"city": null, "state": null, "country": null}}}}]}}, {"id": 36016228, "seedNum": 26, "entrant": {"id": 20875448, "name": "KillerJoe", "participants": [{"id": 19208459, "gamerTag": "KillerJoe", "prefix": "", "user": {"location": {"city": "Atlanta", "state": "GA", "country": "United States"}}, "player": {"id": 4908903, "gamerTag": "KillerJoe", "prefix": "", "user": {"location": {"city": "Atlanta", "state": "GA", "country": "United States"}}}}]}}, {"id": 36017225, "seedNum": 27, "entrant": {"id": 20875646, "name": "Hollybot", "participants": [{"id": 19208655, "gamerTag": "Hollybot", "prefix": null, "user": {"location": {"city": "Atlanta", "state": "GA", "country": "United States"}}, "player": {"id": 4431125, "gamerTag": "Hollybot", "prefix": null, "user": {"location": {"city": "Atlanta", "state": "GA", "country": "United States"}}}}]}}, {"id": 36016368, "seedNum": 28, "entrant": {"id": 20875462, "name": "Kev", "participants": [{"id": 19208475, "gamerTag": "Kev", "prefix": "", "user": {"location": {"city": "Manhattan", "state": null, "country": "United States"}}, "player": {"id": 3824468, "gamerTag": "Kev", "prefix": "", "user": {"location": {"city": "Manhattan", "state": null, "country": "United States"}}}}]}}, {"id": 36010359, "seedNum": 29, "entrant": {"id": 20872818, "name": "Cash", "participants": [{"id": 19206335, "gamerTag": "Cash", "prefix": "", "user": {"location": {"city": "Atlanta", "state": "GA", "country": "United States"}}, "player": {"id": 4879701, "gamerTag": "Cash", "prefix": "", "user": {"location": {"city": "Atlanta", "state": "GA", "country": "United States"}}}}]}}, {"id": 36013260, "seedNum": 30, "entrant": {"id": 20874787, "name": "dalton0087", "participants": [{"id": 19208117, "gamerTag": "dalton0087", "prefix": "", "user": {"location": {"city": "atlanta", "state": "GA", "country": "United States"}}, "player": {"id": 4908853, "gamerTag": "dalton0087", "prefix": "", "user": {"location": {"city": "atlanta", "state": "GA", "country": "United States"}}}}]}}]}}}