{"event": {"sets": {"pageInfo": {"totalPages": 9, "total": 123}, "nodes": [{"id": 92091686, "state": 3, "round": -4, "fullRoundText": "Losers Round 2", "completedAt": 1754012821, "winnerId": 20852557, "slots": [{"id": "92091686-0", "entrant": {"id": 20851536, "name": "Trout~", "participants": [{"id": 19187652, "gamerTag": "Trout~", "prefix": "", "user": {"location": {"city": "Lawrenceville", "state": "GA", "country": "United States"}}, "player": {"id": 905410, "gamerTag": "Primary Trout~", "prefix": "", "user": {"location": {"city": "Lawrenceville", "state": "GA", "country": "United States"}}}}]}, "standing": {"placement": 2, "stats": {"score": {"value": 1}}}}, {"id": "92091686-1", "entrant": {"id": 20852557, "name": "GUMP2 | RoKu", "participants": [{"id": 19188665, "gamerTag": "RoKu", "prefix": "GUMP2", "user": {"location": {"city": "Peachtree Corners", "state": "GA", "country": "United States"}}, "player": {"id": 1107285, "gamerTag": "RoKu", "prefix": "TFT", "user": {"location": {"city": "Peachtree Corners", "state": "GA", "country": "United States"}}}}]}, "standing": {"placement": 1, "stats": {"score": {"value": 2}}}}], "games": null}, {"id": 92091687, "state": 3, "round": -4, "fullRoundText": "Losers Round 2", "completedAt": 1754013354, "winnerId": 20853422, "slots": [{"id": "92091687-0", "entrant": {"id": 20853422, "name": "WFF | Olive", "participants": [{"id": 19189439, "gamerTag": "Olive", "prefix": "WFF", "user": {"location": {"city": "Atlanta", "state": "GA", "country": "United States"}}, "player": {"id": 1810274, "gamerTag": "Planet Of Da", "prefix": "WeFarmFrank", "user": {"location": {"city": "Atlanta", "state": "GA", "country": "United States"}}}}]}, "standing": {"placement": 1, "stats": {"score": {"value": 2}}}}, {"id": "92091687-1", "entrant": {"id": 20853849, "name": "WFF | Minty", "participants": [{"id": 19189811, "gamerTag": "Minty", "prefix": "WFF", "user": {"location": {"city": "Atlanta", "state": "GA", "country": "United States"}}, "player": {"id": 1193981, "gamerTag": "Minty", "prefix": "WFF", "user": {"location": {"city": "Atlanta", "state": "GA", "country": "United States"}}}}]}, "standing": {"placement": 2, "stats": {"score": {"value": 1}}}}], "games": null}, {"id": 92091688, "state": 3, "round": -4, "fullRoundText": "Losers Round 2", "completedAt": 1754012761, "winnerId": 20845877, "slots": [{"id": "92091688-0", "entrant": {"id": 20845877, "name": "GUMP2 | STiCK", "participants": [{"id": 19182495, "gamerTag": "STiCK", "prefix": "GUMP2", "user": {"location": {"city": "Woodstock", "state": "GA", "country": "United States"}}, "player": {"id": 282674, "gamerTag": "STiCK", "prefix": "GUMP2", "user": {"location": {"city": "Woodstock", "state": "GA", "country": "United States"}}}}]}, "standing": {"placement": 1, "stats": {"score": {"value": 2}}}}, {"id": "92091688-1", "entrant": {"id": 20852120, "name": "carlop", "participants": [{"id": 19188228, "gamerTag": "carlop", "prefix": null, "user": {"location": {"city": "Johns Creek", "state": "GA", "country": "United States"}}, "player": {"id": 3431919, "gamerTag": "carlop", "prefix": null, "user": {"location": {"city": "Johns Creek", "state": "GA", "country": "United States"}}}}]}, "standing": {"placement": 2, "stats": {"score": {"value": 0}}}}], "games": null}, {"id": 92091689, "state": 3, "round": -4, "fullRoundText": "Losers Round 2", "completedAt": 1754013001, "winnerId": 20853564, "slots": [{"id": "92091689-0", "entrant": {"id": 20853564, "name": "ACE | Ace_CMH", "participants": [{"id": 19189571, "gamerTag": "Ace_CMH", "prefix": "ACE", "user": {"location": {"city": "Marietta", "state": "GA", "country": "United States"}}, "player": {"id": 1990149, "gamerTag": "Ace_CMH", "prefix": "ACE", "user": {"location": {"city": "Marietta", "state": "GA", "country": "United States"}}}}]}, "standing": {"placement": 1, "stats": {"score": {"value": 2}}}}, {"id": "92091689-1", "entrant": {"id": 20853661, "name": "lugardo", "participants": [{"id": 19189658, "gamerTag": "lugardo", "prefix": "", "user": {"location": {"city": null, "state": null, "country": "United States"}}, "player": {"id": 2690580, "gamerTag": "lugardo", "prefix": "", "user": {"location": {"city": null, "state": null, "country": "United States"}}}}]}, "standing": {"placement": 2, "stats": {"score": {"value": 0}}}}], "games": null}, {"id": 92091659, "state": 3, "round": -3, "fullRoundText": "Losers Round 1", "completedAt": 1754010114, "winnerId": 20853430, "slots": [{"id": "92091659-0", "entrant": {"id": 20853430, "name": "SamRice", "participants": [{"id": 19189446, "gamerTag": "SamRice", "prefix": "", "user": {"location": {"city": "Norcross", "state": "GA", "country": "United States"}}, "player": {"id": 2387403, "gamerTag": "SamRice", "prefix": "", "user": {"location": {"city": "Norcross", "state": "GA", "country": "United States"}}}}]}, "standing": {"placement": 1, "stats": {"score": {"value": 2}}}}, {"id": "92091659-1", "entrant": {"id": 20852847, "name": "Haps_idot", "participants": [{"id": 19188918, "gamerTag": "Haps_idot", "prefix": null, "user": {"location": {"city": "Atlanta", "state": "GA", "country": "United States"}}, "player": {"id": 3709056, "gamerTag": "Haps_idot", "prefix": null, "user": {"location": {"city": "Atlanta", "state": "GA", "country": "United States"}}}}]}, "standing": {"placement": 2, "stats": {"score": {"value": 1}}}}], "games": null}, {"id": 92091660, "state": 3, "round": -3, "fullRoundText": "Losers Round 1", "completedAt": 1754009646, "winnerId": 20853218, "slots": [{"id": "92091660-0", "entrant": {"id": 20854175, "name": "D.King79", "participants": [{"id": 19190083, "gamerTag": "D.King79", "prefix": null, "user": {"location": {"city": "Mt. Olympus", "state": "GA", "country": "United States"}}, "player": {"id": 534660, "gamerTag": "D.King79", "prefix": null, "user": {"location": {"city": "Mt. Olympus", "state": "GA", "country": "United States"}}}}]}, "standing": {"placement": 2, "stats": {"score": {"value": 0}}}}, {"id": "92091660-1", "entrant": {"id": 20853218, "name": "KSU | colorful\u029a\u025e", "participants": [{"id": 19189247, "gamerTag": "colorful\u029a\u025e", "prefix": "KSU", "user": {"location": {"city": "Kennesaw", "state": "GA", "country": "United States"}}, "player": {"id": 1783074, "gamerTag": "colorful\u029a\u025e", "prefix": "KSU | RM", "user": {"location": {"city": "Kennesaw", "state": "GA", "country": "United States"}}}}]}, "standing": {"placement": 1, "stats": {"score": {"value": 2}}}}], "games": null}, {"id": 92091661, "state": 3, "round": -3, "fullRoundText": "Losers Round 1", "completedAt": 1754010473, "winnerId": 20853043, "slots": [{"id": "92091661-0", "entrant": {"id": 20853570, "name": "Pleeploploop", "participants": [{"id": 19189578, "gamerTag": "Pleeploploop", "prefix": "", "user": {"location": {"city": "Snellville", "state": null, "country": "United States"}}, "player": {"id": 1739676, "gamerTag": "Pleeploploop", "prefix": "", "user": {"location": {"city": "Snellville", "state": null, "country": "United States"}}}}]}, "standing": {"placement": 2, "stats": {"score": {"value": 1}}}}, {"id": "92091661-1", "entrant": {"id": 20853043, "name": "Andromeda", "participants": [{"id": 19189082, "gamerTag": "Andromeda", "prefix": "", "user": {"location": {"city": "Columbus", "state": "GA", "country": "United States"}}, "player": {"id": 1458791, "gamerTag": "Andromeda", "prefix": "", "user": {"location": {"city": "Columbus", "state": "GA", "country": "United States"}}}}]}, "standing": {"placement": 1, "stats": {"score": {"value": 2}}}}], "games": null}, {"id": 92091662, "state": 3, "round": -3, "fullRoundText": "Losers Round 1", "completedAt": 1754010078, "winnerId": 20853659, "slots": [{"id": "92091662-0", "entrant": {"id": 20853127, "name": "Bwup", "participants": [{"id": 19189162, "gamerTag": "Bwup", "prefix": "", "user": {"location": {"city": null, "state": null, "country": "United States"}}, "player": {"id": 4903487, "gamerTag": "Bwup", "prefix": "", "user": {"location": {"city": null, "state": null, "country": "United States"}}}}]}, "standing": {"placement": 2, "stats": {"score": {"value": 0}}}}, {"id": "92091662-1", "entrant": {"id": 20853659, "name": "HelpMe", "participants": [{"id": 19189656, "gamerTag": "HelpMe", "prefix": null, "user": {"location": {"city": null, "state": "GA", "country": "United States"}}, "player": {"id": 1693617, "gamerTag": "HelpMe", "prefix": null, "user": {"location": {"city": null, "state": "GA", "country": "United States"}}}}]}, "standing": {"placement": 1, "stats": {"score": {"value": 2}}}}], "games": null}, {"id": 92091663, "state": 3, "round": -3, "fullRoundText": "Losers Round 1", "completedAt": 1754010023, "winnerId": 20853456, "slots": [{"id": "92091663-0", "entrant": {"id": 20851721, "name": "Raymond", "participants": [{"id": 19187834, "gamerTag": "Raymond", "prefix": "", "user": {"location": {"city": "Atlanta", "state": "GA", "country": "United States"}}, "player": {"id": 904449, "gamerTag": "Raymond", "prefix": "", "user": {"location": {"city": "Atlanta", "state": "GA", "country": "United States"}}}}]}, "standing": {"placement": 2, "stats": {"score": {"value": 0}}}}, {"id": "92091663-1", "entrant": {"id": 20853456, "name": "promamamia", "participants": [{"id": 19189473, "gamerTag": "promamamia", "prefix": "", "user": {"location": {"city": "Alpharetta", "state": "GA", "country": "United States"}}, "player": {"id": 3548468, "gamerTag": "promamamia", "prefix": "", "user": {"location": {"city": "Alpharetta", "state": "GA", "country": "United States"}}}}]}, "standing": {"placement": 1, "stats": {"score": {"value": 2}}}}], "games": [{"id": 31644979, "orderNum": 1, "winnerId": 20853456, "entrant1Score": 0, "entrant2Score": null, "stage": null, "selections": [{"id": 46586471, "selectionType": "CHARACTER", "selectionValue": 1326, "entrant": {"id": 20851721}, "character": {"id": 1326, "name": "Roy"}}, {"id": 46586472, "selectionType": "CHARACTER", "selectionValue": 1326, "entrant": {"id": 20853456}, "character": {"id": 1326, "name": "Roy"}}]}, {"id": 31644980, "orderNum": 2, "winnerId": 20853456, "entrant1Score": 0, "entrant2Score": null, "stage": null, "selections": [{"id": 46586473, "selectionType": "CHARACTER", "selectionValue": 1301, "entrant": {"id": 20851721}, "character": {"id": 1301, "name": "Luigi"}}, {"id": 46586474, "selectionType": "CHARACTER", "selectionValue": 1326, "entrant": {"id": 20853456}, "character": {"id": 1326, "name": "Roy"}}]}]}, {"id": 92091664, "state": 3, "round": -3, "fullRoundText": "Losers Round 1", "completedAt": 1754010185, "winnerId": 20853465, "slots": [{"id": "92091664-0", "entrant": {"id": 20853877, "name": "AjaxAnonymous", "participants": [{"id": 19189838, "gamerTag": "AjaxAnonymous", "prefix": null, "user": {"location": {"city": "Atlanta", "state": "GA", "country": "United States"}}, "player": {"id": 4308428, "gamerTag": "AjaxAnonymous", "prefix": null, "user": {"location": {"city": "Atlanta", "state": "GA", "country": "United States"}}}}]}, "standing": {"placement": 2, "stats": {"score": {"value": 0}}}}, {"id": "92091664-1", "entrant": {"id": 20853465, "name": "EdgyKnight", "participants": [{"id": 19189481, "gamerTag": "EdgyKnight", "prefix": "", "user": {"location": {"city": "Snellvile", "state": "GA", "country": "United States"}}, "player": {"id": 367828, "gamerTag": "EdgyKnight", "prefix": "", "user": {"location": {"city": "Snellvile", "state": "GA", "country": "United States"}}}}]}, "standing": {"placement": 1, "stats": {"score": {"value": 2}}}}], "games": null}, {"id": 92091665, "state": 3, "round": -3, "fullRoundText": "Losers Round 1", "completedAt": 1754010530, "winnerId": 20852390, "slots": [{"id": "92091665-0", "entrant": {"id": 20852390, "name": "Nikol", "participants": [{"id": 19188499, "gamerTag": "Nikol", "prefix": "", "user": {"location": {"city": "Stockbridge", "state": "GA", "country": "United States"}}, "player": {"id": 2152846, "gamerTag": "Nikol", "prefix": "", "user": {"location": {"city": "Stockbridge", "state": "GA", "country": "United States"}}}}]}, "standing": {"placement": 1, "stats": {"score": {"value": 2}}}}, {"id": "92091665-1", "entrant": {"id": 20852392, "name": "Chrysalis", "participants": [{"id": 19188501, "gamerTag": "Chrysalis", "prefix": "", "user": {"location": {"city": "Cartersville", "state": "GA", "country": "United States"}}, "player": {"id": 1512632, "gamerTag": "Chrysalis", "prefix": "", "user": {"location": {"city": "Cartersville", "state": "GA", "country": "United States"}}}}]}, "standing": {"placement": 2, "stats": {"score": {"value": 0}}}}], "games": null}, {"id": 92091667, "state": 3, "round": -3, "fullRoundText": "Losers Round 1", "completedAt": 1754011196, "winnerId": 20854027, "slots": [{"id": "92091667-0", "entrant": {"id": 20853435, "name": "Par-i-dot Alpha", "participants": [{"id": 19189451, "gamerTag": "Par-i-dot Alpha", "prefix": "", "user": {"location": {"city": "Lithoina", "state": "GA", "country": "United States"}}, "player": {"id": 36418, "gamerTag": "Avalon", "prefix": "", "user": {"location": {"city": "Lithoina", "state": "GA", "country": "United States"}}}}]}, "standing": {"placement": 2, "stats": {"score": {"value": 0}}}}, {"id": "92091667-1", "entrant": {"id": 20854027, "name": "4o4 | Sh33rZ", "participants": [{"id": 19189967, "gamerTag": "Sh33rZ", "prefix": "4o4", "user": {"location": {"city": "alpharetta", "state": "GA", "country": "United States"}}, "player": {"id": 3640465, "gamerTag": "Sh33rZ", "prefix": "4o4", "user": {"location": {"city": "alpharetta", "state": "GA", "country": "United States"}}}}]}, "standing": {"placement": 1, "stats": {"score": {"value": 2}}}}], "games": null}, {"id": 92091668, "state": 3, "round": -3, "fullRoundText": "Losers Round 1", "completedAt": 1754010700, "winnerId": 20853362, "slots": [{"id": "92091668-0", "entrant": {"id": 20852443, "name": "V$ | EdiblePine", "participants": [{"id": 19188552, "gamerTag": "EdiblePine", "prefix": "V$", "user": {"location": {"city": "Atlanta", "state": "GA", "country": "United States"}}, "player": {"id": 1648278, "gamerTag": "EdiblePine", "prefix": "AP", "user": {"location": {"city": "Atlanta", "state": "GA", "country": "United States"}}}}]}, "standing": {"placement": 2, "stats": {"score": {"value": 0}}}}, {"id": "92091668-1", "entrant": {"id": 20853362, "name": "KSU | Subzero", "participants": [{"id": 19189383, "gamerTag": "Subzero", "prefix": "KSU", "user": {"location": {"city": "Acworth", "state": "GA", "country": "United States"}}, "player": {"id": 1808159, "gamerTag": "Subzero", "prefix": "KSU", "user": {"location": {"city": "Acworth", "state": "GA", "country": "United States"}}}}]}, "standing": {"placement": 1, "stats": {"score": {"value": 2}}}}], "games": null}, {"id": 92091669, "state": 3, "round": -3, "fullRoundText": "Losers Round 1", "completedAt": 1754011131, "winnerId": 20853419, "slots": [{"id": "92091669-0", "entrant": {"id": 20853367, "name": "MTM | Mishmash", "participants": [{"id": 19189388, "gamerTag": "Mishmash", "prefix": "MTM", "user": {"location": {"city": "Cartersville", "state": "GA", "country": "United States"}}, "player": {"id": 4104907, "gamerTag": "Mishmash", "prefix": "MTM", "user": {"location": {"city": "Cartersville", "state": "GA", "country": "United States"}}}}]}, "standing": {"placement": 2, "stats": {"score": {"value": 1}}}}, {"id": "92091669-1", "entrant": {"id": 20853419, "name": "RM | WFF | Sakruoi", "participants": [{"id": 19189435, "gamerTag": "Sakruoi", "prefix": "RM | WFF", "user": {"location": {"city": "atlanta", "state": "GA", "country": "United States"}}, "player": {"id": 1230555, "gamerTag": "Sakruoi", "prefix": "RM | WFF", "user": {"location": {"city": "atlanta", "state": "GA", "country": "United States"}}}}]}, "standing": {"placement": 1, "stats": {"score": {"value": 2}}}}], "games": null}, {"id": 92091670, "state": 3, "round": -3, "fullRoundText": "Losers Round 1", "completedAt": 1754010726, "winnerId": 20852557, "slots": [{"id": "92091670-0", "entrant": {"id": 20853159, "name": "Trap", "participants": [{"id": 19189192, "gamerTag": "Trap", "prefix": "", "user": {"location": {"city": null, "state": null, "country": "United States"}}, "player": {"id": 4903493, "gamerTag": "Trap", "prefix": "", "user": {"location": {"city": null, "state": null, "country": "United States"}}}}]}, "standing": {"placement": 2, "stats": {"score": {"value": 0}}}}, {"id": "92091670-1", "entrant": {"id": 20852557, "name": "GUMP2 | RoKu", "participants": [{"id": 19188665, "gamerTag": "RoKu", "prefix": "GUMP2", "user": {"location": {"city": "Peachtree Corners", "state": "GA", "country": "United States"}}, "player": {"id": 1107285, "gamerTag": "RoKu", "prefix": "TFT", "user": {"location": {"city": "Peachtree Corners", "state": "GA", "country": "United States"}}}}]}, "standing": {"placement": 1, "stats": {"score": {"value": 2}}}}], "games": null}]}}}