{"event": {"sets": {"pageInfo": {"totalPages": 6, "total": 81}, "nodes": [{"id": 93348571, "state": 3, "round": 3, "fullRoundText": "Winners Round 3", "completedAt": 1756670656, "winnerId": 21075375, "slots": [{"id": "93348571-0", "entrant": {"id": 21004193, "name": "GUMP2 | ToxiC", "participants": [{"id": 19321851, "gamerTag": "ToxiC", "prefix": "GUMP2", "user": {"location": {"city": "Marietta", "state": "GA", "country": "United States"}}, "player": {"id": 2585804, "gamerTag": "ToxiC", "prefix": "GUMP2", "user": {"location": {"city": "Marietta", "state": "GA", "country": "United States"}}}}]}, "standing": {"placement": 2, "stats": {"score": {"value": 0}}}}, {"id": "93348571-1", "entrant": {"id": 21075375, "name": "V2Kwame", "participants": [{"id": 19386189, "gamerTag": "V2Kwame", "prefix": "", "user": {"location": {"city": "Dallas", "state": "GA", "country": "United States"}}, "player": {"id": 2764337, "gamerTag": "V2Kwame", "prefix": "", "user": {"location": {"city": "Dallas", "state": "GA", "country": "United States"}}}}]}, "standing": {"placement": 1, "stats": {"score": {"value": 2}}}}], "games": [{"id": 32288923, "orderNum": 1, "winnerId": 21075375, "entrant1Score": 0, "entrant2Score": null, "stage": null, "selections": [{"id": 47591634, "selectionType": "CHARACTER", "selectionValue": 1795, "entrant": {"id": 21004193}, "character": {"id": 1795, "name": "Pyra & Mythra"}}, {"id": 47591635, "selectionType": "CHARACTER", "selectionValue": 1290, "entrant": {"id": 21075375}, "character": {"id": 1290, "name": "Ice Climbers"}}]}, {"id": 32288924, "orderNum": 2, "winnerId": 21075375, "entrant1Score": 0, "entrant2Score": null, "stage": null, "selections": [{"id": 47591636, "selectionType": "CHARACTER", "selectionValue": 1313, "entrant": {"id": 21004193}, "character": {"id": 1313, "name": "Ness"}}, {"id": 47591637, "selectionType": "CHARACTER", "selectionValue": 1290, "entrant": {"id": 21075375}, "character": {"id": 1290, "name": "Ice Climbers"}}]}]}, {"id": 93348692, "state": 3, "round": -6, "fullRoundText": "Losers Round 3", "completedAt": 1756673329, "winnerId": 21089045, "slots": [{"id": "93348692-0", "entrant": {"id": 21089045, "name": "KSU | Subzero", "participants": [{"id": 19398545, "gamerTag": "Subzero", "prefix": "KSU", "user": {"location": {"city": "Acworth", "state": "GA", "country": "United States"}}, "player": {"id": 1808159, "gamerTag": "Subzero", "prefix": "KSU", "user": {"location": {"city": "Acworth", "state": "GA", "country": "United States"}}}}]}, "standing": {"placement": 1, "stats": {"score": {"value": 2}}}}, {"id": "93348692-1", "entrant": {"id": 21040481, "name": "Readymade", "participants": [{"id": 19354950, "gamerTag": "Readymade", "prefix": "", "user": {"location": {"city": null, "state": null, "country": "United States"}}, "player": {"id": 4934887, "gamerTag": "Readymade", "prefix": "", "user": {"location": {"city": null, "state": null, "country": "United States"}}}}]}, "standing": {"placement": 2, "stats": {"score": {"value": 1}}}}], "games": null}, {"id": 93348693, "state": 3, "round": -6, "fullRoundText": "Losers Round 3", "completedAt": 1756672220, "winnerId": 21061138, "slots": [{"id": "93348693-0", "entrant": {"id": 21061138, "name": "CHEESE", "participants": [{"id": 19373326, "gamerTag": "CHEESE", "prefix": null, "user": {"location": {"city": "Buford", "state": "GA", "country": "United States"}}, "player": {"id": 3429754, "gamerTag": "CHEESE", "prefix": null, "user": {"location": {"city": "Buford", "state": "GA", "country": "United States"}}}}]}, "standing": {"placement": 1, "stats": {"score": {"value": 2}}}}, {"id": "93348693-1", "entrant": {"id": 21125677, "name": "jack | jazzman", "participants": [{"id": 19431436, "gamerTag": "jazzman", "prefix": "jack", "user": {"location": {"city": "Athens", "state": "GA", "country": "United States"}}, "player": {"id": 3883272, "gamerTag": "jazzman", "prefix": "jack", "user": {"location": {"city": "Athens", "state": "GA", "country": "United States"}}}}]}, "standing": {"placement": 2, "stats": {"score": {"value": 0}}}}], "games": null}, {"id": 93348694, "state": 3, "round": -6, "fullRoundText": "Losers Round 3", "completedAt": 1756671857, "winnerId": 21031217, "slots": [{"id": "93348694-0", "entrant": {"id": 21128843, "name": "MONEY | ImNoPro", "participants": [{"id": 19434629, "gamerTag": "ImNoPro", "prefix": "MONEY", "user": {"location": {"city": "Calhoun", "state": "GA", "country": "United States"}}, "player": {"id": 2149803, "gamerTag": "ImNoPro", "prefix": "MONEY", "user": {"location": {"city": "Calhoun", "state": "GA", "country": "United States"}}}}]}, "standing": {"placement": 2, "stats": {"score": {"value": 1}}}}, {"id": "93348694-1", "entrant": {"id": 21031217, "name": "promamamia", "participants": [{"id": 19346365, "gamerTag": "promamamia", "prefix": "", "user": {"location": {"city": "Alpharetta", "state": "GA", "country": "United States"}}, "player": {"id": 3548468, "gamerTag": "promamamia", "prefix": "", "user": {"location": {"city": "Alpharetta", "state": "GA", "country": "United States"}}}}]}, "standing": {"placement": 1, "stats": {"score": {"value": 2}}}}], "games": [{"id": 32289522, "orderNum": 1, "winnerId": 21031217, "entrant1Score": 0, "entrant2Score": null, "stage": null, "selections": [{"id": 47592523, "selectionType": "CHARACTER", "selectionValue": 1326, "entrant": {"id": 21031217}, "character": {"id": 1326, "name": "Roy"}}, {"id": 47592524, "selectionType": "CHARACTER", "selectionValue": 1275, "entrant": {"id": 21128843}, "character": {"id": 1275, "name": "Cloud"}}]}, {"id": 32289523, "orderNum": 2, "winnerId": 21128843, "entrant1Score": null, "entrant2Score": 0, "stage": null, "selections": [{"id": 47592525, "selectionType": "CHARACTER", "selectionValue": 1326, "entrant": {"id": 21031217}, "character": {"id": 1326, "name": "Roy"}}, {"id": 47592526, "selectionType": "CHARACTER", "selectionValue": 1275, "entrant": {"id": 21128843}, "character": {"id": 1275, "name": "Cloud"}}]}, {"id": 32289524, "orderNum": 3, "winnerId": 21031217, "entrant1Score": 0, "entrant2Score": null, "stage": null, "selections": [{"id": 47592527, "selectionType": "CHARACTER", "selectionValue": 1326, "entrant": {"id": 21031217}, "character": {"id": 1326, "name": "Roy"}}, {"id": 47592528, "selectionType": "CHARACTER", "selectionValue": 1275, "entrant": {"id": 21128843}, "character": {"id": 1275, "name": "Cloud"}}]}]}, {"id": 93348695, "state": 3, "round": -6, "fullRoundText": "Losers Round 3", "completedAt": 1756672423, "winnerId": 21004193, "slots": [{"id": "93348695-0", "entrant": {"id": 21004193, "name": "GUMP2 | ToxiC", "participants": [{"id": 19321851, "gamerTag": "ToxiC", "prefix": "GUMP2", "user": {"location": {"city": "Marietta", "state": "GA", "country": "United States"}}, "player": {"id": 2585804, "gamerTag": "ToxiC", "prefix": "GUMP2", "user": {"location": {"city": "Marietta", "state": "GA", "country": "United States"}}}}]}, "standing": {"placement": 1, "stats": {"score": {"value": 2}}}}, {"id": "93348695-1", "entrant": {"id": 21073526, "name": "Mavis", "participants": [{"id": 19384646, "gamerTag": "Mavis", "prefix": "", "user": {"location": {"city": null, "state": "GA", "country": "United States"}}, "player": {"id": 1666352, "gamerTag": "Mavis", "prefix": "", "user": {"location": {"city": null, "state": "GA", "country": "United States"}}}}]}, "standing": {"placement": 2, "stats": {"score": {"value": 0}}}}], "games": [{"id": 32289743, "orderNum": 1, "winnerId": 21004193, "entrant1Score": null, "entrant2Score": 0, "stage": null, "selections": [{"id": 47592880, "selectionType": "CHARACTER", "selectionValue": 1313, "entrant": {"id": 21004193}, "character": {"id": 1313, "name": "Ness"}}, {"id": 47592881, "selectionType": "CHARACTER", "selectionValue": 1297, "entrant": {"id": 21073526}, "character": {"id": 1297, "name": "Little Mac"}}]}, {"id": 32289744, "orderNum": 2, "winnerId": 21004193, "entrant1Score": null, "entrant2Score": 0, "stage": null, "selections": [{"id": 47592882, "selectionType": "CHARACTER", "selectionValue": 1313, "entrant": {"id": 21004193}, "character": {"id": 1313, "name": "Ness"}}, {"id": 47592883, "selectionType": "CHARACTER", "selectionValue": 1297, "entrant": {"id": 21073526}, "character": {"id": 1297, "name": "Little Mac"}}]}]}, {"id": 93348696, "state": 3, "round": -6, "fullRoundText": "Losers Round 3", "completedAt": 1756672353, "winnerId": 21040401, "slots": [{"id": "93348696-0", "entrant": {"id": 21040401, "name": "RM | PrincePeach", "participants": [{"id": 19354876, "gamerTag": "PrincePeach", "prefix": "RM", "user": {"location": {"city": "Stone Mountain", "state": "GA", "country": "United States"}}, "player": {"id": 3003562, "gamerTag": "Prince Peach", "prefix": "RM", "user": {"location": {"city": "Stone Mountain", "state": "GA", "country": "United States"}}}}]}, "standing": {"placement": 1, "stats": {"score": {"value": 2}}}}, {"id": "93348696-1", "entrant": {"id": 21126423, "name": "Vertebrae", "participants": [{"id": 19432167, "gamerTag": "Vertebrae", "prefix": "", "user": {"location": {"city": "Athens", "state": "GA", "country": "United States"}}, "player": {"id": 1583946, "gamerTag": "Vertebrae", "prefix": "CC", "user": {"location": {"city": "Athens", "state": "GA", "country": "United States"}}}}]}, "standing": {"placement": 2, "stats": {"score": {"value": 0}}}}], "games": null}, {"id": 93348697, "state": 3, "round": -6, "fullRoundText": "Losers Round 3", "completedAt": 1756672446, "winnerId": 21040545, "slots": [{"id": "93348697-0", "entrant": {"id": 21040545, "name": "SaggyMilkJug", "participants": [{"id": 19355012, "gamerTag": "SaggyMilkJug", "prefix": "", "user": {"location": {"city": "Atlanta", "state": "GA", "country": "United States"}}, "player": {"id": 4651404, "gamerTag": "SaggyMilkJug", "prefix": "", "user": {"location": {"city": "Atlanta", "state": "GA", "country": "United States"}}}}]}, "standing": {"placement": 1, "stats": {"score": {"value": 2}}}}, {"id": "93348697-1", "entrant": {"id": 21040399, "name": "KSU | MikePTM", "participants": [{"id": 19354874, "gamerTag": "MikePTM", "prefix": "KSU", "user": {"location": {"city": null, "state": null, "country": "United States"}}, "player": {"id": 3586658, "gamerTag": "MikePTM", "prefix": "KSU", "user": {"location": {"city": null, "state": null, "country": "United States"}}}}]}, "standing": {"placement": 2, "stats": {"score": {"value": 0}}}}], "games": null}, {"id": 93348698, "state": 3, "round": -6, "fullRoundText": "Losers Round 3", "completedAt": 1756671748, "winnerId": 21004884, "slots": [{"id": "93348698-0", "entrant": {"id": 21004884, "name": "KSU | colorful\u029a\u025e", "participants": [{"id": 19322534, "gamerTag": "colorful\u029a\u025e", "prefix": "KSU", "user": {"location": {"city": "Kennesaw", "state": "GA", "country": "United States"}}, "player": {"id": 1783074, "gamerTag": "colorful\u029a\u025e", "prefix": "KSU | RM", "user": {"location": {"city": "Kennesaw", "state": "GA", "country": "United States"}}}}]}, "standing": {"placement": 1, "stats": {"score": {"value": 2}}}}, {"id": "93348698-1", "entrant": {"id": 21085466, "name": "PlexiTier", "participants": [{"id": 19395365, "gamerTag": "PlexiTier", "prefix": "", "user": {"location": {"city": "Hampton", "state": "GA", "country": "United States"}}, "player": {"id": 1807346, "gamerTag": "PlexiTier", "prefix": "", "user": {"location": {"city": "Hampton", "state": "GA", "country": "United States"}}}}]}, "standing": {"placement": 2, "stats": {"score": {"value": 0}}}}], "games": [{"id": 32289473, "orderNum": 1, "winnerId": 21004884, "entrant1Score": null, "entrant2Score": 0, "stage": null, "selections": [{"id": 47592446, "selectionType": "CHARACTER", "selectionValue": 1275, "entrant": {"id": 21004884}, "character": {"id": 1275, "name": "Cloud"}}, {"id": 47592447, "selectionType": "CHARACTER", "selectionValue": 1795, "entrant": {"id": 21085466}, "character": {"id": 1795, "name": "Pyra & Mythra"}}]}, {"id": 32289474, "orderNum": 2, "winnerId": 21004884, "entrant1Score": null, "entrant2Score": 0, "stage": null, "selections": [{"id": 47592448, "selectionType": "CHARACTER", "selectionValue": 1275, "entrant": {"id": 21004884}, "character": {"id": 1275, "name": "Cloud"}}, {"id": 47592449, "selectionType": "CHARACTER", "selectionValue": 1795, "entrant": {"id": 21085466}, "character": {"id": 1795, "name": "Pyra & Mythra"}}]}]}, {"id": 93348699, "state": 3, "round": -6, "fullRoundText": "Losers Round 3", "completedAt": 1756673233, "winnerId": 21125670, "slots": [{"id": "93348699-0", "entrant": {"id": 21125670, "name": "Omar", "participants": [{"id": 19431429, "gamerTag": "Omar", "prefix": "", "user": {"location": {"city": null, "state": "GA", "country": "United States"}}, "player": {"id": 4300029, "gamerTag": "Omar", "prefix": "", "user": {"location": {"city": null, "state": "GA", "country": "United States"}}}}]}, "standing": {"placement": 1, "stats": {"score": {"value": 2}}}}, {"id": "93348699-1", "entrant": {"id": 21129665, "name": "LostCause919", "participants": [{"id": 19435319, "gamerTag": "LostCause919", "prefix": "", "user": {"location": {"city": null, "state": "GA", "country": "United States"}}, "player": {"id": 4950961, "gamerTag": "LostCause919", "prefix": "", "user": {"location": {"city": null, "state": "GA", "country": "United States"}}}}]}, "standing": {"placement": 2, "stats": {"score": {"value": 1}}}}], "games": null}, {"id": 93348684, "state": 3, "round": -5, "fullRoundText": "Losers Round 2", "completedAt": 1756671841, "winnerId": 21040481, "slots": [{"id": "93348684-0", "entrant": {"id": 21068405, "name": "Kori", "participants": [{"id": 19379961, "gamerTag": "Kori", "prefix": "", "user": {"location": {"city": "", "state": "GA", "country": "United States"}}, "player": {"id": 2030915, "gamerTag": "Kori", "prefix": "", "user": {"location": {"city": "", "state": "GA", "country": "United States"}}}}]}, "standing": {"placement": 2, "stats": {"score": {"value": 1}}}}, {"id": "93348684-1", "entrant": {"id": 21040481, "name": "Readymade", "participants": [{"id": 19354950, "gamerTag": "Readymade", "prefix": "", "user": {"location": {"city": null, "state": null, "country": "United States"}}, "player": {"id": 4934887, "gamerTag": "Readymade", "prefix": "", "user": {"location": {"city": null, "state": null, "country": "United States"}}}}]}, "standing": {"placement": 1, "stats": {"score": {"value": 2}}}}], "games": null}, {"id": 93348685, "state": 3, "round": -5, "fullRoundText": "Losers Round 2", "completedAt": 1756671568, "winnerId": 21125677, "slots": [{"id": "93348685-0", "entrant": {"id": 21125677, "name": "jack | jazzman", "participants": [{"id": 19431436, "gamerTag": "jazzman", "prefix": "jack", "user": {"location": {"city": "Athens", "state": "GA", "country": "United States"}}, "player": {"id": 3883272, "gamerTag": "jazzman", "prefix": "jack", "user": {"location": {"city": "Athens", "state": "GA", "country": "United States"}}}}]}, "standing": {"placement": 1, "stats": {"score": {"value": 2}}}}, {"id": "93348685-1", "entrant": {"id": 21125432, "name": "E | Turtle_", "participants": [{"id": 19431208, "gamerTag": "Turtle_", "prefix": "E", "user": {"location": {"city": "Atlanta", "state": "GA", "country": "United States"}}, "player": {"id": 2722036, "gamerTag": "Turtle_", "prefix": "E", "user": {"location": {"city": "Atlanta", "state": "GA", "country": "United States"}}}}]}, "standing": {"placement": 2, "stats": {"score": {"value": 0}}}}], "games": null}, {"id": 93348686, "state": 3, "round": -5, "fullRoundText": "Losers Round 2", "completedAt": 1756671045, "winnerId": 21031217, "slots": [{"id": "93348686-0", "entrant": {"id": 21031217, "name": "promamamia", "participants": [{"id": 19346365, "gamerTag": "promamamia", "prefix": "", "user": {"location": {"city": "Alpharetta", "state": "GA", "country": "United States"}}, "player": {"id": 3548468, "gamerTag": "promamamia", "prefix": "", "user": {"location": {"city": "Alpharetta", "state": "GA", "country": "United States"}}}}]}, "standing": {"placement": 1, "stats": {"score": {"value": 2}}}}, {"id": "93348686-1", "entrant": {"id": 21045139, "name": "Dusk_", "participants": [{"id": 19359311, "gamerTag": "Dusk_", "prefix": null, "user": {"location": {"city": "Atlanta", "state": "GA", "country": "United States"}}, "player": {"id": 2095313, "gamerTag": "Dusk_", "prefix": null, "user": {"location": {"city": "Atlanta", "state": "GA", "country": "United States"}}}}]}, "standing": {"placement": 2, "stats": {"score": {"value": 0}}}}], "games": null}, {"id": 93348687, "state": 3, "round": -5, "fullRoundText": "Losers Round 2", "completedAt": 1756671061, "winnerId": 21073526, "slots": [{"id": "93348687-0", "entrant": {"id": 21073526, "name": "Mavis", "participants": [{"id": 19384646, "gamerTag": "Mavis", "prefix": "", "user": {"location": {"city": null, "state": "GA", "country": "United States"}}, "player": {"id": 1666352, "gamerTag": "Mavis", "prefix": "", "user": {"location": {"city": null, "state": "GA", "country": "United States"}}}}]}, "standing": {"placement": 1, "stats": {"score": {"value": 2}}}}, {"id": "93348687-1", "entrant": {"id": 21029806, "name": "Stock Stealers | T.K.O", "participants": [{"id": 19345067, "gamerTag": "T.K.O", "prefix": "Stock Stealers", "user": {"location": {"city": "Smyrna", "state": "GA", "country": "United States"}}, "player": {"id": 4933114, "gamerTag": "T.K.O", "prefix": "Stock Stealer", "user": {"location": {"city": "Smyrna", "state": "GA", "country": "United States"}}}}]}, "standing": {"placement": 2, "stats": {"score": {"value": 1}}}}], "games": null}, {"id": 93348688, "state": 3, "round": -5, "fullRoundText": "Losers Round 2", "completedAt": 1756671640, "winnerId": 21126423, "slots": [{"id": "93348688-0", "entrant": {"id": 21126423, "name": "Vertebrae", "participants": [{"id": 19432167, "gamerTag": "Vertebrae", "prefix": "", "user": {"location": {"city": "Athens", "state": "GA", "country": "United States"}}, "player": {"id": 1583946, "gamerTag": "Vertebrae", "prefix": "CC", "user": {"location": {"city": "Athens", "state": "GA", "country": "United States"}}}}]}, "standing": {"placement": 1, "stats": {"score": {"value": 2}}}}, {"id": "93348688-1", "entrant": {"id": 21129651, "name": "Infinite_Radiance", "participants": [{"id": 19435305, "gamerTag": "Infinite_Radiance", "prefix": "", "user": {"location": {"city": null, "state": "GA", "country": "United States"}}, "player": {"id": 4926508, "gamerTag": "Infinite_Radiance", "prefix": "CC UGA", "user": {"location": {"city": null, "state": "GA", "country": "United States"}}}}]}, "standing": {"placement": 2, "stats": {"score": {"value": 0}}}}], "games": null}, {"id": 93348689, "state": 3, "round": -5, "fullRoundText": "Losers Round 2", "completedAt": 1756672031, "winnerId": 21040399, "slots": [{"id": "93348689-0", "entrant": {"id": 21040399, "name": "KSU | MikePTM", "participants": [{"id": 19354874, "gamerTag": "MikePTM", "prefix": "KSU", "user": {"location": {"city": null, "state": null, "country": "United States"}}, "player": {"id": 3586658, "gamerTag": "MikePTM", "prefix": "KSU", "user": {"location": {"city": null, "state": null, "country": "United States"}}}}]}, "standing": {"placement": 1, "stats": {"score": {"value": 2}}}}, {"id": "93348689-1", "entrant": {"id": 21125552, "name": "Smash | S0UND4", "participants": [{"id": 19431313, "gamerTag": "S0UND4", "prefix": "Smash", "user": {"location": {"city": null, "state": null, "country": "Georgia"}}, "player": {"id": 4949248, "gamerTag": "S0UND4", "prefix": "Smash", "user": {"location": {"city": null, "state": null, "country": "Georgia"}}}}]}, "standing": {"placement": 2, "stats": {"score": {"value": 1}}}}], "games": null}]}}}