{"event": {"sets": {"pageInfo": {"totalPages": 2, "total": 28}, "nodes": [{"id": 93581159, "state": 3, "round": 4, "fullRoundText": "Round 4", "completedAt": 1757207934, "winnerId": 21189174, "slots": [{"id": "93581159-0", "entrant": {"id": 20964178, "name": "ddogg26", "participants": [{"id": 19286455, "gamerTag": "ddogg26", "prefix": "", "user": {"location": {"city": null, "state": null, "country": "United States"}}, "player": {"id": 3859990, "gamerTag": "ddogg26", "prefix": "", "user": {"location": {"city": null, "state": null, "country": "United States"}}}}]}, "standing": {"placement": 2, "stats": {"score": {"value": 0}}}}, {"id": "93581159-1", "entrant": {"id": 21189174, "name": "AshNoJoy", "participants": [{"id": 19487264, "gamerTag": "AshNoJoy", "prefix": "", "user": {"location": {"city": "Phenix City", "state": "AL", "country": "United States"}}, "player": {"id": 3141674, "gamerTag": "AshNoJoy", "prefix": "", "user": {"location": {"city": "Phenix City", "state": "AL", "country": "United States"}}}}]}, "standing": {"placement": 1, "stats": {"score": {"value": 3}}}}], "games": null}, {"id": 93581152, "state": 3, "round": 3, "fullRoundText": "Round 3", "completedAt": 1757205181, "winnerId": 21036116, "slots": [{"id": "93581152-0", "entrant": {"id": 21036116, "name": "Maverick", "participants": [{"id": 19350925, "gamerTag": "Maverick", "prefix": "", "user": {"location": {"city": "Columbus", "state": "GA", "country": "United States"}}, "player": {"id": 1058777, "gamerTag": "Maverick", "prefix": "", "user": {"location": {"city": "Columbus", "state": "GA", "country": "United States"}}}}]}, "standing": {"placement": 1, "stats": {"score": {"value": 3}}}}, {"id": "93581152-1", "entrant": {"id": 20876328, "name": "Ashm | Cryptonite", "participants": [{"id": 19209286, "gamerTag": "Cryptonite", "prefix": "Ashm", "user": {"location": {"city": "Hamilton", "state": "GA", "country": "United States"}}, "player": {"id": 2300323, "gamerTag": "Cryptonite", "prefix": "Ashm", "user": {"location": {"city": "Hamilton", "state": "GA", "country": "United States"}}}}]}, "standing": {"placement": 2, "stats": {"score": {"value": 2}}}}], "games": null}, {"id": 93581153, "state": 3, "round": 3, "fullRoundText": "Round 3", "completedAt": 1757209117, "winnerId": 20963246, "slots": [{"id": "93581153-0", "entrant": {"id": 20963246, "name": "CSU | OfficeWalrus", "participants": [{"id": 19285797, "gamerTag": "OfficeWalrus", "prefix": "CSU", "user": {"location": {"city": "Columbus", "state": "GA", "country": "United States"}}, "player": {"id": 3860050, "gamerTag": "OfficeWalrus", "prefix": "CSU", "user": {"location": {"city": "Columbus", "state": "GA", "country": "United States"}}}}]}, "standing": {"placement": 1, "stats": {"score": {"value": 3}}}}, {"id": "93581153-1", "entrant": {"id": 21182377, "name": "Andromeda", "participants": [{"id": 19481714, "gamerTag": "Andromeda", "prefix": "", "user": {"location": {"city": "Columbus", "state": "GA", "country": "United States"}}, "player": {"id": 1458791, "gamerTag": "Andromeda", "prefix": "", "user": {"location": {"city": "Columbus", "state": "GA", "country": "United States"}}}}]}, "standing": {"placement": 2, "stats": {"score": {"value": 2}}}}], "games": null}, {"id": 93581154, "state": 3, "round": 3, "fullRoundText": "Round 3", "completedAt": 1757200749, "winnerId": 21125906, "slots": [{"id": "93581154-0", "entrant": {"id": 20964178, "name": "ddogg26", "participants": [{"id": 19286455, "gamerTag": "ddogg26", "prefix": "", "user": {"location": {"city": null, "state": null, "country": "United States"}}, "player": {"id": 3859990, "gamerTag": "ddogg26", "prefix": "", "user": {"location": {"city": null, "state": null, "country": "United States"}}}}]}, "standing": {"placement": 2, "stats": {"score": {"value": 0}}}}, {"id": "93581154-1", "entrant": {"id": 21125906, "name": "SPLY-350 | Yeezus", "participants": [{"id": 19431681, "gamerTag": "Yeezus", "prefix": "SPLY-350", "user": {"location": {"city": "Fort Moore", "state": "GA", "country": "United States"}}, "player": {"id": 3988141, "gamerTag": "Yeezus", "prefix": "SPLY-350", "user": {"location": {"city": "Fort Moore", "state": "GA", "country": "United States"}}}}]}, "standing": {"placement": 1, "stats": {"score": {"value": 3}}}}], "games": null}, {"id": 93581155, "state": 3, "round": 3, "fullRoundText": "Round 3", "completedAt": 1757207911, "winnerId": 21189174, "slots": [{"id": "93581155-0", "entrant": {"id": 21189174, "name": "AshNoJoy", "participants": [{"id": 19487264, "gamerTag": "AshNoJoy", "prefix": "", "user": {"location": {"city": "Phenix City", "state": "AL", "country": "United States"}}, "player": {"id": 3141674, "gamerTag": "AshNoJoy", "prefix": "", "user": {"location": {"city": "Phenix City", "state": "AL", "country": "United States"}}}}]}, "standing": {"placement": 1, "stats": {"score": {"value": 3}}}}, {"id": "93581155-1", "entrant": {"id": 20888457, "name": "VES | OGS Dog", "participants": [{"id": 19220136, "gamerTag": "OGS Dog", "prefix": "VES", "user": {"location": {"city": "Columbus", "state": "GA", "country": "United States"}}, "player": {"id": 2152632, "gamerTag": "OGS Dog", "prefix": "VES", "user": {"location": {"city": "Columbus", "state": "GA", "country": "United States"}}}}]}, "standing": {"placement": 2, "stats": {"score": {"value": 1}}}}], "games": null}, {"id": 93581148, "state": 3, "round": 2, "fullRoundText": "Round 2", "completedAt": 1757203963, "winnerId": 21036116, "slots": [{"id": "93581148-0", "entrant": {"id": 21036116, "name": "Maverick", "participants": [{"id": 19350925, "gamerTag": "Maverick", "prefix": "", "user": {"location": {"city": "Columbus", "state": "GA", "country": "United States"}}, "player": {"id": 1058777, "gamerTag": "Maverick", "prefix": "", "user": {"location": {"city": "Columbus", "state": "GA", "country": "United States"}}}}]}, "standing": {"placement": 1, "stats": {"score": {"value": 3}}}}, {"id": "93581148-1", "entrant": {"id": 20963246, "name": "CSU | OfficeWalrus", "participants": [{"id": 19285797, "gamerTag": "OfficeWalrus", "prefix": "CSU", "user": {"location": {"city": "Columbus", "state": "GA", "country": "United States"}}, "player": {"id": 3860050, "gamerTag": "OfficeWalrus", "prefix": "CSU", "user": {"location": {"city": "Columbus", "state": "GA", "country": "United States"}}}}]}, "standing": {"placement": 2, "stats": {"score": {"value": 0}}}}], "games": null}, {"id": 93581149, "state": 3, "round": 2, "fullRoundText": "Round 2", "completedAt": 1757206036, "winnerId": 20876328, "slots": [{"id": "93581149-0", "entrant": {"id": 20964178, "name": "ddogg26", "participants": [{"id": 19286455, "gamerTag": "ddogg26", "prefix": "", "user": {"location": {"city": null, "state": null, "country": "United States"}}, "player": {"id": 3859990, "gamerTag": "ddogg26", "prefix": "", "user": {"location": {"city": null, "state": null, "country": "United States"}}}}]}, "standing": {"placement": 2, "stats": {"score": {"value": 0}}}}, {"id": "93581149-1", "entrant": {"id": 20876328, "name": "Ashm | Cryptonite", "participants": [{"id": 19209286, "gamerTag": "Cryptonite", "prefix": "Ashm", "user": {"location": {"city": "Hamilton", "state": "GA", "country": "United States"}}, "player": {"id": 2300323, "gamerTag": "Cryptonite", "prefix": "Ashm", "user": {"location": {"city": "Hamilton", "state": "GA", "country": "United States"}}}}]}, "standing": {"placement": 1, "stats": {"score": {"value": 3}}}}], "games": null}, {"id": 93581150, "state": 3, "round": 2, "fullRoundText": "Round 2", "completedAt": 1757202115, "winnerId": 21182377, "slots": [{"id": "93581150-0", "entrant": {"id": 21189174, "name": "AshNoJoy", "participants": [{"id": 19487264, "gamerTag": "AshNoJoy", "prefix": "", "user": {"location": {"city": "Phenix City", "state": "AL", "country": "United States"}}, "player": {"id": 3141674, "gamerTag": "AshNoJoy", "prefix": "", "user": {"location": {"city": "Phenix City", "state": "AL", "country": "United States"}}}}]}, "standing": {"placement": 2, "stats": {"score": {"value": 1}}}}, {"id": "93581150-1", "entrant": {"id": 21182377, "name": "Andromeda", "participants": [{"id": 19481714, "gamerTag": "Andromeda", "prefix": "", "user": {"location": {"city": "Columbus", "state": "GA", "country": "United States"}}, "player": {"id": 1458791, "gamerTag": "Andromeda", "prefix": "", "user": {"location": {"city": "Columbus", "state": "GA", "country": "United States"}}}}]}, "standing": {"placement": 1, "stats": {"score": {"value": 3}}}}], "games": null}, {"id": 93581151, "state": 3, "round": 2, "fullRoundText": "Round 2", "completedAt": 1757202096, "winnerId": 21125906, "slots": [{"id": "93581151-0", "entrant": {"id": 20888457, "name": "VES | OGS Dog", "participants": [{"id": 19220136, "gamerTag": "OGS Dog", "prefix": "VES", "user": {"location": {"city": "Columbus", "state": "GA", "country": "United States"}}, "player": {"id": 2152632, "gamerTag": "OGS Dog", "prefix": "VES", "user": {"location": {"city": "Columbus", "state": "GA", "country": "United States"}}}}]}, "standing": {"placement": 2, "stats": {"score": {"value": 0}}}}, {"id": "93581151-1", "entrant": {"id": 21125906, "name": "SPLY-350 | Yeezus", "participants": [{"id": 19431681, "gamerTag": "Yeezus", "prefix": "SPLY-350", "user": {"location": {"city": "Fort Moore", "state": "GA", "country": "United States"}}, "player": {"id": 3988141, "gamerTag": "Yeezus", "prefix": "SPLY-350", "user": {"location": {"city": "Fort Moore", "state": "GA", "country": "United States"}}}}]}, "standing": {"placement": 1, "stats": {"score": {"value": 3}}}}], "games": null}, {"id": 93581144, "state": 3, "round": 1, "fullRoundText": "Round 1", "completedAt": 1757201286, "winnerId": 21036116, "slots": [{"id": "93581144-0", "entrant": {"id": 21036116, "name": "Maverick", "participants": [{"id": 19350925, "gamerTag": "Maverick", "prefix": "", "user": {"location": {"city": "Columbus", "state": "GA", "country": "United States"}}, "player": {"id": 1058777, "gamerTag": "Maverick", "prefix": "", "user": {"location": {"city": "Columbus", "state": "GA", "country": "United States"}}}}]}, "standing": {"placement": 1, "stats": {"score": {"value": 3}}}}, {"id": "93581144-1", "entrant": {"id": 20964178, "name": "ddogg26", "participants": [{"id": 19286455, "gamerTag": "ddogg26", "prefix": "", "user": {"location": {"city": null, "state": null, "country": "United States"}}, "player": {"id": 3859990, "gamerTag": "ddogg26", "prefix": "", "user": {"location": {"city": null, "state": null, "country": "United States"}}}}]}, "standing": {"placement": 2, "stats": {"score": {"value": 0}}}}], "games": [{"id": 32421059, "orderNum": 1, "winnerId": 21036116, "entrant1Score": null, "entrant2Score": 0, "stage": null, "selections": [{"id": 47787919, "selectionType": "CHARACTER", "selectionValue": 1338, "entrant": {"id": 20964178}, "character": {"id": 1338, "name": "Yoshi"}}, {"id": 47787920, "selectionType": "CHARACTER", "selectionValue": 1279, "entrant": {"id": 21036116}, "character": {"id": 1279, "name": "Diddy Kong"}}]}, {"id": 32421060, "orderNum": 2, "winnerId": 21036116, "entrant1Score": null, "entrant2Score": 0, "stage": null, "selections": [{"id": 47787921, "selectionType": "CHARACTER", "selectionValue": 1338, "entrant": {"id": 20964178}, "character": {"id": 1338, "name": "Yoshi"}}, {"id": 47787922, "selectionType": "CHARACTER", "selectionValue": 1279, "entrant": {"id": 21036116}, "character": {"id": 1279, "name": "Diddy Kong"}}]}, {"id": 32421061, "orderNum": 3, "winnerId": 21036116, "entrant1Score": null, "entrant2Score": 0, "stage": null, "selections": [{"id": 47787923, "selectionType": "CHARACTER", "selectionValue": 1338, "entrant": {"id": 20964178}, "character": {"id": 1338, "name": "Yoshi"}}, {"id": 47787924, "selectionType": "CHARACTER", "selectionValue": 1279, "entrant": {"id": 21036116}, "character": {"id": 1279, "name": "Diddy Kong"}}]}]}, {"id": 93581145, "state": 3, "round": 1, "fullRoundText": "Round 1", "completedAt": 1757207923, "winnerId": 21189174, "slots": [{"id": "93581145-0", "entrant": {"id": 21189174, "name": "AshNoJoy", "participants": [{"id": 19487264, "gamerTag": "AshNoJoy", "prefix": "", "user": {"location": {"city": "Phenix City", "state": "AL", "country": "United States"}}, "player": {"id": 3141674, "gamerTag": "AshNoJoy", "prefix": "", "user": {"location": {"city": "Phenix City", "state": "AL", "country": "United States"}}}}]}, "standing": {"placement": 1, "stats": {"score": {"value": 3}}}}, {"id": "93581145-1", "entrant": {"id": 20963246, "name": "CSU | OfficeWalrus", "participants": [{"id": 19285797, "gamerTag": "OfficeWalrus", "prefix": "CSU", "user": {"location": {"city": "Columbus", "state": "GA", "country": "United States"}}, "player": {"id": 3860050, "gamerTag": "OfficeWalrus", "prefix": "CSU", "user": {"location": {"city": "Columbus", "state": "GA", "country": "United States"}}}}]}, "standing": {"placement": 2, "stats": {"score": {"value": 0}}}}], "games": null}, {"id": 93581146, "state": 3, "round": 1, "fullRoundText": "Round 1", "completedAt": 1757209331, "winnerId": 20888457, "slots": [{"id": "93581146-0", "entrant": {"id": 20888457, "name": "VES | OGS Dog", "participants": [{"id": 19220136, "gamerTag": "OGS Dog", "prefix": "VES", "user": {"location": {"city": "Columbus", "state": "GA", "country": "United States"}}, "player": {"id": 2152632, "gamerTag": "OGS Dog", "prefix": "VES", "user": {"location": {"city": "Columbus", "state": "GA", "country": "United States"}}}}]}, "standing": {"placement": 1, "stats": {"score": {"value": 3}}}}, {"id": "93581146-1", "entrant": {"id": 20876328, "name": "Ashm | Cryptonite", "participants": [{"id": 19209286, "gamerTag": "Cryptonite", "prefix": "Ashm", "user": {"location": {"city": "Hamilton", "state": "GA", "country": "United States"}}, "player": {"id": 2300323, "gamerTag": "Cryptonite", "prefix": "Ashm", "user": {"location": {"city": "Hamilton", "state": "GA", "country": "United States"}}}}]}, "standing": {"placement": 2, "stats": {"score": {"value": 2}}}}], "games": null}, {"id": 93581147, "state": 3, "round": 1, "fullRoundText": "Round 1", "completedAt": 1757206246, "winnerId": 21125906, "slots": [{"id": "93581147-0", "entrant": {"id": 21125906, "name": "SPLY-350 | Yeezus", "participants": [{"id": 19431681, "gamerTag": "Yeezus", "prefix": "SPLY-350", "user": {"location": {"city": "Fort Moore", "state": "GA", "country": "United States"}}, "player": {"id": 3988141, "gamerTag": "Yeezus", "prefix": "SPLY-350", "user": {"location": {"city": "Fort Moore", "state": "GA", "country": "United States"}}}}]}, "standing": {"placement": 1, "stats": {"score": {"value": 3}}}}, {"id": "93581147-1", "entrant": {"id": 21182377, "name": "Andromeda", "participants": [{"id": 19481714, "gamerTag": "Andromeda", "prefix": "", "user": {"location": {"city": "Columbus", "state": "GA", "country": "United States"}}, "player": {"id": 1458791, "gamerTag": "Andromeda", "prefix": "", "user": {"location": {"city": "Columbus", "state": "GA", "country": "United States"}}}}]}, "standing": {"placement": 2, "stats": {"score": {"value": 1}}}}], "games": null}]}}}