{"event": {"sets": {"pageInfo": {"totalPages": 1, "total": 8}, "nodes": [{"id": 93685442, "state": 3, "round": 4, "fullRoundText": "Final", "completedAt": 1757459269, "winnerId": 21158679, "slots": [{"id": "93685442-0", "entrant": {"id": 21215884, "name": "AshNoJoy", "participants": [{"id": 19509426, "gamerTag": "AshNoJoy", "prefix": null, "user": {"location": {"city": "Phenix City", "state": "AL", "country": "United States"}}, "player": {"id": 3141674, "gamerTag": "AshNoJoy", "prefix": "", "user": {"location": {"city": "Phenix City", "state": "AL", "country": "United States"}}}}]}, "standing": {"placement": 2, "stats": {"score": {"value": 1}}}}, {"id": "93685442-1", "entrant": {"id": 21158679, "name": "Vitamin C", "participants": [{"id": 19460856, "gamerTag": "Vitamin C", "prefix": null, "user": {"location": {"city": "Lawrenceville", "state": "GA", "country": "United States"}}, "player": {"id": 4943785, "gamerTag": "Vitamin C", "prefix": null, "user": {"location": {"city": "Lawrenceville", "state": "GA", "country": "United States"}}}}]}, "standing": {"placement": 1, "stats": {"score": {"value": 2}}}}], "games": [{"id": 32484201, "orderNum": 1, "winnerId": 21158679, "entrant1Score": 0, "entrant2Score": null, "stage": null, "selections": [{"id": 47877410, "selectionType": "CHARACTER", "selectionValue": 1526, "entrant": {"id": 21158679}, "character": {"id": 1526, "name": "Hero"}}, {"id": 47877411, "selectionType": "CHARACTER", "selectionValue": 1526, "entrant": {"id": 21215884}, "character": {"id": 1526, "name": "Hero"}}]}, {"id": 32484202, "orderNum": 2, "winnerId": 21215884, "entrant1Score": null, "entrant2Score": 0, "stage": null, "selections": [{"id": 47877412, "selectionType": "CHARACTER", "selectionValue": 1526, "entrant": {"id": 21158679}, "character": {"id": 1526, "name": "Hero"}}, {"id": 47877413, "selectionType": "CHARACTER", "selectionValue": 1526, "entrant": {"id": 21215884}, "character": {"id": 1526, "name": "Hero"}}]}, {"id": 32484203, "orderNum": 3, "winnerId": 21158679, "entrant1Score": 0, "entrant2Score": null, "stage": null, "selections": [{"id": 47877414, "selectionType": "CHARACTER", "selectionValue": 1526, "entrant": {"id": 21158679}, "character": {"id": 1526, "name": "Hero"}}, {"id": 47877415, "selectionType": "CHARACTER", "selectionValue": 1526, "entrant": {"id": 21215884}, "character": {"id": 1526, "name": "Hero"}}]}]}, {"id": 93685440, "state": 3, "round": 3, "fullRoundText": "Semi-Final", "completedAt": 1757458816, "winnerId": 21215884, "slots": [{"id": "93685440-0", "entrant": {"id": 21215884, "name": "AshNoJoy", "participants": [{"id": 19509426, "gamerTag": "AshNoJoy", "prefix": null, "user": {"location": {"city": "Phenix City", "state": "AL", "country": "United States"}}, "player": {"id": 3141674, "gamerTag": "AshNoJoy", "prefix": "", "user": {"location": {"city": "Phenix City", "state": "AL", "country": "United States"}}}}]}, "standing": {"placement": 1, "stats": {"score": {"value": 2}}}}, {"id": "93685440-1", "entrant": {"id": 21205913, "name": "Khang", "participants": [{"id": 19502406, "gamerTag": "Khang", "prefix": "", "user": {"location": {"city": null, "state": null, "country": "United States"}}, "player": {"id": 4964744, "gamerTag": "Khang", "prefix": "", "user": {"location": {"city": null, "state": null, "country": "United States"}}}}]}, "standing": {"placement": 2, "stats": {"score": {"value": 1}}}}], "games": null}, {"id": 93685441, "state": 3, "round": 3, "fullRoundText": "Semi-Final", "completedAt": 1757458049, "winnerId": 21158679, "slots": [{"id": "93685441-0", "entrant": {"id": 21158679, "name": "Vitamin C", "participants": [{"id": 19460856, "gamerTag": "Vitamin C", "prefix": null, "user": {"location": {"city": "Lawrenceville", "state": "GA", "country": "United States"}}, "player": {"id": 4943785, "gamerTag": "Vitamin C", "prefix": null, "user": {"location": {"city": "Lawrenceville", "state": "GA", "country": "United States"}}}}]}, "standing": {"placement": 1, "stats": {"score": {"value": 2}}}}, {"id": "93685441-1", "entrant": {"id": 21215840, "name": "MossyCharger", "participants": [{"id": 19511122, "gamerTag": "MossyCharger", "prefix": null, "user": {"location": {"city": "Atlanta", "state": "GA", "country": "United States"}}, "player": {"id": 4945351, "gamerTag": "MossyCharger", "prefix": null, "user": {"location": {"city": "Atlanta", "state": "GA", "country": "United States"}}}}]}, "standing": {"placement": 2, "stats": {"score": {"value": 1}}}}], "games": null}, {"id": 93685436, "state": 3, "round": 2, "fullRoundText": "Quarter-Final", "completedAt": 1757457683, "winnerId": 21215884, "slots": [{"id": "93685436-0", "entrant": {"id": 21215884, "name": "AshNoJoy", "participants": [{"id": 19509426, "gamerTag": "AshNoJoy", "prefix": null, "user": {"location": {"city": "Phenix City", "state": "AL", "country": "United States"}}, "player": {"id": 3141674, "gamerTag": "AshNoJoy", "prefix": "", "user": {"location": {"city": "Phenix City", "state": "AL", "country": "United States"}}}}]}, "standing": {"placement": 1, "stats": {"score": {"value": 2}}}}, {"id": "93685436-1", "entrant": {"id": 21177254, "name": "FF | Milex", "participants": [{"id": 19477171, "gamerTag": "Milex", "prefix": "FF", "user": {"location": {"city": null, "state": "FL", "country": "United States"}}, "player": {"id": 4945217, "gamerTag": "Milex", "prefix": "FF", "user": {"location": {"city": null, "state": "FL", "country": "United States"}}}}]}, "standing": {"placement": 2, "stats": {"score": {"value": 0}}}}], "games": null}, {"id": 93685437, "state": 3, "round": 2, "fullRoundText": "Quarter-Final", "completedAt": 1757456478, "winnerId": 21205913, "slots": [{"id": "93685437-0", "entrant": {"id": 21157647, "name": "SD | Delta", "participants": [{"id": 19459877, "gamerTag": "Delta", "prefix": "SD", "user": {"location": {"city": "Atlanta", "state": "GA", "country": "United States"}}, "player": {"id": 4944609, "gamerTag": "Delta", "prefix": "SD", "user": {"location": {"city": "Atlanta", "state": "GA", "country": "United States"}}}}]}, "standing": {"placement": 2, "stats": {"score": {"value": 0}}}}, {"id": "93685437-1", "entrant": {"id": 21205913, "name": "Khang", "participants": [{"id": 19502406, "gamerTag": "Khang", "prefix": "", "user": {"location": {"city": null, "state": null, "country": "United States"}}, "player": {"id": 4964744, "gamerTag": "Khang", "prefix": "", "user": {"location": {"city": null, "state": null, "country": "United States"}}}}]}, "standing": {"placement": 1, "stats": {"score": {"value": 2}}}}], "games": null}, {"id": 93685438, "state": 3, "round": 2, "fullRoundText": "Quarter-Final", "completedAt": 1757457228, "winnerId": 21158679, "slots": [{"id": "93685438-0", "entrant": {"id": 21158679, "name": "Vitamin C", "participants": [{"id": 19460856, "gamerTag": "Vitamin C", "prefix": null, "user": {"location": {"city": "Lawrenceville", "state": "GA", "country": "United States"}}, "player": {"id": 4943785, "gamerTag": "Vitamin C", "prefix": null, "user": {"location": {"city": "Lawrenceville", "state": "GA", "country": "United States"}}}}]}, "standing": {"placement": 1, "stats": {"score": {"value": 2}}}}, {"id": "93685438-1", "entrant": {"id": 21213164, "name": "AceT", "participants": [{"id": 19464424, "gamerTag": "AceT", "prefix": null, "user": {"location": {"city": "Atlanta", "state": "GA", "country": "United States"}}, "player": {"id": 4956503, "gamerTag": "AceT", "prefix": "", "user": {"location": {"city": "Atlanta", "state": "GA", "country": "United States"}}}}]}, "standing": {"placement": 2, "stats": {"score": {"value": 1}}}}], "games": null}, {"id": 93685439, "state": 3, "round": 2, "fullRoundText": "Quarter-Final", "completedAt": 1757457249, "winnerId": 21215840, "slots": [{"id": "93685439-0", "entrant": {"id": 21215840, "name": "MossyCharger", "participants": [{"id": 19511122, "gamerTag": "MossyCharger", "prefix": null, "user": {"location": {"city": "Atlanta", "state": "GA", "country": "United States"}}, "player": {"id": 4945351, "gamerTag": "MossyCharger", "prefix": null, "user": {"location": {"city": "Atlanta", "state": "GA", "country": "United States"}}}}]}, "standing": {"placement": 1, "stats": {"score": {"value": 2}}}}, {"id": "93685439-1", "entrant": {"id": 21206444, "name": "Astrum", "participants": [{"id": 19502926, "gamerTag": "Astrum", "prefix": null, "user": {"location": {"city": null, "state": "GA", "country": "United States"}}, "player": {"id": 4943691, "gamerTag": "Astrum", "prefix": null, "user": {"location": {"city": null, "state": "GA", "country": "United States"}}}}]}, "standing": {"placement": 2, "stats": {"score": {"value": 0}}}}], "games": null}, {"id": 93685429, "state": 3, "round": 1, "fullRoundText": "Round 1", "completedAt": 1757457105, "winnerId": 21177254, "slots": [{"id": "93685429-0", "entrant": {"id": 21211994, "name": "LoudyKing101", "participants": [{"id": 19507801, "gamerTag": "LoudyKing101", "prefix": "", "user": {"location": {"city": null, "state": null, "country": "United States"}}, "player": {"id": 4965563, "gamerTag": "LoudyKing101", "prefix": "", "user": {"location": {"city": null, "state": null, "country": "United States"}}}}]}, "standing": {"placement": 2, "stats": {"score": {"value": 0}}}}, {"id": "93685429-1", "entrant": {"id": 21177254, "name": "FF | Milex", "participants": [{"id": 19477171, "gamerTag": "Milex", "prefix": "FF", "user": {"location": {"city": null, "state": "FL", "country": "United States"}}, "player": {"id": 4945217, "gamerTag": "Milex", "prefix": "FF", "user": {"location": {"city": null, "state": "FL", "country": "United States"}}}}]}, "standing": {"placement": 1, "stats": {"score": {"value": 2}}}}], "games": null}]}}}