{"phase": {"seeds": {"pageInfo": {"totalPages": 1, "total": 7}, "nodes": [{"id": 36399405, "seedNum": 5, "entrant": {"id": 21120382, "name": "Chongo", "participants": [{"id": 19426711, "gamerTag": "Chongo", "prefix": null, "user": {"location": {"city": null, "state": "GA", "country": "United States"}}, "player": {"id": 4948173, "gamerTag": "Chongo", "prefix": null, "user": {"location": {"city": null, "state": "GA", "country": "United States"}}}}]}}, {"id": 36027078, "seedNum": 3, "entrant": {"id": 20882405, "name": "Joyblossom", "participants": [{"id": 19215007, "gamerTag": "Joyblossom", "prefix": null, "user": {"location": {"city": "Macon", "state": "GA", "country": "United States"}}, "player": {"id": 4675246, "gamerTag": "Joyblossom", "prefix": null, "user": {"location": {"city": "Macon", "state": "GA", "country": "United States"}}}}]}}, {"id": 36023610, "seedNum": 1, "entrant": {"id": 20879578, "name": "FNG | S0URCEC0DE", "participants": [{"id": 19212370, "gamerTag": "S0URCEC0DE", "prefix": "FNG", "user": {"location": {"city": "Macon", "state": "GA", "country": "United States"}}, "player": {"id": 2699776, "gamerTag": "S0URCEC0DE", "prefix": "FNG", "user": {"location": {"city": "Macon", "state": "GA", "country": "United States"}}}}]}}, {"id": 36025103, "seedNum": 2, "entrant": {"id": 20880871, "name": "FNG | SHB", "participants": [{"id": 19213584, "gamerTag": "SHB", "prefix": "FNG", "user": {"location": {"city": null, "state": null, "country": "United States"}}, "player": {"id": 3194253, "gamerTag": "SHB", "prefix": "FNG", "user": {"location": {"city": null, "state": null, "country": "United States"}}}}]}}, {"id": 36399250, "seedNum": 4, "entrant": {"id": 21120251, "name": "Anamusement", "participants": [{"id": 19426592, "gamerTag": "Anamusement", "prefix": "", "user": {"location": {"city": null, "state": "GA", "country": "United States"}}, "player": {"id": 4412425, "gamerTag": "Anamusement", "prefix": "", "user": {"location": {"city": null, "state": "GA", "country": "United States"}}}}]}}, {"id": 36416364, "seedNum": 6, "entrant": {"id": 21133060, "name": "SoulTech", "participants": [{"id": 19438344, "gamerTag": "SoulTech", "prefix": "", "user": {"location": {"city": "Warner Robins", "state": "GA", "country": "United States"}}, "player": {"id": 4744118, "gamerTag": "SoulTech", "prefix": "", "user": {"location": {"city": "Warner Robins", "state": "GA", "country": "United States"}}}}]}}, {"id": 36416586, "seedNum": 7, "entrant": {"id": 21133273, "name": "forvr | forevertrent", "participants": [{"id": 19438490, "gamerTag": "forevertrent", "prefix": "forvr", "user": {"location": {"city": "Macon", "state": "GA", "country": "United States"}}, "player": {"id": 4276309, "gamerTag": "forevertrent", "prefix": "forvr", "user": {"location": {"city": "Macon", "state": "GA", "country": "United States"}}}}]}}]}}}