{"event": {"sets": {"pageInfo": {"totalPages": 2, "total": 28}, "nodes": [{"id": 92666043, "state": 3, "round": -4, "fullRoundText": "Losers Round 2", "completedAt": 1755218691, "winnerId": 20963542, "slots": [{"id": "92666043-0", "entrant": {"id": 20963542, "name": "tomguy", "participants": [{"id": 19286019, "gamerTag": "tomguy", "prefix": "", "user": {"location": {"city": "Atlanta", "state": "GA", "country": "United States"}}, "player": {"id": 147458, "gamerTag": "tomguy", "prefix": "", "user": {"location": {"city": "Atlanta", "state": "GA", "country": "United States"}}}}]}, "standing": {"placement": 1, "stats": {"score": {"value": 3}}}}, {"id": "92666043-1", "entrant": {"id": 20963705, "name": "Juan J. Steven's", "participants": [{"id": 19286131, "gamerTag": "Juan J. Steven's", "prefix": null, "user": {"location": {"city": "atlanta", "state": "GA", "country": "United States"}}, "player": {"id": 3318064, "gamerTag": "Guts", "prefix": "\u72a0\u7272\u306e\u70d9\u5370", "user": {"location": {"city": "atlanta", "state": "GA", "country": "United States"}}}}]}, "standing": {"placement": 2, "stats": {"score": {"value": 2}}}}], "games": null}, {"id": 92666044, "state": 3, "round": -4, "fullRoundText": "Losers Round 2", "completedAt": 1755219888, "winnerId": 20949797, "slots": [{"id": "92666044-0", "entrant": {"id": 20949797, "name": "Monolithic", "participants": [{"id": 19274283, "gamerTag": "Monolithic", "prefix": "", "user": {"location": {"city": "", "state": "GA", "country": "United States"}}, "player": {"id": 1926775, "gamerTag": "Monolithic", "prefix": "", "user": {"location": {"city": "", "state": "GA", "country": "United States"}}}}]}, "standing": {"placement": 1, "stats": {"score": {"value": 3}}}}, {"id": "92666044-1", "entrant": {"id": 20938824, "name": "Tech Chase | braxton", "participants": [{"id": 19264635, "gamerTag": "braxton", "prefix": "Tech Chase", "user": {"location": {"city": "Atlanta", "state": "GA", "country": "United States"}}, "player": {"id": 1037821, "gamerTag": "braxton", "prefix": "The Hive", "user": {"location": {"city": "Atlanta", "state": "GA", "country": "United States"}}}}]}, "standing": {"placement": 2, "stats": {"score": {"value": 0}}}}], "games": [{"id": 31909105, "orderNum": 1, "winnerId": 20949797, "entrant1Score": null, "entrant2Score": 0, "stage": null, "selections": [{"id": 47001203, "selectionType": "CHARACTER", "selectionValue": 12, "entrant": {"id": 20938824}, "character": {"id": 12, "name": "Luigi"}}, {"id": 47001204, "selectionType": "CHARACTER", "selectionValue": 8, "entrant": {"id": 20949797}, "character": {"id": 8, "name": "Ice Climbers"}}]}, {"id": 31909106, "orderNum": 2, "winnerId": 20949797, "entrant1Score": null, "entrant2Score": 0, "stage": null, "selections": [{"id": 47001205, "selectionType": "CHARACTER", "selectionValue": 12, "entrant": {"id": 20938824}, "character": {"id": 12, "name": "Luigi"}}, {"id": 47001206, "selectionType": "CHARACTER", "selectionValue": 8, "entrant": {"id": 20949797}, "character": {"id": 8, "name": "Ice Climbers"}}]}, {"id": 31909107, "orderNum": 3, "winnerId": 20949797, "entrant1Score": null, "entrant2Score": 0, "stage": null, "selections": [{"id": 47001207, "selectionType": "CHARACTER", "selectionValue": 12, "entrant": {"id": 20938824}, "character": {"id": 12, "name": "Luigi"}}, {"id": 47001208, "selectionType": "CHARACTER", "selectionValue": 8, "entrant": {"id": 20949797}, "character": {"id": 8, "name": "Ice Climbers"}}]}]}, {"id": 92666045, "state": 3, "round": -4, "fullRoundText": "Losers Round 2", "completedAt": 1755218617, "winnerId": 20969566, "slots": [{"id": "92666045-0", "entrant": {"id": 20947847, "name": "Kingpoyothefirst", "participants": [{"id": 19272666, "gamerTag": "Kingpoyothefirst", "prefix": null, "user": {"location": {"city": null, "state": null, "country": null}}, "player": {"id": 2934299, "gamerTag": "Kingpoyothefirst", "prefix": "DD", "user": {"location": {"city": null, "state": null, "country": null}}}}]}, "standing": {"placement": 2, "stats": {"score": {"value": 0}}}}, {"id": "92666045-1", "entrant": {"id": 20969566, "name": "noided", "participants": [{"id": 19291318, "gamerTag": "noided", "prefix": "", "user": {"location": {"city": "Atlanta", "state": "GA", "country": "United States"}}, "player": {"id": 2586521, "gamerTag": "noided", "prefix": "", "user": {"location": {"city": "Atlanta", "state": "GA", "country": "United States"}}}}]}, "standing": {"placement": 1, "stats": {"score": {"value": 3}}}}], "games": null}, {"id": 92666039, "state": 3, "round": -3, "fullRoundText": "Losers Round 1", "completedAt": 1755217672, "winnerId": 20963705, "slots": [{"id": "92666039-0", "entrant": {"id": 20963705, "name": "Juan J. Steven's", "participants": [{"id": 19286131, "gamerTag": "Juan J. Steven's", "prefix": null, "user": {"location": {"city": "atlanta", "state": "GA", "country": "United States"}}, "player": {"id": 3318064, "gamerTag": "Guts", "prefix": "\u72a0\u7272\u306e\u70d9\u5370", "user": {"location": {"city": "atlanta", "state": "GA", "country": "United States"}}}}]}, "standing": {"placement": 1, "stats": {"score": {"value": 3}}}}, {"id": "92666039-1", "entrant": {"id": 20969130, "name": "Notahorse", "participants": [{"id": 19290885, "gamerTag": "Notahorse", "prefix": "", "user": {"location": {"city": null, "state": null, "country": "United States"}}, "player": {"id": 3971116, "gamerTag": "Notahorse", "prefix": "", "user": {"location": {"city": null, "state": null, "country": "United States"}}}}]}, "standing": {"placement": 2, "stats": {"score": {"value": 0}}}}], "games": null}, {"id": 92666040, "state": 3, "round": -3, "fullRoundText": "Losers Round 1", "completedAt": 1755217045, "winnerId": 20938824, "slots": [{"id": "92666040-0", "entrant": {"id": 20953839, "name": "TPS | $CAIT", "participants": [{"id": 19277842, "gamerTag": "$CAIT", "prefix": "TPS", "user": {"location": {"city": "Kennesaw", "state": "GA", "country": "United States"}}, "player": {"id": 3422494, "gamerTag": "$CAITLIN", "prefix": "TPS", "user": {"location": {"city": "Kennesaw", "state": "GA", "country": "United States"}}}}]}, "standing": {"placement": 2, "stats": {"score": {"value": 0}}}}, {"id": "92666040-1", "entrant": {"id": 20938824, "name": "Tech Chase | braxton", "participants": [{"id": 19264635, "gamerTag": "braxton", "prefix": "Tech Chase", "user": {"location": {"city": "Atlanta", "state": "GA", "country": "United States"}}, "player": {"id": 1037821, "gamerTag": "braxton", "prefix": "The Hive", "user": {"location": {"city": "Atlanta", "state": "GA", "country": "United States"}}}}]}, "standing": {"placement": 1, "stats": {"score": {"value": 3}}}}], "games": null}, {"id": 92666041, "state": 3, "round": -3, "fullRoundText": "Losers Round 1", "completedAt": 1755217243, "winnerId": 20969566, "slots": [{"id": "92666041-0", "entrant": {"id": 20953520, "name": "afterimage", "participants": [{"id": 19277568, "gamerTag": "afterimage", "prefix": "", "user": {"location": {"city": "Atlanta", "state": "GA", "country": "United States"}}, "player": {"id": 4435133, "gamerTag": "popsicle", "prefix": "", "user": {"location": {"city": "Atlanta", "state": "GA", "country": "United States"}}}}]}, "standing": {"placement": 2, "stats": {"score": {"value": 0}}}}, {"id": "92666041-1", "entrant": {"id": 20969566, "name": "noided", "participants": [{"id": 19291318, "gamerTag": "noided", "prefix": "", "user": {"location": {"city": "Atlanta", "state": "GA", "country": "United States"}}, "player": {"id": 2586521, "gamerTag": "noided", "prefix": "", "user": {"location": {"city": "Atlanta", "state": "GA", "country": "United States"}}}}]}, "standing": {"placement": 1, "stats": {"score": {"value": 3}}}}], "games": null}, {"id": 92666006, "state": 3, "round": 1, "fullRoundText": "Winners Round 1", "completedAt": 1755216116, "winnerId": 20947847, "slots": [{"id": "92666006-0", "entrant": {"id": 20947847, "name": "Kingpoyothefirst", "participants": [{"id": 19272666, "gamerTag": "Kingpoyothefirst", "prefix": null, "user": {"location": {"city": null, "state": null, "country": null}}, "player": {"id": 2934299, "gamerTag": "Kingpoyothefirst", "prefix": "DD", "user": {"location": {"city": null, "state": null, "country": null}}}}]}, "standing": {"placement": 1, "stats": {"score": {"value": 3}}}}, {"id": "92666006-1", "entrant": {"id": 20962985, "name": "Mac Piller", "participants": [{"id": 19285565, "gamerTag": "Mac Piller", "prefix": null, "user": {"location": {"city": "Auburn", "state": "AL", "country": "United States"}}, "player": {"id": 2363610, "gamerTag": "soup time", "prefix": null, "user": {"location": {"city": "Auburn", "state": "AL", "country": "United States"}}}}]}, "standing": {"placement": 2, "stats": {"score": {"value": 0}}}}], "games": null}, {"id": 92666007, "state": 3, "round": 1, "fullRoundText": "Winners Round 1", "completedAt": 1755216915, "winnerId": 20971853, "slots": [{"id": "92666007-0", "entrant": {"id": 20971853, "name": "skyguy | bag", "participants": [{"id": 19293396, "gamerTag": "bag", "prefix": "skyguy", "user": {"location": {"city": "Atlanta", "state": "GA", "country": "United States"}}, "player": {"id": 271346, "gamerTag": "bag", "prefix": "skyguy", "user": {"location": {"city": "Atlanta", "state": "GA", "country": "United States"}}}}]}, "standing": {"placement": 1, "stats": {"score": {"value": 3}}}}, {"id": "92666007-1", "entrant": {"id": 20963705, "name": "Juan J. Steven's", "participants": [{"id": 19286131, "gamerTag": "Juan J. Steven's", "prefix": null, "user": {"location": {"city": "atlanta", "state": "GA", "country": "United States"}}, "player": {"id": 3318064, "gamerTag": "Guts", "prefix": "\u72a0\u7272\u306e\u70d9\u5370", "user": {"location": {"city": "atlanta", "state": "GA", "country": "United States"}}}}]}, "standing": {"placement": 2, "stats": {"score": {"value": 0}}}}], "games": null}, {"id": 92666008, "state": 3, "round": 1, "fullRoundText": "Winners Round 1", "completedAt": 1755219836, "winnerId": 20949797, "slots": [{"id": "92666008-0", "entrant": {"id": 20949797, "name": "Monolithic", "participants": [{"id": 19274283, "gamerTag": "Monolithic", "prefix": "", "user": {"location": {"city": "", "state": "GA", "country": "United States"}}, "player": {"id": 1926775, "gamerTag": "Monolithic", "prefix": "", "user": {"location": {"city": "", "state": "GA", "country": "United States"}}}}]}, "standing": {"placement": 1, "stats": {"score": {"value": 3}}}}, {"id": "92666008-1", "entrant": {"id": 20969130, "name": "Notahorse", "participants": [{"id": 19290885, "gamerTag": "Notahorse", "prefix": "", "user": {"location": {"city": null, "state": null, "country": "United States"}}, "player": {"id": 3971116, "gamerTag": "Notahorse", "prefix": "", "user": {"location": {"city": null, "state": null, "country": "United States"}}}}]}, "standing": {"placement": 2, "stats": {"score": {"value": 0}}}}], "games": [{"id": 31909045, "orderNum": 1, "winnerId": 20949797, "entrant1Score": 0, "entrant2Score": 0, "stage": null, "selections": [{"id": 47001118, "selectionType": "CHARACTER", "selectionValue": 8, "entrant": {"id": 20949797}, "character": {"id": 8, "name": "Ice Climbers"}}, {"id": 47001119, "selectionType": "CHARACTER", "selectionValue": 22, "entrant": {"id": 20969130}, "character": {"id": 22, "name": "Samus"}}]}, {"id": 31909046, "orderNum": 2, "winnerId": 20949797, "entrant1Score": null, "entrant2Score": 0, "stage": null, "selections": [{"id": 47001120, "selectionType": "CHARACTER", "selectionValue": 8, "entrant": {"id": 20949797}, "character": {"id": 8, "name": "Ice Climbers"}}, {"id": 47001121, "selectionType": "CHARACTER", "selectionValue": 22, "entrant": {"id": 20969130}, "character": {"id": 22, "name": "Samus"}}]}, {"id": 31909047, "orderNum": 3, "winnerId": 20949797, "entrant1Score": null, "entrant2Score": 0, "stage": null, "selections": [{"id": 47001122, "selectionType": "CHARACTER", "selectionValue": 8, "entrant": {"id": 20949797}, "character": {"id": 8, "name": "Ice Climbers"}}, {"id": 47001123, "selectionType": "CHARACTER", "selectionValue": 22, "entrant": {"id": 20969130}, "character": {"id": 22, "name": "Samus"}}]}]}, {"id": 92666009, "state": 3, "round": 1, "fullRoundText": "Winners Round 1", "completedAt": 1755216177, "winnerId": 20947802, "slots": [{"id": "92666009-0", "entrant": {"id": 20947802, "name": "swaggerbee", "participants": [{"id": 19272628, "gamerTag": "swaggerbee", "prefix": "", "user": {"location": {"city": "Atlanta", "state": "GA", "country": "United States"}}, "player": {"id": 1687384, "gamerTag": "swaggerbee", "prefix": "", "user": {"location": {"city": "Atlanta", "state": "GA", "country": "United States"}}}}]}, "standing": {"placement": 1, "stats": {"score": {"value": 3}}}}, {"id": "92666009-1", "entrant": {"id": 20953839, "name": "TPS | $CAIT", "participants": [{"id": 19277842, "gamerTag": "$CAIT", "prefix": "TPS", "user": {"location": {"city": "Kennesaw", "state": "GA", "country": "United States"}}, "player": {"id": 3422494, "gamerTag": "$CAITLIN", "prefix": "TPS", "user": {"location": {"city": "Kennesaw", "state": "GA", "country": "United States"}}}}]}, "standing": {"placement": 2, "stats": {"score": {"value": 0}}}}], "games": null}, {"id": 92666010, "state": 3, "round": 1, "fullRoundText": "Winners Round 1", "completedAt": 1755216343, "winnerId": 20963542, "slots": [{"id": "92666010-0", "entrant": {"id": 20963542, "name": "tomguy", "participants": [{"id": 19286019, "gamerTag": "tomguy", "prefix": "", "user": {"location": {"city": "Atlanta", "state": "GA", "country": "United States"}}, "player": {"id": 147458, "gamerTag": "tomguy", "prefix": "", "user": {"location": {"city": "Atlanta", "state": "GA", "country": "United States"}}}}]}, "standing": {"placement": 1, "stats": {"score": {"value": 3}}}}, {"id": "92666010-1", "entrant": {"id": 20938824, "name": "Tech Chase | braxton", "participants": [{"id": 19264635, "gamerTag": "braxton", "prefix": "Tech Chase", "user": {"location": {"city": "Atlanta", "state": "GA", "country": "United States"}}, "player": {"id": 1037821, "gamerTag": "braxton", "prefix": "The Hive", "user": {"location": {"city": "Atlanta", "state": "GA", "country": "United States"}}}}]}, "standing": {"placement": 2, "stats": {"score": {"value": 0}}}}], "games": null}, {"id": 92666011, "state": 3, "round": 1, "fullRoundText": "Winners Round 1", "completedAt": 1755216360, "winnerId": 20958561, "slots": [{"id": "92666011-0", "entrant": {"id": 20958561, "name": "audrey", "participants": [{"id": 19281764, "gamerTag": "audrey", "prefix": null, "user": {"location": {"city": "Dunwoody", "state": "GA", "country": "United States"}}, "player": {"id": 1335864, "gamerTag": "audrey", "prefix": null, "user": {"location": {"city": "Dunwoody", "state": "GA", "country": "United States"}}}}]}, "standing": {"placement": 1, "stats": {"score": {"value": 3}}}}, {"id": "92666011-1", "entrant": {"id": 20953520, "name": "afterimage", "participants": [{"id": 19277568, "gamerTag": "afterimage", "prefix": "", "user": {"location": {"city": "Atlanta", "state": "GA", "country": "United States"}}, "player": {"id": 4435133, "gamerTag": "popsicle", "prefix": "", "user": {"location": {"city": "Atlanta", "state": "GA", "country": "United States"}}}}]}, "standing": {"placement": 2, "stats": {"score": {"value": 0}}}}], "games": null}, {"id": 92666012, "state": 3, "round": 1, "fullRoundText": "Winners Round 1", "completedAt": 1755216546, "winnerId": 20970428, "slots": [{"id": "92666012-0", "entrant": {"id": 20970428, "name": "Joseph", "participants": [{"id": 19292108, "gamerTag": "Joseph", "prefix": "", "user": {"location": {"city": "", "state": "AL", "country": "United States"}}, "player": {"id": 22422, "gamerTag": "Joseph", "prefix": "", "user": {"location": {"city": "", "state": "AL", "country": "United States"}}}}]}, "standing": {"placement": 1, "stats": {"score": {"value": 3}}}}, {"id": "92666012-1", "entrant": {"id": 20969566, "name": "noided", "participants": [{"id": 19291318, "gamerTag": "noided", "prefix": "", "user": {"location": {"city": "Atlanta", "state": "GA", "country": "United States"}}, "player": {"id": 2586521, "gamerTag": "noided", "prefix": "", "user": {"location": {"city": "Atlanta", "state": "GA", "country": "United States"}}}}]}, "standing": {"placement": 2, "stats": {"score": {"value": 0}}}}], "games": null}]}}}