{"phase": {"seeds": {"pageInfo": {"totalPages": 1, "total": 22}, "nodes": [{"id": 36597365, "seedNum": 1, "entrant": {"id": 21253794, "name": "swaggerbee", "participants": [{"id": 19544352, "gamerTag": "swaggerbee", "prefix": "", "user": {"location": {"city": "Atlanta", "state": "GA", "country": "United States"}}, "player": {"id": 1687384, "gamerTag": "swaggerbee", "prefix": "", "user": {"location": {"city": "Atlanta", "state": "GA", "country": "United States"}}}}]}}, {"id": 36619396, "seedNum": 3, "entrant": {"id": 21269433, "name": "Nero", "participants": [{"id": 19557395, "gamerTag": "Nero", "prefix": "", "user": {"location": {"city": "Calgary", "state": "AB", "country": "Canada"}}, "player": {"id": 175669, "gamerTag": "Nero", "prefix": "", "user": {"location": {"city": "Calgary", "state": "AB", "country": "Canada"}}}}]}}, {"id": 36629878, "seedNum": 2, "entrant": {"id": 21276682, "name": "skyguy | Chris Danger", "participants": [{"id": 19563405, "gamerTag": "Chris Danger", "prefix": "skyguy", "user": {"location": {"city": "Atlanta", "state": "GA", "country": "United States"}}, "player": {"id": 2808268, "gamerTag": "Chris Danger", "prefix": "skyguy", "user": {"location": {"city": "Atlanta", "state": "GA", "country": "United States"}}}}]}}, {"id": 36582205, "seedNum": 7, "entrant": {"id": 21243166, "name": "Wolven", "participants": [{"id": 19535195, "gamerTag": "Wolven", "prefix": null, "user": {"location": {"city": "Atlanta", "state": "GA", "country": "United States"}}, "player": {"id": 126978, "gamerTag": "Wolven", "prefix": null, "user": {"location": {"city": "Atlanta", "state": "GA", "country": "United States"}}}}]}}, {"id": 36625315, "seedNum": 4, "entrant": {"id": 21273375, "name": "Monolithic", "participants": [{"id": 19560560, "gamerTag": "Monolithic", "prefix": "", "user": {"location": {"city": "", "state": "GA", "country": "United States"}}, "player": {"id": 1926775, "gamerTag": "Monolithic", "prefix": "", "user": {"location": {"city": "", "state": "GA", "country": "United States"}}}}]}}, {"id": 36586638, "seedNum": 5, "entrant": {"id": 21246601, "name": "NMBS | Phteven", "participants": [{"id": 19538162, "gamerTag": "Phteven", "prefix": "NMBS", "user": {"location": {"city": "Mableton", "state": "GA", "country": "United States"}}, "player": {"id": 209952, "gamerTag": "Phteven", "prefix": "NMBS", "user": {"location": {"city": "Mableton", "state": "GA", "country": "United States"}}}}]}}, {"id": 36635779, "seedNum": 6, "entrant": {"id": 21281215, "name": "Bori", "participants": [{"id": 19566337, "gamerTag": "Bori", "prefix": null, "user": {"location": {"city": "Atlanta", "state": "GA", "country": "United States"}}, "player": {"id": 3126775, "gamerTag": "Bori", "prefix": null, "user": {"location": {"city": "Atlanta", "state": "GA", "country": "United States"}}}}]}}, {"id": 36580298, "seedNum": 8, "entrant": {"id": 21241889, "name": "N/a | C$", "participants": [{"id": 19534052, "gamerTag": "C$", "prefix": "N/a", "user": {"location": null}, "player": {"id": 228175, "gamerTag": "C$", "prefix": "N/a", "user": {"location": null}}}]}}, {"id": 36624713, "seedNum": 9, "entrant": {"id": 21272880, "name": "diremaykr", "participants": [{"id": 19560245, "gamerTag": "diremaykr", "prefix": "", "user": {"location": {"city": "Buford", "state": "GA", "country": "United States"}}, "player": {"id": 3207366, "gamerTag": "diremaykr", "prefix": "", "user": {"location": {"city": "Buford", "state": "GA", "country": "United States"}}}}]}}, {"id": 36629288, "seedNum": 10, "entrant": {"id": 21276359, "name": "blaise", "participants": [{"id": 19563182, "gamerTag": "blaise", "prefix": "", "user": {"location": {"city": "douglasville", "state": "GA", "country": "United States"}}, "player": {"id": 1326121, "gamerTag": "blaise", "prefix": "", "user": {"location": {"city": "douglasville", "state": "GA", "country": "United States"}}}}]}}, {"id": 36634486, "seedNum": 12, "entrant": {"id": 21280199, "name": "citizenbird", "participants": [{"id": 19565379, "gamerTag": "citizenbird", "prefix": "", "user": null, "player": {"id": 4978771, "gamerTag": "citizenbird", "prefix": "", "user": null}}]}}, {"id": 36628793, "seedNum": 14, "entrant": {"id": 21276003, "name": "Juan J. Steven's", "participants": [{"id": 19562885, "gamerTag": "Juan J. Steven's", "prefix": null, "user": {"location": {"city": "atlanta", "state": "GA", "country": "United States"}}, "player": {"id": 3318064, "gamerTag": "Guts", "prefix": "\u72a0\u7272\u306e\u70d9\u5370", "user": {"location": {"city": "atlanta", "state": "GA", "country": "United States"}}}}]}}, {"id": 36635836, "seedNum": 11, "entrant": {"id": 21281260, "name": "noided", "participants": [{"id": 19566379, "gamerTag": "noided", "prefix": "", "user": {"location": {"city": "Atlanta", "state": "GA", "country": "United States"}}, "player": {"id": 2586521, "gamerTag": "noided", "prefix": "", "user": {"location": {"city": "Atlanta", "state": "GA", "country": "United States"}}}}]}}, {"id": 36632147, "seedNum": 13, "entrant": {"id": 21278336, "name": "BaconBBQ", "participants": [{"id": 19564036, "gamerTag": "BaconBBQ", "prefix": "", "user": {"location": {"city": "Auburn", "state": "AL", "country": "United States"}}, "player": {"id": 3053552, "gamerTag": "BaconBBQ", "prefix": "", "user": {"location": {"city": "Auburn", "state": "AL", "country": "United States"}}}}]}}, {"id": 36632553, "seedNum": 15, "entrant": {"id": 21278706, "name": "Tyme", "participants": [{"id": 19564206, "gamerTag": "Tyme", "prefix": null, "user": {"location": {"city": null, "state": null, "country": null}}, "player": {"id": 325589, "gamerTag": "Tyme", "prefix": null, "user": {"location": {"city": null, "state": null, "country": null}}}}]}}, {"id": 36583595, "seedNum": 16, "entrant": {"id": 21244255, "name": "Deign", "participants": [{"id": 19536135, "gamerTag": "Deign", "prefix": "", "user": {"location": {"city": null, "state": null, "country": "United States"}}, "player": {"id": 325595, "gamerTag": "Deign", "prefix": "", "user": {"location": {"city": null, "state": null, "country": "United States"}}}}]}}, {"id": 36633590, "seedNum": 17, "entrant": {"id": 21279526, "name": "Stenaven", "participants": [{"id": 19564796, "gamerTag": "Stenaven", "prefix": "", "user": {"location": {"city": "", "state": "GA", "country": "United States"}}, "player": {"id": 229871, "gamerTag": "Stenaven", "prefix": "", "user": {"location": {"city": "", "state": "GA", "country": "United States"}}}}]}}, {"id": 36628223, "seedNum": 18, "entrant": {"id": 21275586, "name": "TSOAP | MuchOlmec", "participants": [{"id": 19562524, "gamerTag": "MuchOlmec", "prefix": "TSOAP", "user": {"location": {"city": "Athens", "state": "GA", "country": "United States"}}, "player": {"id": 1105460, "gamerTag": "MuchOlmec", "prefix": "TSOAP", "user": {"location": {"city": "Athens", "state": "GA", "country": "United States"}}}}]}}, {"id": 36627552, "seedNum": 19, "entrant": {"id": 21275082, "name": "Permafrost", "participants": [{"id": 19561988, "gamerTag": "Permafrost", "prefix": "", "user": {"location": {"city": "Atlanta", "state": "GA", "country": "United States"}}, "player": {"id": 1256898, "gamerTag": "Permafrost", "prefix": "", "user": {"location": {"city": "Atlanta", "state": "GA", "country": "United States"}}}}]}}, {"id": 36619945, "seedNum": 20, "entrant": {"id": 21269875, "name": "RtB | RepentMF", "participants": [{"id": 19557738, "gamerTag": "RepentMF", "prefix": "RtB", "user": {"location": {"city": "Auburn", "state": "GA", "country": "United States"}}, "player": {"id": 3221693, "gamerTag": "RepentMF", "prefix": null, "user": {"location": {"city": "Auburn", "state": "GA", "country": "United States"}}}}]}}, {"id": 36620006, "seedNum": 21, "entrant": {"id": 21269925, "name": "TPS | $CAITLIN", "participants": [{"id": 19557776, "gamerTag": "$CAITLIN", "prefix": "TPS", "user": {"location": {"city": "Acworth", "state": "GA", "country": "United States"}}, "player": {"id": 3422494, "gamerTag": "$CAITLIN", "prefix": "TPS", "user": {"location": {"city": "Acworth", "state": "GA", "country": "United States"}}}}]}}, {"id": 36628291, "seedNum": 22, "entrant": {"id": 21275622, "name": "pbravo", "participants": [{"id": 19562566, "gamerTag": "pbravo", "prefix": null, "user": {"location": {"city": null, "state": null, "country": null}}, "player": {"id": 3427349, "gamerTag": "pbravo", "prefix": null, "user": {"location": {"city": null, "state": null, "country": null}}}}]}}]}}}