{"event": {"sets": {"pageInfo": {"totalPages": 1, "total": 3}, "nodes": [{"id": 93012711, "state": 3, "round": 3, "fullRoundText": "Round 3", "completedAt": 1755990496, "winnerId": 21053052, "slots": [{"id": "93012711-0", "entrant": {"id": 20992039, "name": "Skate", "participants": [{"id": 19310629, "gamerTag": "Skate", "prefix": null, "user": {"location": {"city": null, "state": null, "country": "United States"}}, "player": {"id": 4045198, "gamerTag": "Skate", "prefix": null, "user": {"location": {"city": null, "state": null, "country": "United States"}}}}]}, "standing": {"placement": 2, "stats": {"score": {"value": 2}}}}, {"id": "93012711-1", "entrant": {"id": 21053052, "name": "ZB | lupeslounge", "participants": [{"id": 19366287, "gamerTag": "lupeslounge", "prefix": "ZB", "user": {"location": {"city": "Morrow", "state": "GA", "country": "United States"}}, "player": {"id": 303516, "gamerTag": "lupeslounge", "prefix": "ZB", "user": {"location": {"city": "Morrow", "state": "GA", "country": "United States"}}}}]}, "standing": {"placement": 1, "stats": {"score": {"value": 3}}}}], "games": null}, {"id": 93012710, "state": 3, "round": 2, "fullRoundText": "Round 2", "completedAt": 1755989685, "winnerId": 21054230, "slots": [{"id": "93012710-0", "entrant": {"id": 20992039, "name": "Skate", "participants": [{"id": 19310629, "gamerTag": "Skate", "prefix": null, "user": {"location": {"city": null, "state": null, "country": "United States"}}, "player": {"id": 4045198, "gamerTag": "Skate", "prefix": null, "user": {"location": {"city": null, "state": null, "country": "United States"}}}}]}, "standing": {"placement": 2, "stats": {"score": {"value": 0}}}}, {"id": "93012710-1", "entrant": {"id": 21054230, "name": "Crum", "participants": [{"id": 19367306, "gamerTag": "Crum", "prefix": "", "user": {"location": {"city": "Fairburn", "state": "GA", "country": "United States"}}, "player": {"id": 422150, "gamerTag": "Crum", "prefix": "", "user": {"location": {"city": "Fairburn", "state": "GA", "country": "United States"}}}}]}, "standing": {"placement": 1, "stats": {"score": {"value": 3}}}}], "games": null}, {"id": 93012709, "state": 3, "round": 1, "fullRoundText": "Round 1", "completedAt": 1755987788, "winnerId": 21054230, "slots": [{"id": "93012709-0", "entrant": {"id": 21053052, "name": "ZB | lupeslounge", "participants": [{"id": 19366287, "gamerTag": "lupeslounge", "prefix": "ZB", "user": {"location": {"city": "Morrow", "state": "GA", "country": "United States"}}, "player": {"id": 303516, "gamerTag": "lupeslounge", "prefix": "ZB", "user": {"location": {"city": "Morrow", "state": "GA", "country": "United States"}}}}]}, "standing": {"placement": 2, "stats": {"score": {"value": 0}}}}, {"id": "93012709-1", "entrant": {"id": 21054230, "name": "Crum", "participants": [{"id": 19367306, "gamerTag": "Crum", "prefix": "", "user": {"location": {"city": "Fairburn", "state": "GA", "country": "United States"}}, "player": {"id": 422150, "gamerTag": "Crum", "prefix": "", "user": {"location": {"city": "Fairburn", "state": "GA", "country": "United States"}}}}]}, "standing": {"placement": 1, "stats": {"score": {"value": 3}}}}], "games": null}]}}}