{"event": {"sets": {"pageInfo": {"totalPages": 4, "total": 58}, "nodes": [{"id": 93924496, "state": 3, "round": 3, "fullRoundText": "Grand Final", "completedAt": 1757910504, "winnerId": 21269461, "slots": [{"id": "93924496-0", "entrant": {"id": 21269461, "name": "WFF | Happy", "participants": [{"id": 19557420, "gamerTag": "Happy", "prefix": "WFF", "user": {"location": {"city": "Peachtree CIty", "state": "GA", "country": "United States"}}, "player": {"id": 1383907, "gamerTag": "Happy", "prefix": "WFF", "user": {"location": {"city": "Peachtree CIty", "state": "GA", "country": "United States"}}}}]}, "standing": {"placement": 1, "stats": {"score": {"value": 3}}}}, {"id": "93924496-1", "entrant": {"id": 21269500, "name": "Heart", "participants": [{"id": 19555339, "gamerTag": "Heart", "prefix": "", "user": {"location": {"city": "Atlanta", "state": "GA", "country": "United States"}}, "player": {"id": 4287822, "gamerTag": "Heart", "prefix": "", "user": {"location": {"city": "Atlanta", "state": "GA", "country": "United States"}}}}]}, "standing": {"placement": 2, "stats": {"score": {"value": 1}}}}], "games": [{"id": 32617658, "orderNum": 1, "winnerId": 21269461, "entrant1Score": null, "entrant2Score": 0, "stage": null, "selections": [{"id": 48094736, "selectionType": "CHARACTER", "selectionValue": 1795, "entrant": {"id": 21269461}, "character": {"id": 1795, "name": "Pyra & Mythra"}}, {"id": 48094737, "selectionType": "CHARACTER", "selectionValue": 1317, "entrant": {"id": 21269500}, "character": {"id": 1317, "name": "Peach"}}]}, {"id": 32617659, "orderNum": 2, "winnerId": 21269500, "entrant1Score": 0, "entrant2Score": null, "stage": null, "selections": [{"id": 48094738, "selectionType": "CHARACTER", "selectionValue": 1795, "entrant": {"id": 21269461}, "character": {"id": 1795, "name": "Pyra & Mythra"}}, {"id": 48094739, "selectionType": "CHARACTER", "selectionValue": 1317, "entrant": {"id": 21269500}, "character": {"id": 1317, "name": "Peach"}}]}, {"id": 32617660, "orderNum": 3, "winnerId": 21269461, "entrant1Score": null, "entrant2Score": 0, "stage": null, "selections": [{"id": 48094740, "selectionType": "CHARACTER", "selectionValue": 1276, "entrant": {"id": 21269461}, "character": {"id": 1276, "name": "Corrin"}}, {"id": 48094741, "selectionType": "CHARACTER", "selectionValue": 1317, "entrant": {"id": 21269500}, "character": {"id": 1317, "name": "Peach"}}]}, {"id": 32617661, "orderNum": 4, "winnerId": 21269461, "entrant1Score": null, "entrant2Score": 0, "stage": null, "selections": [{"id": 48094742, "selectionType": "CHARACTER", "selectionValue": 1276, "entrant": {"id": 21269461}, "character": {"id": 1276, "name": "Corrin"}}, {"id": 48094743, "selectionType": "CHARACTER", "selectionValue": 1271, "entrant": {"id": 21269500}, "character": {"id": 1271, "name": "Bayonetta"}}]}]}, {"id": 93924458, "state": 3, "round": 3, "fullRoundText": "Winners Semi-Final", "completedAt": 1757899796, "winnerId": 21269500, "slots": [{"id": "93924458-0", "entrant": {"id": 21269500, "name": "Heart", "participants": [{"id": 19555339, "gamerTag": "Heart", "prefix": "", "user": {"location": {"city": "Atlanta", "state": "GA", "country": "United States"}}, "player": {"id": 4287822, "gamerTag": "Heart", "prefix": "", "user": {"location": {"city": "Atlanta", "state": "GA", "country": "United States"}}}}]}, "standing": {"placement": 1, "stats": {"score": {"value": 2}}}}, {"id": "93924458-1", "entrant": {"id": 21269304, "name": "TFT | BigCheese", "participants": [{"id": 19557285, "gamerTag": "BigCheese", "prefix": "TFT", "user": {"location": {"city": null, "state": null, "country": null}}, "player": {"id": 3991446, "gamerTag": "BigCheese", "prefix": "TFT", "user": {"location": {"city": null, "state": null, "country": null}}}}]}, "standing": {"placement": 2, "stats": {"score": {"value": 0}}}}], "games": null}, {"id": 93924125, "state": 3, "round": 3, "fullRoundText": "Winners Semi-Final", "completedAt": 1757901149, "winnerId": 21269453, "slots": [{"id": "93924125-0", "entrant": {"id": 21269270, "name": "TnT | Sid", "participants": [{"id": 19557262, "gamerTag": "Sid", "prefix": "TnT", "user": {"location": {"city": "Powder Springs", "state": "GA", "country": "United States"}}, "player": {"id": 1229067, "gamerTag": "Sid", "prefix": "TnT", "user": {"location": {"city": "Powder Springs", "state": "GA", "country": "United States"}}}}]}, "standing": {"placement": 2, "stats": {"score": {"value": 0}}}}, {"id": "93924125-1", "entrant": {"id": 21269453, "name": "Jdaddy", "participants": [{"id": 19557412, "gamerTag": "Jdaddy", "prefix": null, "user": {"location": {"city": "Atlanta", "state": "GA", "country": "United States"}}, "player": {"id": 4384721, "gamerTag": "Jdaddy", "prefix": null, "user": {"location": {"city": "Atlanta", "state": "GA", "country": "United States"}}}}]}, "standing": {"placement": 1, "stats": {"score": {"value": 2}}}}], "games": null}, {"id": 93924126, "state": 3, "round": 3, "fullRoundText": "Winners Semi-Final", "completedAt": 1757904193, "winnerId": 21269461, "slots": [{"id": "93924126-0", "entrant": {"id": 21269461, "name": "WFF | Happy", "participants": [{"id": 19557420, "gamerTag": "Happy", "prefix": "WFF", "user": {"location": {"city": "Peachtree CIty", "state": "GA", "country": "United States"}}, "player": {"id": 1383907, "gamerTag": "Happy", "prefix": "WFF", "user": {"location": {"city": "Peachtree CIty", "state": "GA", "country": "United States"}}}}]}, "standing": {"placement": 1, "stats": {"score": {"value": 2}}}}, {"id": "93924126-1", "entrant": {"id": 21268937, "name": "TnT | Damp\u00e9", "participants": [{"id": 19556966, "gamerTag": "Damp\u00e9", "prefix": "TnT", "user": {"location": {"city": "Atlanta", "state": "GA", "country": "United States"}}, "player": {"id": 1170738, "gamerTag": "Damp\u00e9", "prefix": "TnT", "user": {"location": {"city": "Atlanta", "state": "GA", "country": "United States"}}}}]}, "standing": {"placement": 2, "stats": {"score": {"value": 1}}}}], "games": [{"id": 32616498, "orderNum": 1, "winnerId": 21268937, "entrant1Score": 0, "entrant2Score": null, "stage": null, "selections": [{"id": 48092706, "selectionType": "CHARACTER", "selectionValue": 1286, "entrant": {"id": 21268937}, "character": {"id": 1286, "name": "Fox"}}, {"id": 48092707, "selectionType": "CHARACTER", "selectionValue": 1795, "entrant": {"id": 21269461}, "character": {"id": 1795, "name": "Pyra & Mythra"}}]}, {"id": 32616499, "orderNum": 2, "winnerId": 21269461, "entrant1Score": null, "entrant2Score": 0, "stage": null, "selections": [{"id": 48092708, "selectionType": "CHARACTER", "selectionValue": 1286, "entrant": {"id": 21268937}, "character": {"id": 1286, "name": "Fox"}}, {"id": 48092709, "selectionType": "CHARACTER", "selectionValue": 1795, "entrant": {"id": 21269461}, "character": {"id": 1795, "name": "Pyra & Mythra"}}]}, {"id": 32616500, "orderNum": 3, "winnerId": 21269461, "entrant1Score": null, "entrant2Score": 0, "stage": null, "selections": [{"id": 48092710, "selectionType": "CHARACTER", "selectionValue": 1286, "entrant": {"id": 21268937}, "character": {"id": 1286, "name": "Fox"}}, {"id": 48092711, "selectionType": "CHARACTER", "selectionValue": 1795, "entrant": {"id": 21269461}, "character": {"id": 1795, "name": "Pyra & Mythra"}}]}]}, {"id": 93924459, "state": 3, "round": 3, "fullRoundText": "Winners Semi-Final", "completedAt": 1757901825, "winnerId": 21269469, "slots": [{"id": "93924459-0", "entrant": {"id": 21269182, "name": "SamRice", "participants": [{"id": 19557183, "gamerTag": "SamRice", "prefix": "", "user": {"location": {"city": "Norcross", "state": "GA", "country": "United States"}}, "player": {"id": 2387403, "gamerTag": "SamRice", "prefix": "", "user": {"location": {"city": "Norcross", "state": "GA", "country": "United States"}}}}]}, "standing": {"placement": 2, "stats": {"score": {"value": 0}}}}, {"id": "93924459-1", "entrant": {"id": 21269469, "name": "TFT | RoKu", "participants": [{"id": 19557430, "gamerTag": "RoKu", "prefix": "TFT", "user": {"location": {"city": "Peachtree Corners", "state": "GA", "country": "United States"}}, "player": {"id": 1107285, "gamerTag": "RoKu", "prefix": "TFT", "user": {"location": {"city": "Peachtree Corners", "state": "GA", "country": "United States"}}}}]}, "standing": {"placement": 1, "stats": {"score": {"value": 2}}}}], "games": null}, {"id": 93924490, "state": 3, "round": -6, "fullRoundText": "Losers Quarter-Final", "completedAt": 1757902495, "winnerId": 21264569, "slots": [{"id": "93924490-0", "entrant": {"id": 21269182, "name": "SamRice", "participants": [{"id": 19557183, "gamerTag": "SamRice", "prefix": "", "user": {"location": {"city": "Norcross", "state": "GA", "country": "United States"}}, "player": {"id": 2387403, "gamerTag": "SamRice", "prefix": "", "user": {"location": {"city": "Norcross", "state": "GA", "country": "United States"}}}}]}, "standing": {"placement": 2, "stats": {"score": {"value": 0}}}}, {"id": "93924490-1", "entrant": {"id": 21264569, "name": "TFT | ALLEYCAT", "participants": [{"id": 19553441, "gamerTag": "ALLEYCAT", "prefix": "TFT", "user": {"location": {"city": "Atlanta", "state": "GA", "country": "United States"}}, "player": {"id": 1940654, "gamerTag": "ALLEYCAT", "prefix": "TFT", "user": {"location": {"city": "Atlanta", "state": "GA", "country": "United States"}}}}]}, "standing": {"placement": 1, "stats": {"score": {"value": 2}}}}], "games": null}, {"id": 93924157, "state": 3, "round": -6, "fullRoundText": "Losers Quarter-Final", "completedAt": 1757902961, "winnerId": 21268937, "slots": [{"id": "93924157-0", "entrant": {"id": 21268937, "name": "TnT | Damp\u00e9", "participants": [{"id": 19556966, "gamerTag": "Damp\u00e9", "prefix": "TnT", "user": {"location": {"city": "Atlanta", "state": "GA", "country": "United States"}}, "player": {"id": 1170738, "gamerTag": "Damp\u00e9", "prefix": "TnT", "user": {"location": {"city": "Atlanta", "state": "GA", "country": "United States"}}}}]}, "standing": {"placement": 1, "stats": {"score": {"value": 2}}}}, {"id": "93924157-1", "entrant": {"id": 21264240, "name": "Mickeydeez", "participants": [{"id": 19553120, "gamerTag": "Mickeydeez", "prefix": "", "user": {"location": {"city": "Atlanta", "state": "GA", "country": "United States"}}, "player": {"id": 4825580, "gamerTag": "Mickeydeez", "prefix": "", "user": {"location": {"city": "Atlanta", "state": "GA", "country": "United States"}}}}]}, "standing": {"placement": 2, "stats": {"score": {"value": 1}}}}], "games": null}, {"id": 93924489, "state": 3, "round": -6, "fullRoundText": "Losers Quarter-Final", "completedAt": 1757901296, "winnerId": 21269458, "slots": [{"id": "93924489-0", "entrant": {"id": 21269304, "name": "TFT | BigCheese", "participants": [{"id": 19557285, "gamerTag": "BigCheese", "prefix": "TFT", "user": {"location": {"city": null, "state": null, "country": null}}, "player": {"id": 3991446, "gamerTag": "BigCheese", "prefix": "TFT", "user": {"location": {"city": null, "state": null, "country": null}}}}]}, "standing": {"placement": 2, "stats": {"score": {"value": 1}}}}, {"id": "93924489-1", "entrant": {"id": 21269458, "name": "WeFarmFrank | Gorilla Glue", "participants": [{"id": 19557417, "gamerTag": "Gorilla Glue", "prefix": "WeFarmFrank", "user": {"location": {"city": "Atlanta", "state": "GA", "country": "United States"}}, "player": {"id": 1810274, "gamerTag": "Planet Of Da", "prefix": "WeFarmFrank", "user": {"location": {"city": "Atlanta", "state": "GA", "country": "United States"}}}}]}, "standing": {"placement": 1, "stats": {"score": {"value": 2}}}}], "games": null}, {"id": 93924156, "state": 3, "round": -6, "fullRoundText": "Losers Quarter-Final", "completedAt": 1757902763, "winnerId": 21269270, "slots": [{"id": "93924156-0", "entrant": {"id": 21269270, "name": "TnT | Sid", "participants": [{"id": 19557262, "gamerTag": "Sid", "prefix": "TnT", "user": {"location": {"city": "Powder Springs", "state": "GA", "country": "United States"}}, "player": {"id": 1229067, "gamerTag": "Sid", "prefix": "TnT", "user": {"location": {"city": "Powder Springs", "state": "GA", "country": "United States"}}}}]}, "standing": {"placement": 1, "stats": {"score": {"value": 2}}}}, {"id": "93924156-1", "entrant": {"id": 21265906, "name": "MONEY | ImNoPro", "participants": [{"id": 19554510, "gamerTag": "ImNoPro", "prefix": "MONEY", "user": {"location": {"city": "Calhoun", "state": "GA", "country": "United States"}}, "player": {"id": 2149803, "gamerTag": "ImNoPro", "prefix": "MONEY", "user": {"location": {"city": "Calhoun", "state": "GA", "country": "United States"}}}}]}, "standing": {"placement": 2, "stats": {"score": {"value": 1}}}}], "games": null}, {"id": 93924154, "state": 3, "round": -5, "fullRoundText": "Losers Round 3", "completedAt": 1757901924, "winnerId": 21265906, "slots": [{"id": "93924154-0", "entrant": {"id": 21265906, "name": "MONEY | ImNoPro", "participants": [{"id": 19554510, "gamerTag": "ImNoPro", "prefix": "MONEY", "user": {"location": {"city": "Calhoun", "state": "GA", "country": "United States"}}, "player": {"id": 2149803, "gamerTag": "ImNoPro", "prefix": "MONEY", "user": {"location": {"city": "Calhoun", "state": "GA", "country": "United States"}}}}]}, "standing": {"placement": 1, "stats": {"score": {"value": 2}}}}, {"id": "93924154-1", "entrant": {"id": 21265186, "name": "RAMS | RussianJesus", "participants": [{"id": 19553907, "gamerTag": "RussianJesus", "prefix": "RAMS", "user": {"location": {"city": "Atlanta", "state": "GA", "country": "United States"}}, "player": {"id": 1140567, "gamerTag": "RussianJesus", "prefix": "RAMS", "user": {"location": {"city": "Atlanta", "state": "GA", "country": "United States"}}}}]}, "standing": {"placement": 2, "stats": {"score": {"value": 0}}}}], "games": null}, {"id": 93924487, "state": 3, "round": -5, "fullRoundText": "Losers Round 3", "completedAt": 1757900466, "winnerId": 21269458, "slots": [{"id": "93924487-0", "entrant": {"id": 21265820, "name": "Yehtu", "participants": [{"id": 19554427, "gamerTag": "Yehtu", "prefix": null, "user": {"location": {"city": null, "state": null, "country": null}}, "player": {"id": 2230310, "gamerTag": "Yehtu", "prefix": null, "user": {"location": {"city": null, "state": null, "country": null}}}}]}, "standing": {"placement": 2, "stats": {"score": {"value": 1}}}}, {"id": "93924487-1", "entrant": {"id": 21269458, "name": "WeFarmFrank | Gorilla Glue", "participants": [{"id": 19557417, "gamerTag": "Gorilla Glue", "prefix": "WeFarmFrank", "user": {"location": {"city": "Atlanta", "state": "GA", "country": "United States"}}, "player": {"id": 1810274, "gamerTag": "Planet Of Da", "prefix": "WeFarmFrank", "user": {"location": {"city": "Atlanta", "state": "GA", "country": "United States"}}}}]}, "standing": {"placement": 1, "stats": {"score": {"value": 2}}}}], "games": null}, {"id": 93924488, "state": 3, "round": -5, "fullRoundText": "Losers Round 3", "completedAt": 1757900796, "winnerId": 21264569, "slots": [{"id": "93924488-0", "entrant": {"id": 21264569, "name": "TFT | ALLEYCAT", "participants": [{"id": 19553441, "gamerTag": "ALLEYCAT", "prefix": "TFT", "user": {"location": {"city": "Atlanta", "state": "GA", "country": "United States"}}, "player": {"id": 1940654, "gamerTag": "ALLEYCAT", "prefix": "TFT", "user": {"location": {"city": "Atlanta", "state": "GA", "country": "United States"}}}}]}, "standing": {"placement": 1, "stats": {"score": {"value": 2}}}}, {"id": "93924488-1", "entrant": {"id": 21269232, "name": "Zarek", "participants": [{"id": 19557227, "gamerTag": "Zarek", "prefix": "", "user": {"location": {"city": "Atlanta", "state": "GA", "country": "United States"}}, "player": {"id": 405682, "gamerTag": "Zarek", "prefix": "", "user": {"location": {"city": "Atlanta", "state": "GA", "country": "United States"}}}}]}, "standing": {"placement": 2, "stats": {"score": {"value": 0}}}}], "games": [{"id": 32615686, "orderNum": 1, "winnerId": 21264569, "entrant1Score": null, "entrant2Score": 0, "stage": {"id": 378, "name": "Pok\u00e9mon Stadium 2"}, "selections": [{"id": 48091127, "selectionType": "CHARACTER", "selectionValue": 1341, "entrant": {"id": 21264569}, "character": {"id": 1341, "name": "Zero Suit Samus"}}, {"id": 48091128, "selectionType": "CHARACTER", "selectionValue": 1315, "entrant": {"id": 21269232}, "character": {"id": 1315, "name": "Pac-Man"}}]}, {"id": 32615687, "orderNum": 2, "winnerId": 21264569, "entrant1Score": null, "entrant2Score": 0, "stage": {"id": 378, "name": "Pok\u00e9mon Stadium 2"}, "selections": [{"id": 48091129, "selectionType": "CHARACTER", "selectionValue": 1341, "entrant": {"id": 21264569}, "character": {"id": 1341, "name": "Zero Suit Samus"}}, {"id": 48091130, "selectionType": "CHARACTER", "selectionValue": 1338, "entrant": {"id": 21269232}, "character": {"id": 1338, "name": "Yoshi"}}]}]}, {"id": 93924155, "state": 3, "round": -5, "fullRoundText": "Losers Round 3", "completedAt": 1757901944, "winnerId": 21264240, "slots": [{"id": "93924155-0", "entrant": {"id": 21269455, "name": "TFT | TFT - Guillotine", "participants": [{"id": 19557414, "gamerTag": "TFT - Guillotine", "prefix": "TFT", "user": {"location": {"city": "Atlanta", "state": "GA", "country": "United States"}}, "player": {"id": 4263821, "gamerTag": "TFT - Guillotine", "prefix": "TFT", "user": {"location": {"city": "Atlanta", "state": "GA", "country": "United States"}}}}]}, "standing": {"placement": 2, "stats": {"score": {"value": 0}}}}, {"id": "93924155-1", "entrant": {"id": 21264240, "name": "Mickeydeez", "participants": [{"id": 19553120, "gamerTag": "Mickeydeez", "prefix": "", "user": {"location": {"city": "Atlanta", "state": "GA", "country": "United States"}}, "player": {"id": 4825580, "gamerTag": "Mickeydeez", "prefix": "", "user": {"location": {"city": "Atlanta", "state": "GA", "country": "United States"}}}}]}, "standing": {"placement": 1, "stats": {"score": {"value": 2}}}}], "games": null}, {"id": 93924495, "state": 3, "round": 2, "fullRoundText": "Winners Final", "completedAt": 1757908171, "winnerId": 21269461, "slots": [{"id": "93924495-0", "entrant": {"id": 21269461, "name": "WFF | Happy", "participants": [{"id": 19557420, "gamerTag": "Happy", "prefix": "WFF", "user": {"location": {"city": "Peachtree CIty", "state": "GA", "country": "United States"}}, "player": {"id": 1383907, "gamerTag": "Happy", "prefix": "WFF", "user": {"location": {"city": "Peachtree CIty", "state": "GA", "country": "United States"}}}}]}, "standing": {"placement": 1, "stats": {"score": {"value": 3}}}}, {"id": "93924495-1", "entrant": {"id": 21269500, "name": "Heart", "participants": [{"id": 19555339, "gamerTag": "Heart", "prefix": "", "user": {"location": {"city": "Atlanta", "state": "GA", "country": "United States"}}, "player": {"id": 4287822, "gamerTag": "Heart", "prefix": "", "user": {"location": {"city": "Atlanta", "state": "GA", "country": "United States"}}}}]}, "standing": {"placement": 2, "stats": {"score": {"value": 2}}}}], "games": [{"id": 32617311, "orderNum": 1, "winnerId": 21269461, "entrant1Score": null, "entrant2Score": 0, "stage": null, "selections": [{"id": 48094151, "selectionType": "CHARACTER", "selectionValue": 1795, "entrant": {"id": 21269461}, "character": {"id": 1795, "name": "Pyra & Mythra"}}, {"id": 48094152, "selectionType": "CHARACTER", "selectionValue": 1317, "entrant": {"id": 21269500}, "character": {"id": 1317, "name": "Peach"}}]}, {"id": 32617312, "orderNum": 2, "winnerId": 21269500, "entrant1Score": 0, "entrant2Score": null, "stage": null, "selections": [{"id": 48094153, "selectionType": "CHARACTER", "selectionValue": 1795, "entrant": {"id": 21269461}, "character": {"id": 1795, "name": "Pyra & Mythra"}}, {"id": 48094154, "selectionType": "CHARACTER", "selectionValue": 1317, "entrant": {"id": 21269500}, "character": {"id": 1317, "name": "Peach"}}]}, {"id": 32617313, "orderNum": 3, "winnerId": 21269461, "entrant1Score": null, "entrant2Score": 0, "stage": null, "selections": [{"id": 48094155, "selectionType": "CHARACTER", "selectionValue": 1795, "entrant": {"id": 21269461}, "character": {"id": 1795, "name": "Pyra & Mythra"}}, {"id": 48094156, "selectionType": "CHARACTER", "selectionValue": 1317, "entrant": {"id": 21269500}, "character": {"id": 1317, "name": "Peach"}}]}, {"id": 32617314, "orderNum": 4, "winnerId": 21269500, "entrant1Score": 0, "entrant2Score": null, "stage": null, "selections": [{"id": 48094157, "selectionType": "CHARACTER", "selectionValue": 1795, "entrant": {"id": 21269461}, "character": {"id": 1795, "name": "Pyra & Mythra"}}, {"id": 48094158, "selectionType": "CHARACTER", "selectionValue": 1317, "entrant": {"id": 21269500}, "character": {"id": 1317, "name": "Peach"}}]}, {"id": 32617315, "orderNum": 5, "winnerId": 21269461, "entrant1Score": 0, "entrant2Score": 0, "stage": null, "selections": [{"id": 48094159, "selectionType": "CHARACTER", "selectionValue": 1276, "entrant": {"id": 21269461}, "character": {"id": 1276, "name": "Corrin"}}, {"id": 48094160, "selectionType": "CHARACTER", "selectionValue": 1317, "entrant": {"id": 21269500}, "character": {"id": 1317, "name": "Peach"}}]}]}, {"id": 93924121, "state": 3, "round": 2, "fullRoundText": "Winners Quarter-Final", "completedAt": 1757899944, "winnerId": 21269270, "slots": [{"id": "93924121-0", "entrant": {"id": 21269270, "name": "TnT | Sid", "participants": [{"id": 19557262, "gamerTag": "Sid", "prefix": "TnT", "user": {"location": {"city": "Powder Springs", "state": "GA", "country": "United States"}}, "player": {"id": 1229067, "gamerTag": "Sid", "prefix": "TnT", "user": {"location": {"city": "Powder Springs", "state": "GA", "country": "United States"}}}}]}, "standing": {"placement": 1, "stats": {"score": {"value": 2}}}}, {"id": "93924121-1", "entrant": {"id": 21264240, "name": "Mickeydeez", "participants": [{"id": 19553120, "gamerTag": "Mickeydeez", "prefix": "", "user": {"location": {"city": "Atlanta", "state": "GA", "country": "United States"}}, "player": {"id": 4825580, "gamerTag": "Mickeydeez", "prefix": "", "user": {"location": {"city": "Atlanta", "state": "GA", "country": "United States"}}}}]}, "standing": {"placement": 2, "stats": {"score": {"value": 0}}}}], "games": null}]}}}