{"phase": {"seeds": {"pageInfo": {"totalPages": 1, "total": 13}, "nodes": [{"id": 36959870, "seedNum": 4, "entrant": {"id": 21506862, "name": "BOLT | KhalRhaego", "participants": [{"id": 19763543, "gamerTag": "KhalRhaego", "prefix": "BOLT", "user": {"location": {"city": "Jonesboro", "state": "GA", "country": "United States"}}, "player": {"id": 4076327, "gamerTag": "KhalRhaego", "prefix": "BOLT", "user": {"location": {"city": "Jonesboro", "state": "GA", "country": "United States"}}}}]}}, {"id": 36959753, "seedNum": 3, "entrant": {"id": 21506783, "name": "Iso.Dgaf", "participants": [{"id": 19763470, "gamerTag": "Iso.Dgaf", "prefix": null, "user": {"location": {"city": "Acworth", "state": "GA", "country": "United States"}}, "player": {"id": 4285541, "gamerTag": "Iso.Dgaf", "prefix": null, "user": {"location": {"city": "Acworth", "state": "GA", "country": "United States"}}}}]}}, {"id": 36988086, "seedNum": 6, "entrant": {"id": 21526958, "name": "Reboot | ohitshutch", "participants": [{"id": 19780967, "gamerTag": "ohitshutch", "prefix": "Reboot", "user": {"location": {"city": "Macon", "state": "GA", "country": "United States"}}, "player": {"id": 541397, "gamerTag": "ohitshutch", "prefix": "Reboot", "user": {"location": {"city": "Macon", "state": "GA", "country": "United States"}}}}]}}, {"id": 36989431, "seedNum": 7, "entrant": {"id": 21528100, "name": "Macho_Franchise", "participants": [{"id": 19782013, "gamerTag": "Macho_Franchise", "prefix": null, "user": {"location": {"city": "Marietta", "state": "GA", "country": "United States"}}, "player": {"id": 874463, "gamerTag": "Macho_Franchise", "prefix": null, "user": {"location": {"city": "Marietta", "state": "GA", "country": "United States"}}}}]}}, {"id": 36987501, "seedNum": 1, "entrant": {"id": 21526579, "name": "TheJestur", "participants": [{"id": 19780631, "gamerTag": "TheJestur", "prefix": "", "user": {"location": {"city": "Warner Robins", "state": null, "country": "United States"}}, "player": {"id": 609621, "gamerTag": "TheJestur", "prefix": "", "user": {"location": {"city": "Warner Robins", "state": null, "country": "United States"}}}}]}}, {"id": 36916796, "seedNum": 5, "entrant": {"id": 21474594, "name": "HJE | LOL!", "participants": [{"id": 19734748, "gamerTag": "LOL!", "prefix": "HJE", "user": {"location": {"city": "Byron", "state": "GA", "country": "United States"}}, "player": {"id": 730420, "gamerTag": "LOL!", "prefix": "HJE", "user": {"location": {"city": "Byron", "state": "GA", "country": "United States"}}}}]}}, {"id": 36986919, "seedNum": 9, "entrant": {"id": 21526155, "name": "RBG | Cpain20", "participants": [{"id": 19780258, "gamerTag": "Cpain20", "prefix": "RBG", "user": {"location": {"city": "Macon", "state": "GA", "country": "United States"}}, "player": {"id": 1528477, "gamerTag": "Cpain20", "prefix": "RBG", "user": {"location": {"city": "Macon", "state": "GA", "country": "United States"}}}}]}}, {"id": 36964871, "seedNum": 12, "entrant": {"id": 21510861, "name": "BlazingFox", "participants": [{"id": 19767193, "gamerTag": "BlazingFox", "prefix": "", "user": {"location": {"city": "Byron", "state": null, "country": "United States"}}, "player": {"id": 592139, "gamerTag": "BlazingFox", "prefix": "", "user": {"location": {"city": "Byron", "state": null, "country": "United States"}}}}]}}, {"id": 36973744, "seedNum": 2, "entrant": {"id": 21516706, "name": "Midira", "participants": [{"id": 19772385, "gamerTag": "Midira", "prefix": null, "user": {"location": {"city": "Kathleen", "state": "GA", "country": "United States"}}, "player": {"id": 779164, "gamerTag": "Midira", "prefix": null, "user": {"location": {"city": "Kathleen", "state": "GA", "country": "United States"}}}}]}}, {"id": 36523977, "seedNum": 8, "entrant": {"id": 21203353, "name": "IcePac", "participants": [{"id": 19500055, "gamerTag": "IcePac", "prefix": null, "user": {"location": {"city": "Milledgeville", "state": "GA", "country": "United States"}}, "player": {"id": 3583587, "gamerTag": "IcePac", "prefix": null, "user": {"location": {"city": "Milledgeville", "state": "GA", "country": "United States"}}}}]}}, {"id": 36987068, "seedNum": 10, "entrant": {"id": 21526259, "name": "Savage", "participants": [{"id": 19780350, "gamerTag": "Savage", "prefix": null, "user": {"location": {"city": "macon", "state": "GA", "country": "United States"}}, "player": {"id": 3508118, "gamerTag": "Savage", "prefix": null, "user": {"location": {"city": "macon", "state": "GA", "country": "United States"}}}}]}}, {"id": 36969249, "seedNum": 11, "entrant": {"id": 21513588, "name": "Evernight", "participants": [{"id": 19769514, "gamerTag": "Evernight", "prefix": null, "user": {"location": {"city": "Macon", "state": "GA", "country": "United States"}}, "player": {"id": 548064, "gamerTag": "Evernight", "prefix": null, "user": {"location": {"city": "Macon", "state": "GA", "country": "United States"}}}}]}}, {"id": 36973749, "seedNum": 13, "entrant": {"id": 21516708, "name": "DirtyDan", "participants": [{"id": 19772388, "gamerTag": "DirtyDan", "prefix": "", "user": {"location": {"city": "Centerville", "state": "GA", "country": "United States"}}, "player": {"id": 1995257, "gamerTag": "DirtyDan", "prefix": "", "user": {"location": {"city": "Centerville", "state": "GA", "country": "United States"}}}}]}}]}}}