{"phase": {"seeds": {"pageInfo": {"totalPages": 1, "total": 15}, "nodes": [{"id": 36136132, "seedNum": 1, "entrant": {"id": 20953671, "name": "Alex_dotdot", "participants": [{"id": 19277703, "gamerTag": "Alex_dotdot", "prefix": null, "user": {"location": {"city": "Tucker", "state": "GA", "country": "United States"}}, "player": {"id": 657023, "gamerTag": "Alex_dotdot", "prefix": null, "user": {"location": {"city": "Tucker", "state": "GA", "country": "United States"}}}}]}}, {"id": 36135438, "seedNum": 2, "entrant": {"id": 20953139, "name": "4o4 | Musa", "participants": [{"id": 19277239, "gamerTag": "Musa", "prefix": "4o4", "user": {"location": {"city": null, "state": null, "country": "United States"}}, "player": {"id": 131537, "gamerTag": "Musa", "prefix": "4o4", "user": {"location": {"city": null, "state": null, "country": "United States"}}}}]}}, {"id": 36130141, "seedNum": 3, "entrant": {"id": 20949136, "name": "Noodle", "participants": [{"id": 19273872, "gamerTag": "Noodle", "prefix": null, "user": {"location": {"city": "McDonough", "state": "GA", "country": "United States"}}, "player": {"id": 3029288, "gamerTag": "Noodle", "prefix": "", "user": {"location": {"city": "McDonough", "state": "GA", "country": "United States"}}}}]}}, {"id": 36136064, "seedNum": 4, "entrant": {"id": 20953599, "name": "4o4 | Yugo", "participants": [{"id": 19277635, "gamerTag": "Yugo", "prefix": "4o4", "user": {"location": {"city": "Sandy springs", "state": "GA", "country": "United States"}}, "player": {"id": 338020, "gamerTag": "Yugo", "prefix": "4o4", "user": {"location": {"city": "Sandy springs", "state": "GA", "country": "United States"}}}}]}}, {"id": 36135096, "seedNum": 7, "entrant": {"id": 20952821, "name": "Leon Nights", "participants": [{"id": 19276965, "gamerTag": "Leon Nights", "prefix": null, "user": {"location": {"city": "Atlanta", "state": "GA", "country": "United States"}}, "player": {"id": 4752335, "gamerTag": "Leon Nights", "prefix": null, "user": {"location": {"city": "Atlanta", "state": "GA", "country": "United States"}}}}]}}, {"id": 36126391, "seedNum": 9, "entrant": {"id": 20947268, "name": "Brennan", "participants": [{"id": 19272101, "gamerTag": "Brennan", "prefix": "", "user": {"location": {"city": "Atlanta", "state": "GA", "country": "United States"}}, "player": {"id": 1856111, "gamerTag": "Brennan", "prefix": "", "user": {"location": {"city": "Atlanta", "state": "GA", "country": "United States"}}}}]}}, {"id": 36135539, "seedNum": 8, "entrant": {"id": 20953205, "name": "EDLN | Ultimaleo", "participants": [{"id": 19277299, "gamerTag": "Ultimaleo", "prefix": "EDLN", "user": {"location": {"city": "Norcross", "state": "GA", "country": "United States"}}, "player": {"id": 66886, "gamerTag": "Ultimaleo", "prefix": "EDLN", "user": {"location": {"city": "Norcross", "state": "GA", "country": "United States"}}}}]}}, {"id": 36136306, "seedNum": 12, "entrant": {"id": 20953772, "name": "Xangief", "participants": [{"id": 19277787, "gamerTag": "Xangief", "prefix": null, "user": {"location": {"city": "Atlanta", "state": "GA", "country": "United States"}}, "player": {"id": 135082, "gamerTag": "Xangief", "prefix": null, "user": {"location": {"city": "Atlanta", "state": "GA", "country": "United States"}}}}]}}, {"id": 36135112, "seedNum": 5, "entrant": {"id": 20952837, "name": "MBossProductions", "participants": [{"id": 19276979, "gamerTag": "MBossProductions", "prefix": "", "user": {"location": {"city": "Norcross", "state": "GA", "country": "United States"}}, "player": {"id": 1997490, "gamerTag": "MBossProductions", "prefix": "", "user": {"location": {"city": "Norcross", "state": "GA", "country": "United States"}}}}]}}, {"id": 36135352, "seedNum": 6, "entrant": {"id": 20953054, "name": "Archway", "participants": [{"id": 19277165, "gamerTag": "Archway", "prefix": "", "user": {"location": {"city": "Sandy Springs", "state": "GA", "country": "United States"}}, "player": {"id": 1435251, "gamerTag": "Archway", "prefix": "", "user": {"location": {"city": "Sandy Springs", "state": "GA", "country": "United States"}}}}]}}, {"id": 36134154, "seedNum": 10, "entrant": {"id": 20952058, "name": "Pazure", "participants": [{"id": 19276316, "gamerTag": "Pazure", "prefix": null, "user": {"location": {"city": null, "state": null, "country": "United States"}}, "player": {"id": 72218, "gamerTag": "Pazure", "prefix": null, "user": {"location": {"city": null, "state": null, "country": "United States"}}}}]}}, {"id": 36134693, "seedNum": 11, "entrant": {"id": 20952535, "name": "C$", "participants": [{"id": 19276723, "gamerTag": "C$", "prefix": "", "user": {"location": {"city": "Stone mountain", "state": "GA", "country": "United States"}}, "player": {"id": 1532681, "gamerTag": "C$", "prefix": "", "user": {"location": {"city": "Stone mountain", "state": "GA", "country": "United States"}}}}]}}, {"id": 36136270, "seedNum": 13, "entrant": {"id": 20953750, "name": "AntiMatterJ", "participants": [{"id": 19277766, "gamerTag": "AntiMatterJ", "prefix": "", "user": {"location": {"city": "Seattle", "state": "WA", "country": "United States"}}, "player": {"id": 528107, "gamerTag": "AntiMatterJ", "prefix": "", "user": {"location": {"city": "Seattle", "state": "WA", "country": "United States"}}}}]}}, {"id": 36102030, "seedNum": 14, "entrant": {"id": 20931101, "name": "BorrowedSquid", "participants": [{"id": 19257539, "gamerTag": "BorrowedSquid", "prefix": "", "user": {"location": {"city": "Kennesaw", "state": "GA", "country": "United States"}}, "player": {"id": 2425214, "gamerTag": "BorrowedSquid", "prefix": "", "user": {"location": {"city": "Kennesaw", "state": "GA", "country": "United States"}}}}]}}, {"id": 36134372, "seedNum": 15, "entrant": {"id": 20952232, "name": "promamamia", "participants": [{"id": 19276467, "gamerTag": "promamamia", "prefix": "", "user": {"location": {"city": "Alpharetta", "state": "GA", "country": "United States"}}, "player": {"id": 3548468, "gamerTag": "promamamia", "prefix": "", "user": {"location": {"city": "Alpharetta", "state": "GA", "country": "United States"}}}}]}}]}}}