{"phase": {"seeds": {"pageInfo": {"totalPages": 1, "total": 8}, "nodes": [{"id": 35819195, "seedNum": 1, "entrant": {"id": 20760758, "name": "knight", "participants": [{"id": 19106509, "gamerTag": "knight", "prefix": "", "user": {"location": {"city": "Greer", "state": "SC", "country": "United States"}}, "player": {"id": 717797, "gamerTag": "knight", "prefix": "", "user": {"location": {"city": "Greer", "state": "SC", "country": "United States"}}}}]}}, {"id": 35815564, "seedNum": 2, "entrant": {"id": 20758012, "name": "N/a | C$", "participants": [{"id": 19103766, "gamerTag": "C$", "prefix": "N/a", "user": {"location": null}, "player": {"id": 228175, "gamerTag": "C$", "prefix": "N/a", "user": {"location": null}}}]}}, {"id": 35817812, "seedNum": 3, "entrant": {"id": 20759766, "name": "NMBS | Phteven", "participants": [{"id": 19105454, "gamerTag": "Phteven", "prefix": "NMBS", "user": {"location": {"city": "Mableton", "state": "GA", "country": "United States"}}, "player": {"id": 209952, "gamerTag": "Phteven", "prefix": "NMBS", "user": {"location": {"city": "Mableton", "state": "GA", "country": "United States"}}}}]}}, {"id": 35819801, "seedNum": 4, "entrant": {"id": 20761470, "name": "Hello | wizard!!", "participants": [{"id": 19107215, "gamerTag": "wizard!!", "prefix": "Hello", "user": {"location": {"city": null, "state": null, "country": null}}, "player": {"id": 232585, "gamerTag": "wizard!!", "prefix": "Hello", "user": {"location": {"city": null, "state": null, "country": null}}}}]}}, {"id": 35816104, "seedNum": 5, "entrant": {"id": 20758457, "name": "noided", "participants": [{"id": 19104137, "gamerTag": "noided", "prefix": "", "user": {"location": {"city": "Atlanta", "state": "GA", "country": "United States"}}, "player": {"id": 2586521, "gamerTag": "noided", "prefix": "", "user": {"location": {"city": "Atlanta", "state": "GA", "country": "United States"}}}}]}}, {"id": 35816294, "seedNum": 6, "entrant": {"id": 20758581, "name": "KHW | Frumps", "participants": [{"id": 19104258, "gamerTag": "Frumps", "prefix": "KHW", "user": {"location": {"city": "Greenville", "state": "SC", "country": "United States"}}, "player": {"id": 2844590, "gamerTag": "Frumps", "prefix": "KHW", "user": {"location": {"city": "Greenville", "state": "SC", "country": "United States"}}}}]}}, {"id": 35815821, "seedNum": 7, "entrant": {"id": 20758250, "name": "CaPhe", "participants": [{"id": 19103948, "gamerTag": "CaPhe", "prefix": "", "user": {"location": {"city": "Atlanta", "state": "GA", "country": "United States"}}, "player": {"id": 1219139, "gamerTag": "CaPhe", "prefix": "", "user": {"location": {"city": "Atlanta", "state": "GA", "country": "United States"}}}}]}}, {"id": 35815981, "seedNum": 8, "entrant": {"id": 20758396, "name": "TriN", "participants": [{"id": 19104074, "gamerTag": "TriN", "prefix": "", "user": {"location": {"city": "Duluth", "state": "GA", "country": "United States"}}, "player": {"id": 3807669, "gamerTag": "TriN", "prefix": "", "user": {"location": {"city": "Duluth", "state": "GA", "country": "United States"}}}}]}}]}}}