{"phase": {"seeds": {"pageInfo": {"totalPages": 1, "total": 30}, "nodes": [{"id": 36136147, "seedNum": 1, "entrant": {"id": 20953687, "name": "GUMP2 | ToxiC", "participants": [{"id": 19277717, "gamerTag": "ToxiC", "prefix": "GUMP2", "user": {"location": {"city": "Marietta", "state": "GA", "country": "United States"}}, "player": {"id": 2585804, "gamerTag": "ToxiC", "prefix": "GUMP2", "user": {"location": {"city": "Marietta", "state": "GA", "country": "United States"}}}}]}}, {"id": 36145824, "seedNum": 2, "entrant": {"id": 20960851, "name": "TRAIN", "participants": [{"id": 19283686, "gamerTag": "TRAIN", "prefix": "", "user": {"location": {"city": "Fort Erie", "state": "ON", "country": "Canada"}}, "player": {"id": 160326, "gamerTag": "TRAIN", "prefix": "", "user": {"location": {"city": "Fort Erie", "state": "ON", "country": "Canada"}}}}]}}, {"id": 36144875, "seedNum": 3, "entrant": {"id": 20960115, "name": "GUMP2 | STiCK", "participants": [{"id": 19283079, "gamerTag": "STiCK", "prefix": "GUMP2", "user": {"location": {"city": "Woodstock", "state": "GA", "country": "United States"}}, "player": {"id": 282674, "gamerTag": "STiCK", "prefix": "GUMP2", "user": {"location": {"city": "Woodstock", "state": "GA", "country": "United States"}}}}]}}, {"id": 36147248, "seedNum": 4, "entrant": {"id": 20961835, "name": "GUMP2 | JankTrees!", "participants": [{"id": 19284563, "gamerTag": "JankTrees!", "prefix": "GUMP2", "user": {"location": {"city": "Cartersville", "state": "GA", "country": "United States"}}, "player": {"id": 35695, "gamerTag": "JankTrees!", "prefix": "GUMP2", "user": {"location": {"city": "Cartersville", "state": "GA", "country": "United States"}}}}]}}, {"id": 36146764, "seedNum": 5, "entrant": {"id": 20961483, "name": "GG | varunk", "participants": [{"id": 19284257, "gamerTag": "varunk", "prefix": "GG", "user": {"location": {"city": "Marietta", "state": "GA", "country": "United States"}}, "player": {"id": 1653684, "gamerTag": "varunk", "prefix": "GG", "user": {"location": {"city": "Marietta", "state": "GA", "country": "United States"}}}}]}}, {"id": 36142210, "seedNum": 12, "entrant": {"id": 20958171, "name": "UTO | Whaley", "participants": [{"id": 19281407, "gamerTag": "Whaley", "prefix": "UTO", "user": {"location": {"city": "Stone Mountain", "state": "GA", "country": "United States"}}, "player": {"id": 2016149, "gamerTag": "Whaley", "prefix": "KSU|UTO|BLZE", "user": {"location": {"city": "Stone Mountain", "state": "GA", "country": "United States"}}}}]}}, {"id": 36142868, "seedNum": 8, "entrant": {"id": 20958774, "name": "red dot", "participants": [{"id": 19281952, "gamerTag": "red dot", "prefix": "", "user": {"location": {"city": "Milton", "state": "GA", "country": "United States"}}, "player": {"id": 1812177, "gamerTag": "red dot", "prefix": "", "user": {"location": {"city": "Milton", "state": "GA", "country": "United States"}}}}]}}, {"id": 36146403, "seedNum": 10, "entrant": {"id": 20961268, "name": "Boo", "participants": [{"id": 19284057, "gamerTag": "Boo", "prefix": "", "user": {"location": {"city": "Cumming", "state": "GA", "country": "United States"}}, "player": {"id": 2647915, "gamerTag": "Boo", "prefix": "", "user": {"location": {"city": "Cumming", "state": "GA", "country": "United States"}}}}]}}, {"id": 36148188, "seedNum": 6, "entrant": {"id": 20962675, "name": "FreeDubs", "participants": [{"id": 19285296, "gamerTag": "FreeDubs", "prefix": null, "user": {"location": {"city": "Atlanta", "state": "GA", "country": "United States"}}, "player": {"id": 2366887, "gamerTag": "FreeDubs", "prefix": null, "user": {"location": {"city": "Atlanta", "state": "GA", "country": "United States"}}}}]}}, {"id": 36145475, "seedNum": 7, "entrant": {"id": 20960644, "name": "Rain~", "participants": [{"id": 19283528, "gamerTag": "Rain~", "prefix": null, "user": {"location": {"city": "Atlanta", "state": "GA", "country": "United States"}}, "player": {"id": 4240164, "gamerTag": "Rain~", "prefix": null, "user": {"location": {"city": "Atlanta", "state": "GA", "country": "United States"}}}}]}}, {"id": 36142529, "seedNum": 9, "entrant": {"id": 20958458, "name": "PattyOats | \u00c6ON", "participants": [{"id": 19281668, "gamerTag": "\u00c6ON", "prefix": "PattyOats", "user": {"location": {"city": null, "state": null, "country": "United States"}}, "player": {"id": 1437386, "gamerTag": "\u00c6ON", "prefix": "PattyOats", "user": {"location": {"city": null, "state": null, "country": "United States"}}}}]}}, {"id": 36142902, "seedNum": 24, "entrant": {"id": 20958805, "name": "KSU | Scouteka", "participants": [{"id": 19281983, "gamerTag": "Scouteka", "prefix": "KSU", "user": {"location": {"city": "Marietta", "state": "GA", "country": "United States"}}, "player": {"id": 2055957, "gamerTag": "Scouteka", "prefix": "", "user": {"location": {"city": "Marietta", "state": "GA", "country": "United States"}}}}]}}, {"id": 36141894, "seedNum": 11, "entrant": {"id": 20957927, "name": "carlop", "participants": [{"id": 19281186, "gamerTag": "carlop", "prefix": null, "user": {"location": {"city": "Johns Creek", "state": "GA", "country": "United States"}}, "player": {"id": 3431919, "gamerTag": "carlop", "prefix": null, "user": {"location": {"city": "Johns Creek", "state": "GA", "country": "United States"}}}}]}}, {"id": 36148884, "seedNum": 15, "entrant": {"id": 20963092, "name": "SaggyMilkJug", "participants": [{"id": 19285659, "gamerTag": "SaggyMilkJug", "prefix": "", "user": {"location": {"city": "Atlanta", "state": "GA", "country": "United States"}}, "player": {"id": 4651404, "gamerTag": "SaggyMilkJug", "prefix": "", "user": {"location": {"city": "Atlanta", "state": "GA", "country": "United States"}}}}]}}, {"id": 36135802, "seedNum": 17, "entrant": {"id": 20953352, "name": "Mavis", "participants": [{"id": 19277428, "gamerTag": "Mavis", "prefix": "", "user": {"location": {"city": null, "state": "GA", "country": "United States"}}, "player": {"id": 1666352, "gamerTag": "Mavis", "prefix": "", "user": {"location": {"city": null, "state": "GA", "country": "United States"}}}}]}}, {"id": 36146501, "seedNum": 20, "entrant": {"id": 20961366, "name": "Seren", "participants": [{"id": 19284144, "gamerTag": "Seren", "prefix": "", "user": {"location": {"city": "Canton", "state": "GA", "country": "United States"}}, "player": {"id": 18752, "gamerTag": "Seren", "prefix": "", "user": {"location": {"city": "Canton", "state": "GA", "country": "United States"}}}}]}}, {"id": 36136425, "seedNum": 13, "entrant": {"id": 20953888, "name": "KSU | Subzero", "participants": [{"id": 19277888, "gamerTag": "Subzero", "prefix": "KSU", "user": {"location": {"city": "Acworth", "state": "GA", "country": "United States"}}, "player": {"id": 1808159, "gamerTag": "Subzero", "prefix": "KSU", "user": {"location": {"city": "Acworth", "state": "GA", "country": "United States"}}}}]}}, {"id": 36135806, "seedNum": 14, "entrant": {"id": 20953354, "name": "colorful\u029a\u025e", "participants": [{"id": 19277430, "gamerTag": "colorful\u029a\u025e", "prefix": null, "user": {"location": {"city": "Kennesaw", "state": "GA", "country": "United States"}}, "player": {"id": 1783074, "gamerTag": "colorful\u029a\u025e", "prefix": "KSU | RM", "user": {"location": {"city": "Kennesaw", "state": "GA", "country": "United States"}}}}]}}, {"id": 36137229, "seedNum": 16, "entrant": {"id": 20954584, "name": "BlaZR", "participants": [{"id": 19278408, "gamerTag": "BlaZR", "prefix": "", "user": {"location": {"city": "ur mum", "state": null, "country": "United States"}}, "player": {"id": 1804122, "gamerTag": "BlaZR", "prefix": "", "user": {"location": {"city": "ur mum", "state": null, "country": "United States"}}}}]}}, {"id": 36147666, "seedNum": 18, "entrant": {"id": 20962167, "name": "WDKL MTM | D*ron", "participants": [{"id": 19284846, "gamerTag": "D*ron", "prefix": "WDKL MTM", "user": {"location": {"city": "Smyrna", "state": "GA", "country": "United States"}}, "player": {"id": 516047, "gamerTag": "D*ron", "prefix": "WDKL MTM", "user": {"location": {"city": "Smyrna", "state": "GA", "country": "United States"}}}}]}}, {"id": 36146965, "seedNum": 19, "entrant": {"id": 20961580, "name": "Scootch", "participants": [{"id": 19284339, "gamerTag": "Scootch", "prefix": "", "user": {"location": {"city": "", "state": "GA", "country": "United States"}}, "player": {"id": 33426, "gamerTag": "Scootch", "prefix": "", "user": {"location": {"city": "", "state": "GA", "country": "United States"}}}}]}}, {"id": 36147795, "seedNum": 21, "entrant": {"id": 20962309, "name": "Elzo", "participants": [{"id": 19284971, "gamerTag": "Elzo", "prefix": null, "user": {"location": {"city": null, "state": null, "country": null}}, "player": {"id": 684783, "gamerTag": "Elzo", "prefix": null, "user": {"location": {"city": null, "state": null, "country": null}}}}]}}, {"id": 36144177, "seedNum": 22, "entrant": {"id": 20959759, "name": "WeepAngel", "participants": [{"id": 19282788, "gamerTag": "WeepAngel", "prefix": "", "user": {"location": {"city": "Atlanta", "state": "GA", "country": "United States"}}, "player": {"id": 1570829, "gamerTag": "WeepAngel", "prefix": "", "user": {"location": {"city": "Atlanta", "state": "GA", "country": "United States"}}}}]}}, {"id": 36136615, "seedNum": 23, "entrant": {"id": 20954021, "name": "RM | PrincePeach", "participants": [{"id": 19278003, "gamerTag": "PrincePeach", "prefix": "RM", "user": {"location": {"city": "Stone Mountain", "state": "GA", "country": "United States"}}, "player": {"id": 3003562, "gamerTag": "Prince Peach", "prefix": "RM", "user": {"location": {"city": "Stone Mountain", "state": "GA", "country": "United States"}}}}]}}, {"id": 36146241, "seedNum": 25, "entrant": {"id": 20961153, "name": "UGA | pattyoats", "participants": [{"id": 19283954, "gamerTag": "pattyoats", "prefix": "UGA", "user": {"location": {"city": "Atlanta", "state": "GA", "country": "United States"}}, "player": {"id": 2269670, "gamerTag": "pattyoats", "prefix": "UGA", "user": {"location": {"city": "Atlanta", "state": "GA", "country": "United States"}}}}]}}, {"id": 36147257, "seedNum": 26, "entrant": {"id": 20961846, "name": "MTM | Mishmash", "participants": [{"id": 19284571, "gamerTag": "Mishmash", "prefix": "MTM", "user": {"location": {"city": "Cartersville", "state": "GA", "country": "United States"}}, "player": {"id": 4104907, "gamerTag": "Mishmash", "prefix": "MTM", "user": {"location": {"city": "Cartersville", "state": "GA", "country": "United States"}}}}]}}, {"id": 36114893, "seedNum": 27, "entrant": {"id": 20939393, "name": "Ohple", "participants": [{"id": 19265175, "gamerTag": "Ohple", "prefix": null, "user": {"location": {"city": "Roswell", "state": "GA", "country": "United States"}}, "player": {"id": 134634, "gamerTag": "Ohple", "prefix": null, "user": {"location": {"city": "Roswell", "state": "GA", "country": "United States"}}}}]}}, {"id": 36139154, "seedNum": 28, "entrant": {"id": 20956064, "name": "MikePTM", "participants": [{"id": 19279581, "gamerTag": "MikePTM", "prefix": "", "user": {"location": {"city": null, "state": null, "country": "United States"}}, "player": {"id": 3586658, "gamerTag": "MikePTM", "prefix": "KSU", "user": {"location": {"city": null, "state": null, "country": "United States"}}}}]}}, {"id": 36145436, "seedNum": 29, "entrant": {"id": 20960606, "name": "Carracoastal", "participants": [{"id": 19283492, "gamerTag": "Carracoastal", "prefix": "", "user": {"location": {"city": "Atlanta", "state": "GA", "country": "United States"}}, "player": {"id": 2957113, "gamerTag": "Carracoastal", "prefix": "", "user": {"location": {"city": "Atlanta", "state": "GA", "country": "United States"}}}}]}}, {"id": 36139168, "seedNum": 30, "entrant": {"id": 20956078, "name": "11D7", "participants": [{"id": 19279590, "gamerTag": "11D7", "prefix": null, "user": {"location": {"city": "Alpharetta", "state": "GA", "country": "United States"}}, "player": {"id": 4064891, "gamerTag": "11D7", "prefix": null, "user": {"location": {"city": "Alpharetta", "state": "GA", "country": "United States"}}}}]}}]}}}