{"phase": {"seeds": {"pageInfo": {"totalPages": 1, "total": 44}, "nodes": [{"id": 35760633, "seedNum": 2, "entrant": {"id": 20722628, "name": "DGS | spickles", "participants": [{"id": 19071567, "gamerTag": "spickles", "prefix": "DGS", "user": {"location": {"city": null, "state": null, "country": "United States"}}, "player": {"id": 1154793, "gamerTag": "spickles", "prefix": "DGS", "user": {"location": {"city": null, "state": null, "country": "United States"}}}}]}}, {"id": 35761753, "seedNum": 3, "entrant": {"id": 20723476, "name": "KumaDusk", "participants": [{"id": 19072255, "gamerTag": "KumaDusk", "prefix": "", "user": {"location": {"city": "Lawrenceville", "state": "GA", "country": "United States"}}, "player": {"id": 253909, "gamerTag": "KumaDusk", "prefix": "", "user": {"location": {"city": "Lawrenceville", "state": "GA", "country": "United States"}}}}]}}, {"id": 35763217, "seedNum": 1, "entrant": {"id": 20724589, "name": "DTN | Jahzz0", "participants": [{"id": 19073250, "gamerTag": "Jahzz0", "prefix": "DTN", "user": {"location": {"city": null, "state": null, "country": "United States"}}, "player": {"id": 946548, "gamerTag": "Jahzz0", "prefix": "DTN", "user": {"location": {"city": null, "state": null, "country": "United States"}}}}]}}, {"id": 35669805, "seedNum": 4, "entrant": {"id": 20657538, "name": "Ave~", "participants": [{"id": 19014943, "gamerTag": "Ave~", "prefix": "", "user": {"location": {"city": null, "state": null, "country": null}}, "player": {"id": 38830, "gamerTag": "Ave~", "prefix": "", "user": {"location": {"city": null, "state": null, "country": null}}}}]}}, {"id": 35762831, "seedNum": 6, "entrant": {"id": 20724218, "name": "GUMP2 | Spider", "participants": [{"id": 19072923, "gamerTag": "Spider", "prefix": "GUMP2", "user": {"location": {"city": "Atlanta", "state": "GA", "country": "United States"}}, "player": {"id": 691176, "gamerTag": "Spider", "prefix": "GUMP2", "user": {"location": {"city": "Atlanta", "state": "GA", "country": "United States"}}}}]}}, {"id": 35760660, "seedNum": 7, "entrant": {"id": 20722655, "name": "GUMP2 | ToxiC", "participants": [{"id": 19071590, "gamerTag": "ToxiC", "prefix": "GUMP2", "user": {"location": {"city": "Marietta", "state": "GA", "country": "United States"}}, "player": {"id": 2585804, "gamerTag": "ToxiC", "prefix": "GUMP2", "user": {"location": {"city": "Marietta", "state": "GA", "country": "United States"}}}}]}}, {"id": 35763035, "seedNum": 10, "entrant": {"id": 20724418, "name": "RM | GUMP2 | Kr!stal:0", "participants": [{"id": 19073100, "gamerTag": "Kr!stal:0", "prefix": "RM | GUMP2", "user": {"location": {"city": "Lawrenceville", "state": "GA", "country": "United States"}}, "player": {"id": 2409815, "gamerTag": "AO ASHI SEASON 2 2026", "prefix": "RM | GUMP2", "user": {"location": {"city": "Lawrenceville", "state": "GA", "country": "United States"}}}}]}}, {"id": 35759858, "seedNum": 19, "entrant": {"id": 20722221, "name": "Rain~", "participants": [{"id": 19071195, "gamerTag": "Rain~", "prefix": null, "user": {"location": {"city": "Atlanta", "state": "GA", "country": "United States"}}, "player": {"id": 4240164, "gamerTag": "Rain~", "prefix": null, "user": {"location": {"city": "Atlanta", "state": "GA", "country": "United States"}}}}]}}, {"id": 35754054, "seedNum": 5, "entrant": {"id": 20718485, "name": "Coven | Shelley", "participants": [{"id": 19067779, "gamerTag": "Shelley", "prefix": "Coven", "user": {"location": {"city": "Norcross", "state": "MS", "country": "United States"}}, "player": {"id": 4726196, "gamerTag": "REM!!!", "prefix": "Coven", "user": {"location": {"city": "Norcross", "state": "MS", "country": "United States"}}}}]}}, {"id": 35760273, "seedNum": 8, "entrant": {"id": 20722344, "name": "Tobe", "participants": [{"id": 19071312, "gamerTag": "Tobe", "prefix": "", "user": {"location": {"city": "Buford", "state": "GA", "country": "United States"}}, "player": {"id": 1646132, "gamerTag": "Tobe", "prefix": "", "user": {"location": {"city": "Buford", "state": "GA", "country": "United States"}}}}]}}, {"id": 35755587, "seedNum": 13, "entrant": {"id": 20719603, "name": "Trout~", "participants": [{"id": 19068788, "gamerTag": "Trout~", "prefix": "", "user": {"location": {"city": "Lawrenceville", "state": "GA", "country": "United States"}}, "player": {"id": 905410, "gamerTag": "Primary Trout~", "prefix": "", "user": {"location": {"city": "Lawrenceville", "state": "GA", "country": "United States"}}}}]}}, {"id": 35761278, "seedNum": 17, "entrant": {"id": 20723207, "name": "FAT | Phantomtheif", "participants": [{"id": 19072035, "gamerTag": "Phantomtheif", "prefix": "FAT", "user": {"location": {"city": "Columbus", "state": "AL", "country": "United States"}}, "player": {"id": 469237, "gamerTag": "Phantomtheif", "prefix": "FAT", "user": {"location": {"city": "Columbus", "state": "AL", "country": "United States"}}}}]}}, {"id": 35762260, "seedNum": 11, "entrant": {"id": 20723737, "name": "GUMP2 | JankTrees!", "participants": [{"id": 19072483, "gamerTag": "JankTrees!", "prefix": "GUMP2", "user": {"location": {"city": "Cartersville", "state": "GA", "country": "United States"}}, "player": {"id": 35695, "gamerTag": "JankTrees!", "prefix": "GUMP2", "user": {"location": {"city": "Cartersville", "state": "GA", "country": "United States"}}}}]}}, {"id": 35762461, "seedNum": 15, "entrant": {"id": 20723931, "name": "red dot", "participants": [{"id": 19072663, "gamerTag": "red dot", "prefix": "", "user": {"location": {"city": "Milton", "state": "GA", "country": "United States"}}, "player": {"id": 1812177, "gamerTag": "red dot", "prefix": "", "user": {"location": {"city": "Milton", "state": "GA", "country": "United States"}}}}]}}, {"id": 35756853, "seedNum": 27, "entrant": {"id": 20720142, "name": "KSU | Subzero", "participants": [{"id": 19069306, "gamerTag": "Subzero", "prefix": "KSU", "user": {"location": {"city": "Acworth", "state": "GA", "country": "United States"}}, "player": {"id": 1808159, "gamerTag": "Subzero", "prefix": "KSU", "user": {"location": {"city": "Acworth", "state": "GA", "country": "United States"}}}}]}}, {"id": 35721492, "seedNum": 39, "entrant": {"id": 20694242, "name": "FNG | I hate Krool", "participants": [{"id": 19046632, "gamerTag": "I hate Krool", "prefix": "FNG", "user": {"location": {"city": "Macon", "state": "GA", "country": "United States"}}, "player": {"id": 3328447, "gamerTag": "I hate Krool", "prefix": "FNG", "user": {"location": {"city": "Macon", "state": "GA", "country": "United States"}}}}]}}, {"id": 35762031, "seedNum": 9, "entrant": {"id": 20723604, "name": "Barbashop", "participants": [{"id": 19072373, "gamerTag": "Barbashop", "prefix": "", "user": {"location": {"city": null, "state": null, "country": null}}, "player": {"id": 2537853, "gamerTag": "Barbashop", "prefix": "", "user": {"location": {"city": null, "state": null, "country": null}}}}]}}, {"id": 35763833, "seedNum": 12, "entrant": {"id": 20724844, "name": "VA | StreetDzine", "participants": [{"id": 19073441, "gamerTag": "StreetDzine", "prefix": "VA", "user": {"location": {"city": null, "state": null, "country": "United States"}}, "player": {"id": 989587, "gamerTag": "StreetDzine", "prefix": "VA", "user": {"location": {"city": null, "state": null, "country": "United States"}}}}]}}, {"id": 35761288, "seedNum": 14, "entrant": {"id": 20723217, "name": "iNGenius", "participants": [{"id": 19072043, "gamerTag": "iNGenius", "prefix": null, "user": {"location": {"city": null, "state": null, "country": null}}, "player": {"id": 3194293, "gamerTag": "iNGenius", "prefix": "", "user": {"location": {"city": null, "state": null, "country": null}}}}]}}, {"id": 35754675, "seedNum": 18, "entrant": {"id": 20719004, "name": "Boxboy", "participants": [{"id": 19068269, "gamerTag": "Boxboy", "prefix": "", "user": {"location": {"city": "Tifton", "state": "GA", "country": "United States"}}, "player": {"id": 1174039, "gamerTag": "Boxboy", "prefix": "", "user": {"location": {"city": "Tifton", "state": "GA", "country": "United States"}}}}]}}, {"id": 35758536, "seedNum": 21, "entrant": {"id": 20721083, "name": "Whaley", "participants": [{"id": 19070134, "gamerTag": "Whaley", "prefix": "", "user": {"location": {"city": "Stone Mountain", "state": "GA", "country": "United States"}}, "player": {"id": 2016149, "gamerTag": "Whaley", "prefix": "KSU|UTO|BLZE", "user": {"location": {"city": "Stone Mountain", "state": "GA", "country": "United States"}}}}]}}, {"id": 35759423, "seedNum": 24, "entrant": {"id": 20721916, "name": "Boo", "participants": [{"id": 19070916, "gamerTag": "Boo", "prefix": "", "user": {"location": {"city": "Cumming", "state": "GA", "country": "United States"}}, "player": {"id": 2647915, "gamerTag": "Boo", "prefix": "", "user": {"location": {"city": "Cumming", "state": "GA", "country": "United States"}}}}]}}, {"id": 35758792, "seedNum": 33, "entrant": {"id": 20721316, "name": "R0CK", "participants": [{"id": 19070348, "gamerTag": "R0CK", "prefix": "", "user": {"location": {"city": "Augusta", "state": "GA", "country": "United States"}}, "player": {"id": 1792035, "gamerTag": "R0CK", "prefix": "", "user": {"location": {"city": "Augusta", "state": "GA", "country": "United States"}}}}]}}, {"id": 35761180, "seedNum": 36, "entrant": {"id": 20723132, "name": "Pleeploploop", "participants": [{"id": 19071975, "gamerTag": "Pleeploploop", "prefix": "", "user": {"location": {"city": "Snellville", "state": null, "country": "United States"}}, "player": {"id": 1739676, "gamerTag": "Pleeploploop", "prefix": "", "user": {"location": {"city": "Snellville", "state": null, "country": "United States"}}}}]}}, {"id": 35762638, "seedNum": 16, "entrant": {"id": 20724070, "name": "Cute Fluffy Puppy Lover", "participants": [{"id": 19072787, "gamerTag": "Cute Fluffy Puppy Lover", "prefix": "", "user": {"location": {"city": "Atlanta", "state": "GA", "country": "United States"}}, "player": {"id": 547843, "gamerTag": "Cute Fluffy Puppy Lover", "prefix": "", "user": {"location": {"city": "Atlanta", "state": "GA", "country": "United States"}}}}]}}, {"id": 35764247, "seedNum": 20, "entrant": {"id": 20725066, "name": "echoes", "participants": [{"id": 19073607, "gamerTag": "echoes", "prefix": null, "user": {"location": {"city": "Lawrenceville", "state": "GA", "country": "United States"}}, "player": {"id": 2397250, "gamerTag": "echoes", "prefix": null, "user": {"location": {"city": "Lawrenceville", "state": "GA", "country": "United States"}}}}]}}, {"id": 35761235, "seedNum": 23, "entrant": {"id": 20723165, "name": "Bagel", "participants": [{"id": 19072008, "gamerTag": "Bagel", "prefix": "", "user": {"location": {"city": "Atlanta", "state": "GA", "country": "United States"}}, "player": {"id": 1794753, "gamerTag": "Bagel", "prefix": "", "user": {"location": {"city": "Atlanta", "state": "GA", "country": "United States"}}}}]}}, {"id": 35757722, "seedNum": 25, "entrant": {"id": 20720829, "name": "Kuma | DelFuego", "participants": [{"id": 19069904, "gamerTag": "DelFuego", "prefix": "Kuma", "user": {"location": {"city": "Lawrenceville", "state": "GA", "country": "United States"}}, "player": {"id": 36826, "gamerTag": "DelFuego", "prefix": "Kuma", "user": {"location": {"city": "Lawrenceville", "state": "GA", "country": "United States"}}}}]}}, {"id": 35763683, "seedNum": 28, "entrant": {"id": 20724697, "name": "Zarek", "participants": [{"id": 19073328, "gamerTag": "Zarek", "prefix": "", "user": {"location": {"city": "Atlanta", "state": "GA", "country": "United States"}}, "player": {"id": 405682, "gamerTag": "Zarek", "prefix": "", "user": {"location": {"city": "Atlanta", "state": "GA", "country": "United States"}}}}]}}, {"id": 35760913, "seedNum": 30, "entrant": {"id": 20722881, "name": "promamamia", "participants": [{"id": 19071748, "gamerTag": "promamamia", "prefix": "", "user": {"location": {"city": "Alpharetta", "state": "GA", "country": "United States"}}, "player": {"id": 3548468, "gamerTag": "promamamia", "prefix": "", "user": {"location": {"city": "Alpharetta", "state": "GA", "country": "United States"}}}}]}}, {"id": 35761148, "seedNum": 31, "entrant": {"id": 20723101, "name": "4o4 | Sh33rZ", "participants": [{"id": 19071946, "gamerTag": "Sh33rZ", "prefix": "4o4", "user": {"location": {"city": "alpharetta", "state": "GA", "country": "United States"}}, "player": {"id": 3640465, "gamerTag": "Sh33rZ", "prefix": "4o4", "user": {"location": {"city": "alpharetta", "state": "GA", "country": "United States"}}}}]}}, {"id": 35763555, "seedNum": 32, "entrant": {"id": 20724633, "name": "SamRice", "participants": [{"id": 19073286, "gamerTag": "SamRice", "prefix": "", "user": {"location": {"city": "Norcross", "state": "GA", "country": "United States"}}, "player": {"id": 2387403, "gamerTag": "SamRice", "prefix": "", "user": {"location": {"city": "Norcross", "state": "GA", "country": "United States"}}}}]}}, {"id": 35762997, "seedNum": 22, "entrant": {"id": 20724380, "name": "mania", "participants": [{"id": 19073065, "gamerTag": "mania", "prefix": "", "user": {"location": {"city": "Atlanta", "state": "GA", "country": "United States"}}, "player": {"id": 2785367, "gamerTag": "mania", "prefix": "", "user": {"location": {"city": "Atlanta", "state": "GA", "country": "United States"}}}}]}}, {"id": 35764452, "seedNum": 26, "entrant": {"id": 20725193, "name": "FNG | S0URCEC0DE", "participants": [{"id": 19073708, "gamerTag": "S0URCEC0DE", "prefix": "FNG", "user": {"location": {"city": "Macon", "state": "GA", "country": "United States"}}, "player": {"id": 2699776, "gamerTag": "S0URCEC0DE", "prefix": "FNG", "user": {"location": {"city": "Macon", "state": "GA", "country": "United States"}}}}]}}, {"id": 35760750, "seedNum": 29, "entrant": {"id": 20722743, "name": "SIR | vivor", "participants": [{"id": 19071656, "gamerTag": "vivor", "prefix": "SIR", "user": {"location": {"city": "Atlanta", "state": "GA", "country": "United States"}}, "player": {"id": 3373990, "gamerTag": "vivor", "prefix": "SIR", "user": {"location": {"city": "Atlanta", "state": "GA", "country": "United States"}}}}]}}, {"id": 35760351, "seedNum": 34, "entrant": {"id": 20722370, "name": "EdiblePine", "participants": [{"id": 19071340, "gamerTag": "EdiblePine", "prefix": "", "user": {"location": {"city": "Atlanta", "state": "GA", "country": "United States"}}, "player": {"id": 1648278, "gamerTag": "EdiblePine", "prefix": "AP", "user": {"location": {"city": "Atlanta", "state": "GA", "country": "United States"}}}}]}}, {"id": 35764225, "seedNum": 35, "entrant": {"id": 20725048, "name": "Toasty", "participants": [{"id": 19073594, "gamerTag": "Toasty", "prefix": "", "user": {"location": {"city": "Atlanta", "state": "GA", "country": "United States"}}, "player": {"id": 1632443, "gamerTag": "Toasty", "prefix": "", "user": {"location": {"city": "Atlanta", "state": "GA", "country": "United States"}}}}]}}, {"id": 35762768, "seedNum": 37, "entrant": {"id": 20724155, "name": "Simfrm", "participants": [{"id": 19072866, "gamerTag": "Simfrm", "prefix": null, "user": {"location": {"city": "Dacula", "state": "GA", "country": "United States"}}, "player": {"id": 4506739, "gamerTag": "Simfrm", "prefix": null, "user": {"location": {"city": "Dacula", "state": "GA", "country": "United States"}}}}]}}, {"id": 35761281, "seedNum": 38, "entrant": {"id": 20723210, "name": "JayMelon", "participants": [{"id": 19072038, "gamerTag": "JayMelon", "prefix": null, "user": {"location": {"city": "Atlanta", "state": "GA", "country": "United States"}}, "player": {"id": 1679262, "gamerTag": "JayMelon", "prefix": null, "user": {"location": {"city": "Atlanta", "state": "GA", "country": "United States"}}}}]}}, {"id": 35761412, "seedNum": 40, "entrant": {"id": 20723272, "name": "madmix2001", "participants": [{"id": 19072078, "gamerTag": "madmix2001", "prefix": "", "user": {"location": {"city": null, "state": "GA", "country": "United States"}}, "player": {"id": 2058018, "gamerTag": "madmix2001", "prefix": "", "user": {"location": {"city": null, "state": "GA", "country": "United States"}}}}]}}, {"id": 35722474, "seedNum": 41, "entrant": {"id": 20694853, "name": "Sway", "participants": [{"id": 19047159, "gamerTag": "Sway", "prefix": "", "user": {"location": {"city": "Atlanta", "state": "GA", "country": "United States"}}, "player": {"id": 4791379, "gamerTag": "Sway", "prefix": "", "user": {"location": {"city": "Atlanta", "state": "GA", "country": "United States"}}}}]}}, {"id": 35722486, "seedNum": 42, "entrant": {"id": 20694864, "name": "Kwik", "participants": [{"id": 19047168, "gamerTag": "Kwik", "prefix": "", "user": {"location": {"city": null, "state": null, "country": "United States"}}, "player": {"id": 4864735, "gamerTag": "Kwik", "prefix": "", "user": {"location": {"city": null, "state": null, "country": "United States"}}}}]}}, {"id": 35757039, "seedNum": 43, "entrant": {"id": 20720323, "name": "Skizzy", "participants": [{"id": 19069472, "gamerTag": "Skizzy", "prefix": "", "user": {"location": {"city": null, "state": null, "country": "United States"}}, "player": {"id": 4871055, "gamerTag": "Skizzy", "prefix": "", "user": {"location": {"city": null, "state": null, "country": "United States"}}}}]}}, {"id": 35762791, "seedNum": 44, "entrant": {"id": 20724178, "name": "Kai", "participants": [{"id": 19072888, "gamerTag": "Kai", "prefix": "", "user": null, "player": {"id": 4872046, "gamerTag": "Kai", "prefix": "", "user": null}}]}}]}}}