{"phase": {"seeds": {"pageInfo": {"totalPages": 1, "total": 5}, "nodes": [{"id": 36636557, "seedNum": 1, "entrant": {"id": 21281931, "name": "Stenaven", "participants": [{"id": 19564796, "gamerTag": "Stenaven", "prefix": "", "user": {"location": {"city": "", "state": "GA", "country": "United States"}}, "player": {"id": 229871, "gamerTag": "Stenaven", "prefix": "", "user": {"location": {"city": "", "state": "GA", "country": "United States"}}}}]}}, {"id": 36636780, "seedNum": 2, "entrant": {"id": 21282134, "name": "NMBS | roshi", "participants": [{"id": 19567084, "gamerTag": "roshi", "prefix": "NMBS", "user": {"location": {"city": "Atlanta", "state": "GA", "country": "United States"}}, "player": {"id": 37667, "gamerTag": "roshi", "prefix": "NMBS", "user": {"location": {"city": "Atlanta", "state": "GA", "country": "United States"}}}}]}}, {"id": 36636686, "seedNum": 3, "entrant": {"id": 21282045, "name": "Permafrost", "participants": [{"id": 19561988, "gamerTag": "Permafrost", "prefix": "", "user": {"location": {"city": "Atlanta", "state": "GA", "country": "United States"}}, "player": {"id": 1256898, "gamerTag": "Permafrost", "prefix": "", "user": {"location": {"city": "Atlanta", "state": "GA", "country": "United States"}}}}]}}, {"id": 36636753, "seedNum": 4, "entrant": {"id": 21282107, "name": "pbravo", "participants": [{"id": 19562566, "gamerTag": "pbravo", "prefix": null, "user": {"location": {"city": null, "state": null, "country": null}}, "player": {"id": 3427349, "gamerTag": "pbravo", "prefix": null, "user": {"location": {"city": null, "state": null, "country": null}}}}]}}, {"id": 36636530, "seedNum": 5, "entrant": {"id": 21281904, "name": "TPS | $CAITLIN", "participants": [{"id": 19557776, "gamerTag": "$CAITLIN", "prefix": "TPS", "user": {"location": {"city": "Acworth", "state": "GA", "country": "United States"}}, "player": {"id": 3422494, "gamerTag": "$CAITLIN", "prefix": "TPS", "user": {"location": {"city": "Acworth", "state": "GA", "country": "United States"}}}}]}}]}}}