{"event": {"sets": {"pageInfo": {"totalPages": 4, "total": 53}, "nodes": [{"id": 91543531, "state": 3, "round": 3, "fullRoundText": "Round 3", "completedAt": 1752884347, "winnerId": 20621488, "slots": [{"id": "91543531-0", "entrant": {"id": 20621491, "name": "Barbashop", "participants": [{"id": 18983736, "gamerTag": "Barbashop", "prefix": "", "user": {"location": {"city": null, "state": null, "country": null}}, "player": {"id": 2537853, "gamerTag": "Barbashop", "prefix": "", "user": {"location": {"city": null, "state": null, "country": null}}}}]}, "standing": {"placement": 2, "stats": {"score": {"value": -1}}}}, {"id": "91543531-1", "entrant": {"id": 20621488, "name": "Dubz", "participants": [{"id": 18983732, "gamerTag": "Dubz", "prefix": null, "user": {"location": {"city": "Grayson", "state": "GA", "country": "United States"}}, "player": {"id": 22583, "gamerTag": "Dubz", "prefix": "", "user": {"location": {"city": "Grayson", "state": "GA", "country": "United States"}}}}]}, "standing": {"placement": 1, "stats": {"score": {"value": null}}}}], "games": null}, {"id": 91543411, "state": 3, "round": 3, "fullRoundText": "Round 3", "completedAt": 1752885781, "winnerId": 20621483, "slots": [{"id": "91543411-0", "entrant": {"id": 20621519, "name": "STiCK", "participants": [{"id": 18983760, "gamerTag": "STiCK", "prefix": null, "user": {"location": {"city": "Woodstock", "state": "GA", "country": "United States"}}, "player": {"id": 282674, "gamerTag": "STiCK", "prefix": "GUMP2", "user": {"location": {"city": "Woodstock", "state": "GA", "country": "United States"}}}}]}, "standing": {"placement": 2, "stats": {"score": {"value": 1}}}}, {"id": "91543411-1", "entrant": {"id": 20621483, "name": "TFT | Frank", "participants": [{"id": 18983727, "gamerTag": "Frank", "prefix": "TFT", "user": {"location": {"city": "Doraville", "state": "GA", "country": "United States"}}, "player": {"id": 1227401, "gamerTag": "Terry Labonte", "prefix": "TFT", "user": {"location": {"city": "Doraville", "state": "GA", "country": "United States"}}}}]}, "standing": {"placement": 1, "stats": {"score": {"value": 2}}}}], "games": null}, {"id": 91555477, "state": 3, "round": 2, "fullRoundText": "Winners Final", "completedAt": 1752896110, "winnerId": 20621515, "slots": [{"id": "91555477-0", "entrant": {"id": 20621556, "name": "Tobe", "participants": [{"id": 18983792, "gamerTag": "Tobe", "prefix": "", "user": {"location": {"city": "Buford", "state": "GA", "country": "United States"}}, "player": {"id": 1646132, "gamerTag": "Tobe", "prefix": "", "user": {"location": {"city": "Buford", "state": "GA", "country": "United States"}}}}]}, "standing": {"placement": 2, "stats": {"score": {"value": 2}}}}, {"id": "91555477-1", "entrant": {"id": 20621515, "name": "KumaDusk", "participants": [{"id": 18983757, "gamerTag": "KumaDusk", "prefix": "", "user": {"location": {"city": "Lawrenceville", "state": "GA", "country": "United States"}}, "player": {"id": 253909, "gamerTag": "KumaDusk", "prefix": "", "user": {"location": {"city": "Lawrenceville", "state": "GA", "country": "United States"}}}}]}, "standing": {"placement": 1, "stats": {"score": {"value": 3}}}}], "games": null}, {"id": 91543406, "state": 3, "round": 2, "fullRoundText": "Round 2", "completedAt": 1752885110, "winnerId": 20621556, "slots": [{"id": "91543406-0", "entrant": {"id": 20621556, "name": "Tobe", "participants": [{"id": 18983792, "gamerTag": "Tobe", "prefix": "", "user": {"location": {"city": "Buford", "state": "GA", "country": "United States"}}, "player": {"id": 1646132, "gamerTag": "Tobe", "prefix": "", "user": {"location": {"city": "Buford", "state": "GA", "country": "United States"}}}}]}, "standing": {"placement": 1, "stats": {"score": {"value": 2}}}}, {"id": "91543406-1", "entrant": {"id": 20621496, "name": "TFT | BigCheese", "participants": [{"id": 18983741, "gamerTag": "BigCheese", "prefix": "TFT", "user": {"location": {"city": null, "state": null, "country": null}}, "player": {"id": 3991446, "gamerTag": "BigCheese", "prefix": "TFT", "user": {"location": {"city": null, "state": null, "country": null}}}}]}, "standing": {"placement": 2, "stats": {"score": {"value": 0}}}}], "games": null}, {"id": 91543526, "state": 3, "round": 2, "fullRoundText": "Round 2", "completedAt": 1752884146, "winnerId": 20621515, "slots": [{"id": "91543526-0", "entrant": {"id": 20621515, "name": "KumaDusk", "participants": [{"id": 18983757, "gamerTag": "KumaDusk", "prefix": "", "user": {"location": {"city": "Lawrenceville", "state": "GA", "country": "United States"}}, "player": {"id": 253909, "gamerTag": "KumaDusk", "prefix": "", "user": {"location": {"city": "Lawrenceville", "state": "GA", "country": "United States"}}}}]}, "standing": {"placement": 1, "stats": {"score": {"value": 2}}}}, {"id": "91543526-1", "entrant": {"id": 20733027, "name": "Jdaddy", "participants": [{"id": 19042273, "gamerTag": "Jdaddy", "prefix": null, "user": {"location": {"city": "Atlanta", "state": "GA", "country": "United States"}}, "player": {"id": 4384721, "gamerTag": "Jdaddy", "prefix": null, "user": {"location": {"city": "Atlanta", "state": "GA", "country": "United States"}}}}]}, "standing": {"placement": 2, "stats": {"score": {"value": 0}}}}], "games": null}, {"id": 91543527, "state": 3, "round": 2, "fullRoundText": "Round 2", "completedAt": 1752884361, "winnerId": 20621377, "slots": [{"id": "91543527-0", "entrant": {"id": 20621491, "name": "Barbashop", "participants": [{"id": 18983736, "gamerTag": "Barbashop", "prefix": "", "user": {"location": {"city": null, "state": null, "country": null}}, "player": {"id": 2537853, "gamerTag": "Barbashop", "prefix": "", "user": {"location": {"city": null, "state": null, "country": null}}}}]}, "standing": {"placement": 2, "stats": {"score": {"value": -1}}}}, {"id": "91543527-1", "entrant": {"id": 20621377, "name": "TnT | Monologgue", "participants": [{"id": 18983633, "gamerTag": "Monologgue", "prefix": "TnT", "user": {"location": {"city": "Atlanta", "state": "GA", "country": "United States"}}, "player": {"id": 1135679, "gamerTag": "Monologgue", "prefix": "TnT", "user": {"location": {"city": "Atlanta", "state": "GA", "country": "United States"}}}}]}, "standing": {"placement": 1, "stats": {"score": {"value": null}}}}], "games": null}, {"id": 91543407, "state": 3, "round": 2, "fullRoundText": "Round 2", "completedAt": 1752887858, "winnerId": 20621519, "slots": [{"id": "91543407-0", "entrant": {"id": 20621519, "name": "STiCK", "participants": [{"id": 18983760, "gamerTag": "STiCK", "prefix": null, "user": {"location": {"city": "Woodstock", "state": "GA", "country": "United States"}}, "player": {"id": 282674, "gamerTag": "STiCK", "prefix": "GUMP2", "user": {"location": {"city": "Woodstock", "state": "GA", "country": "United States"}}}}]}, "standing": {"placement": 1, "stats": {"score": {"value": 2}}}}, {"id": "91543407-1", "entrant": {"id": 20621435, "name": "RAMS | RussianJesus", "participants": [{"id": 18983686, "gamerTag": "RussianJesus", "prefix": "RAMS", "user": {"location": {"city": "Atlanta", "state": "GA", "country": "United States"}}, "player": {"id": 1140567, "gamerTag": "RussianJesus", "prefix": "RAMS", "user": {"location": {"city": "Atlanta", "state": "GA", "country": "United States"}}}}]}, "standing": {"placement": 2, "stats": {"score": {"value": 0}}}}], "games": null}, {"id": 91543528, "state": 3, "round": 2, "fullRoundText": "Round 2", "completedAt": 1752884959, "winnerId": 20621488, "slots": [{"id": "91543528-0", "entrant": {"id": 20621488, "name": "Dubz", "participants": [{"id": 18983732, "gamerTag": "Dubz", "prefix": null, "user": {"location": {"city": "Grayson", "state": "GA", "country": "United States"}}, "player": {"id": 22583, "gamerTag": "Dubz", "prefix": "", "user": {"location": {"city": "Grayson", "state": "GA", "country": "United States"}}}}]}, "standing": {"placement": 1, "stats": {"score": {"value": 2}}}}, {"id": "91543528-1", "entrant": {"id": 20621493, "name": "AshNoJoy", "participants": [{"id": 18983738, "gamerTag": "AshNoJoy", "prefix": "", "user": {"location": {"city": "Phenix City", "state": "AL", "country": "United States"}}, "player": {"id": 3141674, "gamerTag": "AshNoJoy", "prefix": "", "user": {"location": {"city": "Phenix City", "state": "AL", "country": "United States"}}}}]}, "standing": {"placement": 2, "stats": {"score": {"value": 0}}}}], "games": null}, {"id": 91543408, "state": 3, "round": 2, "fullRoundText": "Round 2", "completedAt": 1752885773, "winnerId": 20621483, "slots": [{"id": "91543408-0", "entrant": {"id": 20621483, "name": "TFT | Frank", "participants": [{"id": 18983727, "gamerTag": "Frank", "prefix": "TFT", "user": {"location": {"city": "Doraville", "state": "GA", "country": "United States"}}, "player": {"id": 1227401, "gamerTag": "Terry Labonte", "prefix": "TFT", "user": {"location": {"city": "Doraville", "state": "GA", "country": "United States"}}}}]}, "standing": {"placement": 1, "stats": {"score": {"value": 2}}}}, {"id": "91543408-1", "entrant": {"id": 20621384, "name": "C$ | holdmypockets", "participants": [{"id": 18983641, "gamerTag": "holdmypockets", "prefix": "C$", "user": {"location": {"city": "Fayetteville", "state": "GA", "country": "United States"}}, "player": {"id": 617199, "gamerTag": "holdmypockets", "prefix": "C$", "user": {"location": {"city": "Fayetteville", "state": "GA", "country": "United States"}}}}]}, "standing": {"placement": 2, "stats": {"score": {"value": 0}}}}], "games": null}, {"id": 91555493, "state": 3, "round": -6, "fullRoundText": "Losers Final", "completedAt": 1752899389, "winnerId": 20621556, "slots": [{"id": "91555493-0", "entrant": {"id": 20621556, "name": "Tobe", "participants": [{"id": 18983792, "gamerTag": "Tobe", "prefix": "", "user": {"location": {"city": "Buford", "state": "GA", "country": "United States"}}, "player": {"id": 1646132, "gamerTag": "Tobe", "prefix": "", "user": {"location": {"city": "Buford", "state": "GA", "country": "United States"}}}}]}, "standing": {"placement": 1, "stats": {"score": {"value": 3}}}}, {"id": "91555493-1", "entrant": {"id": 20621488, "name": "Dubz", "participants": [{"id": 18983732, "gamerTag": "Dubz", "prefix": null, "user": {"location": {"city": "Grayson", "state": "GA", "country": "United States"}}, "player": {"id": 22583, "gamerTag": "Dubz", "prefix": "", "user": {"location": {"city": "Grayson", "state": "GA", "country": "United States"}}}}]}, "standing": {"placement": 2, "stats": {"score": {"value": 0}}}}], "games": null}, {"id": 91555492, "state": 3, "round": -5, "fullRoundText": "Losers Semi-Final", "completedAt": 1752896835, "winnerId": 20621488, "slots": [{"id": "91555492-0", "entrant": {"id": 20621483, "name": "TFT | Frank", "participants": [{"id": 18983727, "gamerTag": "Frank", "prefix": "TFT", "user": {"location": {"city": "Doraville", "state": "GA", "country": "United States"}}, "player": {"id": 1227401, "gamerTag": "Terry Labonte", "prefix": "TFT", "user": {"location": {"city": "Doraville", "state": "GA", "country": "United States"}}}}]}, "standing": {"placement": 2, "stats": {"score": {"value": 2}}}}, {"id": "91555492-1", "entrant": {"id": 20621488, "name": "Dubz", "participants": [{"id": 18983732, "gamerTag": "Dubz", "prefix": null, "user": {"location": {"city": "Grayson", "state": "GA", "country": "United States"}}, "player": {"id": 22583, "gamerTag": "Dubz", "prefix": "", "user": {"location": {"city": "Grayson", "state": "GA", "country": "United States"}}}}]}, "standing": {"placement": 1, "stats": {"score": {"value": 3}}}}], "games": null}, {"id": 91555475, "state": 3, "round": 1, "fullRoundText": "Winners Semi-Final", "completedAt": 1752894607, "winnerId": 20621556, "slots": [{"id": "91555475-0", "entrant": {"id": 20621556, "name": "Tobe", "participants": [{"id": 18983792, "gamerTag": "Tobe", "prefix": "", "user": {"location": {"city": "Buford", "state": "GA", "country": "United States"}}, "player": {"id": 1646132, "gamerTag": "Tobe", "prefix": "", "user": {"location": {"city": "Buford", "state": "GA", "country": "United States"}}}}]}, "standing": {"placement": 1, "stats": {"score": {"value": 2}}}}, {"id": "91555475-1", "entrant": {"id": 20621488, "name": "Dubz", "participants": [{"id": 18983732, "gamerTag": "Dubz", "prefix": null, "user": {"location": {"city": "Grayson", "state": "GA", "country": "United States"}}, "player": {"id": 22583, "gamerTag": "Dubz", "prefix": "", "user": {"location": {"city": "Grayson", "state": "GA", "country": "United States"}}}}]}, "standing": {"placement": 2, "stats": {"score": {"value": 0}}}}], "games": null}, {"id": 91555476, "state": 3, "round": 1, "fullRoundText": "Winners Semi-Final", "completedAt": 1752893889, "winnerId": 20621515, "slots": [{"id": "91555476-0", "entrant": {"id": 20621515, "name": "KumaDusk", "participants": [{"id": 18983757, "gamerTag": "KumaDusk", "prefix": "", "user": {"location": {"city": "Lawrenceville", "state": "GA", "country": "United States"}}, "player": {"id": 253909, "gamerTag": "KumaDusk", "prefix": "", "user": {"location": {"city": "Lawrenceville", "state": "GA", "country": "United States"}}}}]}, "standing": {"placement": 1, "stats": {"score": {"value": 2}}}}, {"id": "91555476-1", "entrant": {"id": 20621483, "name": "TFT | Frank", "participants": [{"id": 18983727, "gamerTag": "Frank", "prefix": "TFT", "user": {"location": {"city": "Doraville", "state": "GA", "country": "United States"}}, "player": {"id": 1227401, "gamerTag": "Terry Labonte", "prefix": "TFT", "user": {"location": {"city": "Doraville", "state": "GA", "country": "United States"}}}}]}, "standing": {"placement": 2, "stats": {"score": {"value": 0}}}}], "games": null}, {"id": 91543403, "state": 3, "round": 1, "fullRoundText": "Round 1", "completedAt": 1752884091, "winnerId": 20621519, "slots": [{"id": "91543403-0", "entrant": {"id": 20621519, "name": "STiCK", "participants": [{"id": 18983760, "gamerTag": "STiCK", "prefix": null, "user": {"location": {"city": "Woodstock", "state": "GA", "country": "United States"}}, "player": {"id": 282674, "gamerTag": "STiCK", "prefix": "GUMP2", "user": {"location": {"city": "Woodstock", "state": "GA", "country": "United States"}}}}]}, "standing": {"placement": 1, "stats": {"score": {"value": 2}}}}, {"id": "91543403-1", "entrant": {"id": 20621496, "name": "TFT | BigCheese", "participants": [{"id": 18983741, "gamerTag": "BigCheese", "prefix": "TFT", "user": {"location": {"city": null, "state": null, "country": null}}, "player": {"id": 3991446, "gamerTag": "BigCheese", "prefix": "TFT", "user": {"location": {"city": null, "state": null, "country": null}}}}]}, "standing": {"placement": 2, "stats": {"score": {"value": 0}}}}], "games": null}, {"id": 91543523, "state": 3, "round": 1, "fullRoundText": "Round 1", "completedAt": 1752886356, "winnerId": 20733027, "slots": [{"id": "91543523-0", "entrant": {"id": 20621491, "name": "Barbashop", "participants": [{"id": 18983736, "gamerTag": "Barbashop", "prefix": "", "user": {"location": {"city": null, "state": null, "country": null}}, "player": {"id": 2537853, "gamerTag": "Barbashop", "prefix": "", "user": {"location": {"city": null, "state": null, "country": null}}}}]}, "standing": {"placement": 2, "stats": {"score": {"value": -1}}}}, {"id": "91543523-1", "entrant": {"id": 20733027, "name": "Jdaddy", "participants": [{"id": 19042273, "gamerTag": "Jdaddy", "prefix": null, "user": {"location": {"city": "Atlanta", "state": "GA", "country": "United States"}}, "player": {"id": 4384721, "gamerTag": "Jdaddy", "prefix": null, "user": {"location": {"city": "Atlanta", "state": "GA", "country": "United States"}}}}]}, "standing": {"placement": 1, "stats": {"score": {"value": null}}}}], "games": null}]}}}