{"phase": {"seeds": {"pageInfo": {"totalPages": 1, "total": 5}, "nodes": [{"id": 35836538, "seedNum": 2, "entrant": {"id": 20767366, "name": "sanrio enjoyer", "participants": [{"id": 19112588, "gamerTag": "sanrio enjoyer", "prefix": "", "user": {"location": {"city": "Atlanta", "state": "GA", "country": "United States"}}, "player": {"id": 3792585, "gamerTag": "sanrio enjoyer", "prefix": "", "user": {"location": {"city": "Atlanta", "state": "GA", "country": "United States"}}}}]}}, {"id": 35876004, "seedNum": 1, "entrant": {"id": 20790640, "name": "cardd", "participants": [{"id": 19134055, "gamerTag": "cardd", "prefix": "", "user": {"location": {"city": "ATL", "state": "GA", "country": "United States"}}, "player": {"id": 34781, "gamerTag": "cardd", "prefix": "", "user": {"location": {"city": "ATL", "state": "GA", "country": "United States"}}}}]}}, {"id": 35872720, "seedNum": 3, "entrant": {"id": 20788105, "name": "noided", "participants": [{"id": 19131634, "gamerTag": "noided", "prefix": "", "user": {"location": {"city": "Atlanta", "state": "GA", "country": "United States"}}, "player": {"id": 2586521, "gamerTag": "noided", "prefix": "", "user": {"location": {"city": "Atlanta", "state": "GA", "country": "United States"}}}}]}}, {"id": 35836065, "seedNum": 4, "entrant": {"id": 20767124, "name": "Tech Chase | braxton", "participants": [{"id": 19112376, "gamerTag": "braxton", "prefix": "Tech Chase", "user": {"location": {"city": "Atlanta", "state": "GA", "country": "United States"}}, "player": {"id": 1037821, "gamerTag": "braxton", "prefix": "The Hive", "user": {"location": {"city": "Atlanta", "state": "GA", "country": "United States"}}}}]}}, {"id": 35854991, "seedNum": 5, "entrant": {"id": 20778196, "name": "NMBS | roshi", "participants": [{"id": 19122308, "gamerTag": "roshi", "prefix": "NMBS", "user": {"location": {"city": "Atlanta", "state": "GA", "country": "United States"}}, "player": {"id": 37667, "gamerTag": "roshi", "prefix": "NMBS", "user": {"location": {"city": "Atlanta", "state": "GA", "country": "United States"}}}}]}}]}}}