{"event": {"sets": {"pageInfo": {"totalPages": 4, "total": 52}, "nodes": [{"id": 93640090, "state": 3, "round": 1, "fullRoundText": "Winners Round 1", "completedAt": 1757292706, "winnerId": 21198004, "slots": [{"id": "93640090-0", "entrant": {"id": 21198004, "name": "Jdaddy", "participants": [{"id": 19495039, "gamerTag": "Jdaddy", "prefix": null, "user": {"location": {"city": "Atlanta", "state": "GA", "country": "United States"}}, "player": {"id": 4384721, "gamerTag": "Jdaddy", "prefix": null, "user": {"location": {"city": "Atlanta", "state": "GA", "country": "United States"}}}}]}, "standing": {"placement": 1, "stats": {"score": {"value": 2}}}}, {"id": "93640090-1", "entrant": {"id": 21197426, "name": "Jahku$ha", "participants": [{"id": 19494560, "gamerTag": "Jahku$ha", "prefix": "", "user": {"location": {"city": "Atlanta", "state": "GA", "country": "United States"}}, "player": {"id": 4559746, "gamerTag": "Jahku$ha", "prefix": "", "user": {"location": {"city": "Atlanta", "state": "GA", "country": "United States"}}}}]}, "standing": {"placement": 2, "stats": {"score": {"value": 1}}}}], "games": null}, {"id": 93639852, "state": 3, "round": 1, "fullRoundText": "Winners Round 1", "completedAt": 1757290893, "winnerId": 21197821, "slots": [{"id": "93639852-0", "entrant": {"id": 21197821, "name": "RM | WFF | Cyax~", "participants": [{"id": 19494885, "gamerTag": "Cyax~", "prefix": "RM | WFF", "user": {"location": {"city": "atlanta", "state": "GA", "country": "United States"}}, "player": {"id": 1230555, "gamerTag": "Sakruoi", "prefix": "RM | WFF", "user": {"location": {"city": "atlanta", "state": "GA", "country": "United States"}}}}]}, "standing": {"placement": 1, "stats": {"score": {"value": 0}}}}, {"id": "93639852-1", "entrant": {"id": 21198074, "name": "buffer1", "participants": [{"id": 19495091, "gamerTag": "buffer1", "prefix": "", "user": null, "player": {"id": 4042082, "gamerTag": "buffer1", "prefix": "", "user": null}}]}, "standing": {"placement": 2, "stats": {"score": {"value": -1}}}}], "games": null}, {"id": 93639853, "state": 3, "round": 1, "fullRoundText": "Winners Round 1", "completedAt": 1757293765, "winnerId": 21196504, "slots": [{"id": "93639853-0", "entrant": {"id": 21196504, "name": "TFT | im so ugly", "participants": [{"id": 19493751, "gamerTag": "im so ugly", "prefix": "TFT", "user": {"location": {"city": "Calhoun", "state": "GA", "country": "United States"}}, "player": {"id": 2241471, "gamerTag": "lil munch", "prefix": "TFT", "user": {"location": {"city": "Calhoun", "state": "GA", "country": "United States"}}}}]}, "standing": {"placement": 1, "stats": {"score": {"value": 2}}}}, {"id": "93639853-1", "entrant": {"id": 21197944, "name": "TnT | annamation", "participants": [{"id": 19494993, "gamerTag": "annamation", "prefix": "TnT", "user": {"location": {"city": "Atlanta", "state": "GA", "country": "United States"}}, "player": {"id": 1699369, "gamerTag": "annamation", "prefix": "TnT", "user": {"location": {"city": "Atlanta", "state": "GA", "country": "United States"}}}}]}, "standing": {"placement": 2, "stats": {"score": {"value": 0}}}}], "games": null}, {"id": 93642788, "state": 3, "round": -4, "fullRoundText": "Losers Quarter-Final", "completedAt": 1757298517, "winnerId": 21197742, "slots": [{"id": "93642788-0", "entrant": {"id": 21197821, "name": "RM | WFF | Cyax~", "participants": [{"id": 19494885, "gamerTag": "Cyax~", "prefix": "RM | WFF", "user": {"location": {"city": "atlanta", "state": "GA", "country": "United States"}}, "player": {"id": 1230555, "gamerTag": "Sakruoi", "prefix": "RM | WFF", "user": {"location": {"city": "atlanta", "state": "GA", "country": "United States"}}}}]}, "standing": {"placement": 2, "stats": {"score": {"value": 0}}}}, {"id": "93642788-1", "entrant": {"id": 21197742, "name": "TFT | RoKu", "participants": [{"id": 19494822, "gamerTag": "RoKu", "prefix": "TFT", "user": {"location": {"city": "Peachtree Corners", "state": "GA", "country": "United States"}}, "player": {"id": 1107285, "gamerTag": "RoKu", "prefix": "TFT", "user": {"location": {"city": "Peachtree Corners", "state": "GA", "country": "United States"}}}}]}, "standing": {"placement": 1, "stats": {"score": {"value": 2}}}}], "games": null}, {"id": 93642789, "state": 3, "round": -4, "fullRoundText": "Losers Quarter-Final", "completedAt": 1757300060, "winnerId": 21167427, "slots": [{"id": "93642789-0", "entrant": {"id": 21167427, "name": "Heart", "participants": [{"id": 19468406, "gamerTag": "Heart", "prefix": "", "user": {"location": {"city": "Atlanta", "state": "GA", "country": "United States"}}, "player": {"id": 4287822, "gamerTag": "Heart", "prefix": "", "user": {"location": {"city": "Atlanta", "state": "GA", "country": "United States"}}}}]}, "standing": {"placement": 1, "stats": {"score": {"value": 2}}}}, {"id": "93642789-1", "entrant": {"id": 21197914, "name": "WFF | Happy", "participants": [{"id": 19494967, "gamerTag": "Happy", "prefix": "WFF", "user": {"location": {"city": "Peachtree CIty", "state": "GA", "country": "United States"}}, "player": {"id": 1383907, "gamerTag": "Happy", "prefix": "WFF", "user": {"location": {"city": "Peachtree CIty", "state": "GA", "country": "United States"}}}}]}, "standing": {"placement": 2, "stats": {"score": {"value": 1}}}}], "games": null}, {"id": 93642786, "state": 3, "round": -3, "fullRoundText": "Losers Round 1", "completedAt": 1757297697, "winnerId": 21197742, "slots": [{"id": "93642786-0", "entrant": {"id": 21197742, "name": "TFT | RoKu", "participants": [{"id": 19494822, "gamerTag": "RoKu", "prefix": "TFT", "user": {"location": {"city": "Peachtree Corners", "state": "GA", "country": "United States"}}, "player": {"id": 1107285, "gamerTag": "RoKu", "prefix": "TFT", "user": {"location": {"city": "Peachtree Corners", "state": "GA", "country": "United States"}}}}]}, "standing": {"placement": 1, "stats": {"score": {"value": 2}}}}, {"id": "93642786-1", "entrant": {"id": 21197890, "name": "TnT | Monologgue", "participants": [{"id": 19494949, "gamerTag": "Monologgue", "prefix": "TnT", "user": {"location": {"city": "Atlanta", "state": "GA", "country": "United States"}}, "player": {"id": 1135679, "gamerTag": "Monologgue", "prefix": "TnT", "user": {"location": {"city": "Atlanta", "state": "GA", "country": "United States"}}}}]}, "standing": {"placement": 2, "stats": {"score": {"value": 0}}}}], "games": null}, {"id": 93642787, "state": 3, "round": -3, "fullRoundText": "Losers Round 1", "completedAt": 1757298916, "winnerId": 21197914, "slots": [{"id": "93642787-0", "entrant": {"id": 21197866, "name": "WeFarmFrank | Gorilla Glue", "participants": [{"id": 19494925, "gamerTag": "Gorilla Glue", "prefix": "WeFarmFrank", "user": {"location": {"city": "Atlanta", "state": "GA", "country": "United States"}}, "player": {"id": 1810274, "gamerTag": "Planet Of Da", "prefix": "WeFarmFrank", "user": {"location": {"city": "Atlanta", "state": "GA", "country": "United States"}}}}]}, "standing": {"placement": 2, "stats": {"score": {"value": 0}}}}, {"id": "93642787-1", "entrant": {"id": 21197914, "name": "WFF | Happy", "participants": [{"id": 19494967, "gamerTag": "Happy", "prefix": "WFF", "user": {"location": {"city": "Peachtree CIty", "state": "GA", "country": "United States"}}, "player": {"id": 1383907, "gamerTag": "Happy", "prefix": "WFF", "user": {"location": {"city": "Peachtree CIty", "state": "GA", "country": "United States"}}}}]}, "standing": {"placement": 1, "stats": {"score": {"value": 2}}}}], "games": null}]}}}