{"event": {"sets": {"pageInfo": {"totalPages": 3, "total": 38}, "nodes": [{"id": 91723217, "state": 3, "round": -6, "fullRoundText": "Losers Round 3", "completedAt": 1753234168, "winnerId": 20771789, "slots": [{"id": "91723217-0", "entrant": {"id": 20771582, "name": "Bik spoon", "participants": [{"id": 19116330, "gamerTag": "Bik spoon", "prefix": "", "user": {"location": {"city": "Auburn", "state": "AL", "country": "United States"}}, "player": {"id": 1191430, "gamerTag": "Bik spoon", "prefix": "", "user": {"location": {"city": "Auburn", "state": "AL", "country": "United States"}}}}]}, "standing": {"placement": 2, "stats": {"score": {"value": 0}}}}, {"id": "91723217-1", "entrant": {"id": 20771789, "name": "PitchingAce33", "participants": [{"id": 19116519, "gamerTag": "PitchingAce33", "prefix": "", "user": {"location": {"city": null, "state": "GA", "country": "United States"}}, "player": {"id": 1198327, "gamerTag": "PitchingAce33", "prefix": "", "user": {"location": {"city": null, "state": "GA", "country": "United States"}}}}]}, "standing": {"placement": 1, "stats": {"score": {"value": 2}}}}], "games": null}, {"id": 91723218, "state": 3, "round": -6, "fullRoundText": "Losers Round 3", "completedAt": 1753233769, "winnerId": 20770486, "slots": [{"id": "91723218-0", "entrant": {"id": 20772250, "name": "Mellow", "participants": [{"id": 19116922, "gamerTag": "Mellow", "prefix": "", "user": {"location": {"city": null, "state": null, "country": null}}, "player": {"id": 951859, "gamerTag": "Mellow", "prefix": "", "user": {"location": {"city": null, "state": null, "country": null}}}}]}, "standing": {"placement": 2, "stats": {"score": {"value": 0}}}}, {"id": "91723218-1", "entrant": {"id": 20770486, "name": "Vertebrae", "participants": [{"id": 19115352, "gamerTag": "Vertebrae", "prefix": "", "user": {"location": {"city": "Athens", "state": "GA", "country": "United States"}}, "player": {"id": 1583946, "gamerTag": "Vertebrae", "prefix": "CC", "user": {"location": {"city": "Athens", "state": "GA", "country": "United States"}}}}]}, "standing": {"placement": 1, "stats": {"score": {"value": 2}}}}], "games": null}, {"id": 91723219, "state": 3, "round": -6, "fullRoundText": "Losers Round 3", "completedAt": 1753234339, "winnerId": 20766543, "slots": [{"id": "91723219-0", "entrant": {"id": 20769463, "name": "Boo", "participants": [{"id": 19114409, "gamerTag": "Boo", "prefix": "", "user": {"location": {"city": "Cumming", "state": "GA", "country": "United States"}}, "player": {"id": 2647915, "gamerTag": "Boo", "prefix": "", "user": {"location": {"city": "Cumming", "state": "GA", "country": "United States"}}}}]}, "standing": {"placement": 2, "stats": {"score": {"value": 1}}}}, {"id": "91723219-1", "entrant": {"id": 20766543, "name": "Penguin", "participants": [{"id": 19111823, "gamerTag": "Penguin", "prefix": "", "user": {"location": {"city": "Atlanta", "state": "GA", "country": "United States"}}, "player": {"id": 4287822, "gamerTag": "Heart", "prefix": "", "user": {"location": {"city": "Atlanta", "state": "GA", "country": "United States"}}}}]}, "standing": {"placement": 1, "stats": {"score": {"value": 2}}}}], "games": null}, {"id": 91723213, "state": 3, "round": -5, "fullRoundText": "Losers Round 2", "completedAt": 1753232381, "winnerId": 20771789, "slots": [{"id": "91723213-0", "entrant": {"id": 20771789, "name": "PitchingAce33", "participants": [{"id": 19116519, "gamerTag": "PitchingAce33", "prefix": "", "user": {"location": {"city": null, "state": "GA", "country": "United States"}}, "player": {"id": 1198327, "gamerTag": "PitchingAce33", "prefix": "", "user": {"location": {"city": null, "state": "GA", "country": "United States"}}}}]}, "standing": {"placement": 1, "stats": {"score": {"value": 2}}}}, {"id": "91723213-1", "entrant": {"id": 20766482, "name": "Mighty Morfin", "participants": [{"id": 19111761, "gamerTag": "Mighty Morfin", "prefix": "", "user": {"location": {"city": "Gainesville", "state": "GA", "country": "United States"}}, "player": {"id": 1630530, "gamerTag": "Mighty Morfin", "prefix": "", "user": {"location": {"city": "Gainesville", "state": "GA", "country": "United States"}}}}]}, "standing": {"placement": 2, "stats": {"score": {"value": 0}}}}], "games": null}, {"id": 91723214, "state": 3, "round": -5, "fullRoundText": "Losers Round 2", "completedAt": 1753232863, "winnerId": 20770486, "slots": [{"id": "91723214-0", "entrant": {"id": 20771035, "name": "RM | WFF | Sakruoi", "participants": [{"id": 19115832, "gamerTag": "Sakruoi", "prefix": "RM | WFF", "user": {"location": {"city": "atlanta", "state": "GA", "country": "United States"}}, "player": {"id": 1230555, "gamerTag": "Sakruoi", "prefix": "RM | WFF", "user": {"location": {"city": "atlanta", "state": "GA", "country": "United States"}}}}]}, "standing": {"placement": 2, "stats": {"score": {"value": 0}}}}, {"id": "91723214-1", "entrant": {"id": 20770486, "name": "Vertebrae", "participants": [{"id": 19115352, "gamerTag": "Vertebrae", "prefix": "", "user": {"location": {"city": "Athens", "state": "GA", "country": "United States"}}, "player": {"id": 1583946, "gamerTag": "Vertebrae", "prefix": "CC", "user": {"location": {"city": "Athens", "state": "GA", "country": "United States"}}}}]}, "standing": {"placement": 1, "stats": {"score": {"value": 2}}}}], "games": null}, {"id": 91723215, "state": 3, "round": -5, "fullRoundText": "Losers Round 2", "completedAt": 1753233114, "winnerId": 20766543, "slots": [{"id": "91723215-0", "entrant": {"id": 20766543, "name": "Penguin", "participants": [{"id": 19111823, "gamerTag": "Penguin", "prefix": "", "user": {"location": {"city": "Atlanta", "state": "GA", "country": "United States"}}, "player": {"id": 4287822, "gamerTag": "Heart", "prefix": "", "user": {"location": {"city": "Atlanta", "state": "GA", "country": "United States"}}}}]}, "standing": {"placement": 1, "stats": {"score": {"value": 2}}}}, {"id": "91723215-1", "entrant": {"id": 20766896, "name": "ThatUser183", "participants": [{"id": 19112167, "gamerTag": "ThatUser183", "prefix": null, "user": {"location": {"city": "Suwanee", "state": "GA", "country": "United States"}}, "player": {"id": 2807415, "gamerTag": "ThatUser183", "prefix": null, "user": {"location": {"city": "Suwanee", "state": "GA", "country": "United States"}}}}]}, "standing": {"placement": 2, "stats": {"score": {"value": 0}}}}], "games": null}, {"id": 91723212, "state": 3, "round": -5, "fullRoundText": "Losers Round 2", "completedAt": 1753232261, "winnerId": 20771533, "slots": [{"id": "91723212-0", "entrant": {"id": 20771533, "name": "Typical!", "participants": [{"id": 19116285, "gamerTag": "Typical!", "prefix": "", "user": {"location": {"city": "Cumming", "state": "GA", "country": "United States"}}, "player": {"id": 1227171, "gamerTag": "Typical!", "prefix": "", "user": {"location": {"city": "Cumming", "state": "GA", "country": "United States"}}}}]}, "standing": {"placement": 1, "stats": {"score": {"value": 2}}}}, {"id": "91723212-1", "entrant": {"id": 20766485, "name": "Billy Jones", "participants": [{"id": 19111764, "gamerTag": "Billy Jones", "prefix": "", "user": {"location": {"city": "Atlanta", "state": "GA", "country": "United States"}}, "player": {"id": 1004383, "gamerTag": "Billy Jones", "prefix": "", "user": {"location": {"city": "Atlanta", "state": "GA", "country": "United States"}}}}]}, "standing": {"placement": 2, "stats": {"score": {"value": 0}}}}], "games": null}, {"id": 91723147, "state": 3, "round": 2, "fullRoundText": "Winners Round 2", "completedAt": 1753244814, "winnerId": 20771596, "slots": [{"id": "91723147-0", "entrant": {"id": 20771596, "name": "Ave~", "participants": [{"id": 19116344, "gamerTag": "Ave~", "prefix": "", "user": {"location": {"city": null, "state": null, "country": null}}, "player": {"id": 38830, "gamerTag": "Ave~", "prefix": "", "user": {"location": {"city": null, "state": null, "country": null}}}}]}, "standing": {"placement": 1, "stats": {"score": {"value": 2}}}}, {"id": "91723147-1", "entrant": {"id": 20766896, "name": "ThatUser183", "participants": [{"id": 19112167, "gamerTag": "ThatUser183", "prefix": null, "user": {"location": {"city": "Suwanee", "state": "GA", "country": "United States"}}, "player": {"id": 2807415, "gamerTag": "ThatUser183", "prefix": null, "user": {"location": {"city": "Suwanee", "state": "GA", "country": "United States"}}}}]}, "standing": {"placement": 2, "stats": {"score": {"value": 1}}}}], "games": [{"id": 31449752, "orderNum": 1, "winnerId": 20766896, "entrant1Score": 0, "entrant2Score": null, "stage": null, "selections": [{"id": 46296657, "selectionType": "CHARACTER", "selectionValue": 1795, "entrant": {"id": 20766896}, "character": {"id": 1795, "name": "Pyra & Mythra"}}, {"id": 46296658, "selectionType": "CHARACTER", "selectionValue": 1311, "entrant": {"id": 20771596}, "character": {"id": 1311, "name": "Mii Brawler"}}]}, {"id": 31449753, "orderNum": 2, "winnerId": 20771596, "entrant1Score": null, "entrant2Score": 0, "stage": null, "selections": [{"id": 46296659, "selectionType": "CHARACTER", "selectionValue": 1795, "entrant": {"id": 20766896}, "character": {"id": 1795, "name": "Pyra & Mythra"}}, {"id": 46296660, "selectionType": "CHARACTER", "selectionValue": 1311, "entrant": {"id": 20771596}, "character": {"id": 1311, "name": "Mii Brawler"}}]}, {"id": 31449754, "orderNum": 3, "winnerId": 20771596, "entrant1Score": null, "entrant2Score": 0, "stage": null, "selections": [{"id": 46296661, "selectionType": "CHARACTER", "selectionValue": 1795, "entrant": {"id": 20766896}, "character": {"id": 1795, "name": "Pyra & Mythra"}}, {"id": 46296662, "selectionType": "CHARACTER", "selectionValue": 1311, "entrant": {"id": 20771596}, "character": {"id": 1311, "name": "Mii Brawler"}}]}]}, {"id": 91723148, "state": 3, "round": 2, "fullRoundText": "Winners Round 2", "completedAt": 1753231692, "winnerId": 20771582, "slots": [{"id": "91723148-0", "entrant": {"id": 20771582, "name": "Bik spoon", "participants": [{"id": 19116330, "gamerTag": "Bik spoon", "prefix": "", "user": {"location": {"city": "Auburn", "state": "AL", "country": "United States"}}, "player": {"id": 1191430, "gamerTag": "Bik spoon", "prefix": "", "user": {"location": {"city": "Auburn", "state": "AL", "country": "United States"}}}}]}, "standing": {"placement": 1, "stats": {"score": {"value": 2}}}}, {"id": "91723148-1", "entrant": {"id": 20766543, "name": "Penguin", "participants": [{"id": 19111823, "gamerTag": "Penguin", "prefix": "", "user": {"location": {"city": "Atlanta", "state": "GA", "country": "United States"}}, "player": {"id": 4287822, "gamerTag": "Heart", "prefix": "", "user": {"location": {"city": "Atlanta", "state": "GA", "country": "United States"}}}}]}, "standing": {"placement": 2, "stats": {"score": {"value": 1}}}}], "games": null}, {"id": 91723149, "state": 3, "round": 2, "fullRoundText": "Winners Round 2", "completedAt": 1753231614, "winnerId": 20770747, "slots": [{"id": "91723149-0", "entrant": {"id": 20770747, "name": "UGA | Krishna", "participants": [{"id": 19115583, "gamerTag": "Krishna", "prefix": "UGA", "user": {"location": {"city": null, "state": null, "country": "United States"}}, "player": {"id": 2282949, "gamerTag": "Krishna", "prefix": "417", "user": {"location": {"city": null, "state": null, "country": "United States"}}}}]}, "standing": {"placement": 1, "stats": {"score": {"value": 2}}}}, {"id": "91723149-1", "entrant": {"id": 20770486, "name": "Vertebrae", "participants": [{"id": 19115352, "gamerTag": "Vertebrae", "prefix": "", "user": {"location": {"city": "Athens", "state": "GA", "country": "United States"}}, "player": {"id": 1583946, "gamerTag": "Vertebrae", "prefix": "CC", "user": {"location": {"city": "Athens", "state": "GA", "country": "United States"}}}}]}, "standing": {"placement": 2, "stats": {"score": {"value": 0}}}}], "games": null}, {"id": 91723150, "state": 3, "round": 2, "fullRoundText": "Winners Round 2", "completedAt": 1753231504, "winnerId": 20772205, "slots": [{"id": "91723150-0", "entrant": {"id": 20772205, "name": "Jeni", "participants": [{"id": 19116879, "gamerTag": "Jeni", "prefix": "", "user": {"location": {"city": null, "state": null, "country": null}}, "player": {"id": 1499467, "gamerTag": "Jeni", "prefix": "", "user": {"location": {"city": null, "state": null, "country": null}}}}]}, "standing": {"placement": 1, "stats": {"score": {"value": 2}}}}, {"id": "91723150-1", "entrant": {"id": 20771035, "name": "RM | WFF | Sakruoi", "participants": [{"id": 19115832, "gamerTag": "Sakruoi", "prefix": "RM | WFF", "user": {"location": {"city": "atlanta", "state": "GA", "country": "United States"}}, "player": {"id": 1230555, "gamerTag": "Sakruoi", "prefix": "RM | WFF", "user": {"location": {"city": "atlanta", "state": "GA", "country": "United States"}}}}]}, "standing": {"placement": 2, "stats": {"score": {"value": 0}}}}], "games": null}, {"id": 91723151, "state": 3, "round": 2, "fullRoundText": "Winners Round 2", "completedAt": 1753232003, "winnerId": 20768571, "slots": [{"id": "91723151-0", "entrant": {"id": 20768571, "name": "Nia", "participants": [{"id": 19113740, "gamerTag": "Nia", "prefix": null, "user": {"location": {"city": "Buford", "state": "GA", "country": "United States"}}, "player": {"id": 428070, "gamerTag": "Nia", "prefix": null, "user": {"location": {"city": "Buford", "state": "GA", "country": "United States"}}}}]}, "standing": {"placement": 1, "stats": {"score": {"value": 2}}}}, {"id": "91723151-1", "entrant": {"id": 20766482, "name": "Mighty Morfin", "participants": [{"id": 19111761, "gamerTag": "Mighty Morfin", "prefix": "", "user": {"location": {"city": "Gainesville", "state": "GA", "country": "United States"}}, "player": {"id": 1630530, "gamerTag": "Mighty Morfin", "prefix": "", "user": {"location": {"city": "Gainesville", "state": "GA", "country": "United States"}}}}]}, "standing": {"placement": 2, "stats": {"score": {"value": 0}}}}], "games": null}, {"id": 91723152, "state": 3, "round": 2, "fullRoundText": "Winners Round 2", "completedAt": 1753230932, "winnerId": 20769463, "slots": [{"id": "91723152-0", "entrant": {"id": 20771789, "name": "PitchingAce33", "participants": [{"id": 19116519, "gamerTag": "PitchingAce33", "prefix": "", "user": {"location": {"city": null, "state": "GA", "country": "United States"}}, "player": {"id": 1198327, "gamerTag": "PitchingAce33", "prefix": "", "user": {"location": {"city": null, "state": "GA", "country": "United States"}}}}]}, "standing": {"placement": 2, "stats": {"score": {"value": 0}}}}, {"id": "91723152-1", "entrant": {"id": 20769463, "name": "Boo", "participants": [{"id": 19114409, "gamerTag": "Boo", "prefix": "", "user": {"location": {"city": "Cumming", "state": "GA", "country": "United States"}}, "player": {"id": 2647915, "gamerTag": "Boo", "prefix": "", "user": {"location": {"city": "Cumming", "state": "GA", "country": "United States"}}}}]}, "standing": {"placement": 1, "stats": {"score": {"value": 2}}}}], "games": null}, {"id": 91723153, "state": 3, "round": 2, "fullRoundText": "Winners Round 2", "completedAt": 1753231748, "winnerId": 20771901, "slots": [{"id": "91723153-0", "entrant": {"id": 20771901, "name": "Impluvio", "participants": [{"id": 19116622, "gamerTag": "Impluvio", "prefix": "", "user": {"location": {"city": null, "state": null, "country": null}}, "player": {"id": 2175953, "gamerTag": "Impluvio", "prefix": "417", "user": {"location": {"city": null, "state": null, "country": null}}}}]}, "standing": {"placement": 1, "stats": {"score": {"value": 2}}}}, {"id": "91723153-1", "entrant": {"id": 20766485, "name": "Billy Jones", "participants": [{"id": 19111764, "gamerTag": "Billy Jones", "prefix": "", "user": {"location": {"city": "Atlanta", "state": "GA", "country": "United States"}}, "player": {"id": 1004383, "gamerTag": "Billy Jones", "prefix": "", "user": {"location": {"city": "Atlanta", "state": "GA", "country": "United States"}}}}]}, "standing": {"placement": 2, "stats": {"score": {"value": 0}}}}], "games": null}, {"id": 91723154, "state": 3, "round": 2, "fullRoundText": "Winners Round 2", "completedAt": 1753230984, "winnerId": 20772250, "slots": [{"id": "91723154-0", "entrant": {"id": 20771533, "name": "Typical!", "participants": [{"id": 19116285, "gamerTag": "Typical!", "prefix": "", "user": {"location": {"city": "Cumming", "state": "GA", "country": "United States"}}, "player": {"id": 1227171, "gamerTag": "Typical!", "prefix": "", "user": {"location": {"city": "Cumming", "state": "GA", "country": "United States"}}}}]}, "standing": {"placement": 2, "stats": {"score": {"value": 1}}}}, {"id": "91723154-1", "entrant": {"id": 20772250, "name": "Mellow", "participants": [{"id": 19116922, "gamerTag": "Mellow", "prefix": "", "user": {"location": {"city": null, "state": null, "country": null}}, "player": {"id": 951859, "gamerTag": "Mellow", "prefix": "", "user": {"location": {"city": null, "state": null, "country": null}}}}]}, "standing": {"placement": 1, "stats": {"score": {"value": 2}}}}], "games": null}]}}}