{"phase": {"seeds": {"pageInfo": {"totalPages": 1, "total": 7}, "nodes": [{"id": 36927533, "seedNum": 1, "entrant": {"id": 21482621, "name": "Armor Jeff", "participants": [{"id": 19742027, "gamerTag": "Armor Jeff", "prefix": "", "user": {"location": {"city": "Savannah", "state": "GA", "country": "United States"}}, "player": {"id": 3937751, "gamerTag": "Armor Jeff", "prefix": "", "user": {"location": {"city": "Savannah", "state": "GA", "country": "United States"}}}}]}}, {"id": 36922682, "seedNum": 5, "entrant": {"id": 21478852, "name": "JonGodSama", "participants": [{"id": 19738621, "gamerTag": "JonGodSama", "prefix": "", "user": {"location": {"city": null, "state": null, "country": "United States"}}, "player": {"id": 4495718, "gamerTag": "JonGodSama", "prefix": "Maybe", "user": {"location": {"city": null, "state": null, "country": "United States"}}}}]}}, {"id": 36921267, "seedNum": 2, "entrant": {"id": 21477707, "name": "dertdobber", "participants": [{"id": 19737599, "gamerTag": "dertdobber", "prefix": null, "user": {"location": {"city": "Savannah", "state": "GA", "country": "United States"}}, "player": {"id": 173899, "gamerTag": "dertdobber", "prefix": null, "user": {"location": {"city": "Savannah", "state": "GA", "country": "United States"}}}}]}}, {"id": 36921305, "seedNum": 3, "entrant": {"id": 21477738, "name": "otherzenith", "participants": [{"id": 19737618, "gamerTag": "otherzenith", "prefix": "", "user": {"location": {"city": "Kennesaw", "state": null, "country": "United States"}}, "player": {"id": 3827458, "gamerTag": "otherzenith", "prefix": "", "user": {"location": {"city": "Kennesaw", "state": null, "country": "United States"}}}}]}}, {"id": 36926303, "seedNum": 4, "entrant": {"id": 21481806, "name": "Scream Team | OhNyion", "participants": [{"id": 19741243, "gamerTag": "OhNyion", "prefix": "Scream Team", "user": {"location": {"city": "Savannah", "state": "GA", "country": "United States"}}, "player": {"id": 314719, "gamerTag": "OhNyion", "prefix": "Scream Team", "user": {"location": {"city": "Savannah", "state": "GA", "country": "United States"}}}}]}}, {"id": 36924862, "seedNum": 6, "entrant": {"id": 21480677, "name": "shinobu", "participants": [{"id": 19740317, "gamerTag": "shinobu", "prefix": null, "user": {"location": {"city": "Savannah", "state": "GA", "country": "United States"}}, "player": {"id": 5003262, "gamerTag": "shinobu", "prefix": "", "user": {"location": {"city": "Savannah", "state": "GA", "country": "United States"}}}}]}}, {"id": 36928247, "seedNum": 7, "entrant": {"id": 21483095, "name": "Gandolfthegr33n", "participants": [{"id": 19742490, "gamerTag": "Gandolfthegr33n", "prefix": "", "user": {"location": {"city": null, "state": null, "country": "United States"}}, "player": {"id": 5008221, "gamerTag": "Gandolfthegr33n", "prefix": "", "user": {"location": {"city": null, "state": null, "country": "United States"}}}}]}}]}}}