{"phase": {"seeds": {"pageInfo": {"totalPages": 1, "total": 8}, "nodes": [{"id": 36721844, "seedNum": 1, "entrant": {"id": 21339432, "name": "GRW | Shad", "participants": [{"id": 19615788, "gamerTag": "Shad", "prefix": "GRW", "user": {"location": {"city": null, "state": null, "country": "United States"}}, "player": {"id": 4332389, "gamerTag": "Shad", "prefix": "GRW", "user": {"location": {"city": null, "state": null, "country": "United States"}}}}]}}, {"id": 36721812, "seedNum": 2, "entrant": {"id": 21339401, "name": "Bany05", "participants": [{"id": 19613451, "gamerTag": "Bany05", "prefix": null, "user": {"location": {"city": null, "state": null, "country": null}}, "player": {"id": 2637493, "gamerTag": "Bany05", "prefix": null, "user": {"location": {"city": null, "state": null, "country": null}}}}]}}, {"id": 36721846, "seedNum": 3, "entrant": {"id": 21339434, "name": "ThePromisedHat", "participants": [{"id": 19591980, "gamerTag": "ThePromisedHat", "prefix": null, "user": {"location": {"city": "Bishop", "state": "GA", "country": "United States"}}, "player": {"id": 4261821, "gamerTag": "ThePromisedHat", "prefix": null, "user": {"location": {"city": "Bishop", "state": "GA", "country": "United States"}}}}]}}, {"id": 36721842, "seedNum": 5, "entrant": {"id": 21339430, "name": "Infinite_Radiance", "participants": [{"id": 19592267, "gamerTag": "Infinite_Radiance", "prefix": "", "user": {"location": {"city": null, "state": "GA", "country": "United States"}}, "player": {"id": 4926508, "gamerTag": "Infinite_Radiance", "prefix": "CC UGA", "user": {"location": {"city": null, "state": "GA", "country": "United States"}}}}]}}, {"id": 36721839, "seedNum": 4, "entrant": {"id": 21339427, "name": "UGA | | samtwo", "participants": [{"id": 19592586, "gamerTag": "samtwo", "prefix": "UGA |", "user": {"location": {"city": "Athens", "state": "GA", "country": "United States"}}, "player": {"id": 1246662, "gamerTag": "samtwo", "prefix": "UGA |", "user": {"location": {"city": "Athens", "state": "GA", "country": "United States"}}}}]}}, {"id": 36721840, "seedNum": 7, "entrant": {"id": 21339428, "name": "CC | Vertebrae", "participants": [{"id": 19591978, "gamerTag": "Vertebrae", "prefix": "CC", "user": {"location": {"city": "Athens", "state": "GA", "country": "United States"}}, "player": {"id": 1583946, "gamerTag": "Vertebrae", "prefix": "CC", "user": {"location": {"city": "Athens", "state": "GA", "country": "United States"}}}}]}}, {"id": 36721822, "seedNum": 6, "entrant": {"id": 21339410, "name": "LBE | Lumin!", "participants": [{"id": 19614525, "gamerTag": "Lumin!", "prefix": "LBE", "user": {"location": {"city": "Athens", "state": "GA", "country": "United States"}}, "player": {"id": 2737569, "gamerTag": "Lumin!", "prefix": "LBE", "user": {"location": {"city": "Athens", "state": "GA", "country": "United States"}}}}]}}, {"id": 36721811, "seedNum": 8, "entrant": {"id": 21339400, "name": "CheddrTV", "participants": [{"id": 19616160, "gamerTag": "CheddrTV", "prefix": "", "user": {"location": {"city": null, "state": "GA", "country": "United States"}}, "player": {"id": 4629852, "gamerTag": "CheddrTV", "prefix": "", "user": {"location": {"city": null, "state": "GA", "country": "United States"}}}}]}}]}}}