{"phase": {"seeds": {"pageInfo": {"totalPages": 1, "total": 29}, "nodes": [{"id": 36953343, "seedNum": 2, "entrant": {"id": 21501761, "name": "Ghost | NOMAR", "participants": [{"id": 19759121, "gamerTag": "NOMAR", "prefix": "Ghost", "user": {"location": {"city": "Jonesboro", "state": "GA", "country": "United States"}}, "player": {"id": 427989, "gamerTag": "NOMAR", "prefix": "Ghost", "user": {"location": {"city": "Jonesboro", "state": "GA", "country": "United States"}}}}]}}, {"id": 36952924, "seedNum": 1, "entrant": {"id": 21501477, "name": "JJBREEZE", "participants": [{"id": 19758883, "gamerTag": "JJBREEZE", "prefix": "", "user": {"location": {"city": "Atlanta", "state": "GA", "country": "United States"}}, "player": {"id": 688460, "gamerTag": "JJBREEZE", "prefix": "", "user": {"location": {"city": "Atlanta", "state": "GA", "country": "United States"}}}}]}}, {"id": 36949280, "seedNum": 6, "entrant": {"id": 21498431, "name": "duetosideeffects", "participants": [{"id": 19756124, "gamerTag": "duetosideeffects", "prefix": "", "user": {"location": {"city": "Atlanta", "state": "GA", "country": "United States"}}, "player": {"id": 924041, "gamerTag": "duetosideeffects", "prefix": "", "user": {"location": {"city": "Atlanta", "state": "GA", "country": "United States"}}}}]}}, {"id": 36941077, "seedNum": 3, "entrant": {"id": 21492059, "name": "BOLT | KhalRhaego", "participants": [{"id": 19750558, "gamerTag": "KhalRhaego", "prefix": "BOLT", "user": {"location": {"city": "Jonesboro", "state": "GA", "country": "United States"}}, "player": {"id": 4076327, "gamerTag": "KhalRhaego", "prefix": "BOLT", "user": {"location": {"city": "Jonesboro", "state": "GA", "country": "United States"}}}}]}}, {"id": 36950059, "seedNum": 5, "entrant": {"id": 21499143, "name": "Pokchop", "participants": [{"id": 19756738, "gamerTag": "Pokchop", "prefix": "", "user": {"location": {"city": "Atlanta", "state": "GA", "country": "United States"}}, "player": {"id": 150402, "gamerTag": "Pokchop", "prefix": "", "user": {"location": {"city": "Atlanta", "state": "GA", "country": "United States"}}}}]}}, {"id": 36950687, "seedNum": 13, "entrant": {"id": 21499693, "name": "GCH | slaughterwall", "participants": [{"id": 19757247, "gamerTag": "slaughterwall", "prefix": "GCH", "user": {"location": {"city": "Atlanta", "state": "GA", "country": "United States"}}, "player": {"id": 1104452, "gamerTag": "slaughterwall", "prefix": "GCH", "user": {"location": {"city": "Atlanta", "state": "GA", "country": "United States"}}}}]}}, {"id": 36911642, "seedNum": 10, "entrant": {"id": 21471142, "name": "InIt2WynneIt", "participants": [{"id": 19731738, "gamerTag": "InIt2WynneIt", "prefix": "", "user": {"location": {"city": "LAWRENCEVILLE", "state": "GA", "country": "United States"}}, "player": {"id": 260407, "gamerTag": "InIt2WynneIt", "prefix": "", "user": {"location": {"city": "LAWRENCEVILLE", "state": "GA", "country": "United States"}}}}]}}, {"id": 36952037, "seedNum": 28, "entrant": {"id": 21500894, "name": "Jet Dayo", "participants": [{"id": 19758357, "gamerTag": "Jet Dayo", "prefix": null, "user": {"location": {"city": null, "state": null, "country": null}}, "player": {"id": 2363656, "gamerTag": "Jet Dayo", "prefix": null, "user": {"location": {"city": null, "state": null, "country": null}}}}]}}, {"id": 36951460, "seedNum": 8, "entrant": {"id": 21500388, "name": "Armanisaint", "participants": [{"id": 19757903, "gamerTag": "Armanisaint", "prefix": null, "user": {"location": {"city": "Roswell", "state": "GA", "country": "United States"}}, "player": {"id": 3943806, "gamerTag": "Armanisaint", "prefix": null, "user": {"location": {"city": "Roswell", "state": "GA", "country": "United States"}}}}]}}, {"id": 36950445, "seedNum": 15, "entrant": {"id": 21499506, "name": "100% | juice", "participants": [{"id": 19757078, "gamerTag": "juice", "prefix": "100%", "user": {"location": {"city": "atlanta", "state": "GA", "country": "United States"}}, "player": {"id": 146905, "gamerTag": "juice", "prefix": "100%", "user": {"location": {"city": "atlanta", "state": "GA", "country": "United States"}}}}]}}, {"id": 36953048, "seedNum": 16, "entrant": {"id": 21501562, "name": "StrataJay", "participants": [{"id": 19758967, "gamerTag": "StrataJay", "prefix": "", "user": {"location": {"city": "Grayson", "state": "GA", "country": "United States"}}, "player": {"id": 1112189, "gamerTag": "StrataJay", "prefix": "", "user": {"location": {"city": "Grayson", "state": "GA", "country": "United States"}}}}]}}, {"id": 36951062, "seedNum": 17, "entrant": {"id": 21500020, "name": "TOG | HiroATL", "participants": [{"id": 19757537, "gamerTag": "HiroATL", "prefix": "TOG", "user": {"location": {"city": "Decatur", "state": "GA", "country": "United States"}}, "player": {"id": 1384726, "gamerTag": "HiroATL", "prefix": "TOG", "user": {"location": {"city": "Decatur", "state": "GA", "country": "United States"}}}}]}}, {"id": 36951969, "seedNum": 4, "entrant": {"id": 21500856, "name": "Aneubys", "participants": [{"id": 19758323, "gamerTag": "Aneubys", "prefix": "", "user": {"location": {"city": "Smyrna", "state": "GA", "country": "United States"}}, "player": {"id": 3901259, "gamerTag": "Aneubys", "prefix": "", "user": {"location": {"city": "Smyrna", "state": "GA", "country": "United States"}}}}]}}, {"id": 36951269, "seedNum": 7, "entrant": {"id": 21500206, "name": "Myk_JUMP", "participants": [{"id": 19757714, "gamerTag": "Myk_JUMP", "prefix": "", "user": {"location": {"city": "Atlanta", "state": "GA", "country": "United States"}}, "player": {"id": 469002, "gamerTag": "Myk_JUMP", "prefix": "", "user": {"location": {"city": "Atlanta", "state": "GA", "country": "United States"}}}}]}}, {"id": 36949388, "seedNum": 9, "entrant": {"id": 21498524, "name": "Iso.Dgaf", "participants": [{"id": 19756196, "gamerTag": "Iso.Dgaf", "prefix": null, "user": {"location": {"city": "Acworth", "state": "GA", "country": "United States"}}, "player": {"id": 4285541, "gamerTag": "Iso.Dgaf", "prefix": null, "user": {"location": {"city": "Acworth", "state": "GA", "country": "United States"}}}}]}}, {"id": 36942783, "seedNum": 25, "entrant": {"id": 21493580, "name": "Momokins", "participants": [{"id": 19751759, "gamerTag": "Momokins", "prefix": "", "user": {"location": {"city": "Atlanta", "state": "GA", "country": "United States"}}, "player": {"id": 612216, "gamerTag": "Momokins", "prefix": "", "user": {"location": {"city": "Atlanta", "state": "GA", "country": "United States"}}}}]}}, {"id": 36951553, "seedNum": 11, "entrant": {"id": 21500471, "name": "C-2", "participants": [{"id": 19757983, "gamerTag": "C-2", "prefix": "", "user": {"location": {"city": "Atlanta", "state": "GA", "country": "United States"}}, "player": {"id": 1228856, "gamerTag": "C-2", "prefix": "", "user": {"location": {"city": "Atlanta", "state": "GA", "country": "United States"}}}}]}}, {"id": 36949371, "seedNum": 12, "entrant": {"id": 21498508, "name": "Greed", "participants": [{"id": 19756184, "gamerTag": "Greed", "prefix": "", "user": {"location": {"city": "Atlanta", "state": "GA", "country": "United States"}}, "player": {"id": 907329, "gamerTag": "Greed", "prefix": "", "user": {"location": {"city": "Atlanta", "state": "GA", "country": "United States"}}}}]}}, {"id": 36952569, "seedNum": 14, "entrant": {"id": 21501179, "name": "REHOO", "participants": [{"id": 19758608, "gamerTag": "REHOO", "prefix": null, "user": {"location": {"city": "jonesboro", "state": "GA", "country": "United States"}}, "player": {"id": 427983, "gamerTag": "REHOO", "prefix": null, "user": {"location": {"city": "jonesboro", "state": "GA", "country": "United States"}}}}]}}, {"id": 36951026, "seedNum": 18, "entrant": {"id": 21499985, "name": "HEAVANER", "participants": [{"id": 19757502, "gamerTag": "HEAVANER", "prefix": "", "user": null, "player": {"id": 4912576, "gamerTag": "HEAVANER", "prefix": "", "user": null}}]}}, {"id": 36940426, "seedNum": 19, "entrant": {"id": 21491500, "name": "Eternia Corp. | HBKdoza", "participants": [{"id": 19750027, "gamerTag": "HBKdoza", "prefix": "Eternia Corp.", "user": {"location": {"city": "Decatur", "state": "GA", "country": "United States"}}, "player": {"id": 3426567, "gamerTag": "HBKdoza", "prefix": "Eternia Corp.", "user": {"location": {"city": "Decatur", "state": "GA", "country": "United States"}}}}]}}, {"id": 36934341, "seedNum": 20, "entrant": {"id": 21486712, "name": "BigKuma", "participants": [{"id": 19745748, "gamerTag": "BigKuma", "prefix": null, "user": {"location": {"city": "Valley", "state": "AL", "country": "United States"}}, "player": {"id": 1123516, "gamerTag": "BigKuma", "prefix": null, "user": {"location": {"city": "Valley", "state": "AL", "country": "United States"}}}}]}}, {"id": 36910176, "seedNum": 22, "entrant": {"id": 21470050, "name": "Bronzjo", "participants": [{"id": 19730855, "gamerTag": "Bronzjo", "prefix": null, "user": {"location": {"city": "Lula", "state": "GA", "country": "United States"}}, "player": {"id": 4622459, "gamerTag": "Bronzjo", "prefix": null, "user": {"location": {"city": "Lula", "state": "GA", "country": "United States"}}}}]}}, {"id": 36953092, "seedNum": 23, "entrant": {"id": 21501601, "name": "Hikensha", "participants": [{"id": 19758995, "gamerTag": "Hikensha", "prefix": "", "user": {"location": {"city": null, "state": null, "country": "United States"}}, "player": {"id": 2261057, "gamerTag": "Hikensha", "prefix": "", "user": {"location": {"city": null, "state": null, "country": "United States"}}}}]}}, {"id": 36951088, "seedNum": 21, "entrant": {"id": 21500046, "name": "Fiji | 100 Latinas", "participants": [{"id": 19757562, "gamerTag": "100 Latinas", "prefix": "Fiji", "user": {"location": {"city": "Lithonia", "state": "GA", "country": "United States"}}, "player": {"id": 1890427, "gamerTag": "100 Latinas", "prefix": "Fiji", "user": {"location": {"city": "Lithonia", "state": "GA", "country": "United States"}}}}]}}, {"id": 36953304, "seedNum": 24, "entrant": {"id": 21501741, "name": "PesciFights", "participants": [{"id": 19759108, "gamerTag": "PesciFights", "prefix": "", "user": {"location": {"city": "Canton", "state": "GA", "country": "United States"}}, "player": {"id": 1636821, "gamerTag": "PesciFights", "prefix": "", "user": {"location": {"city": "Canton", "state": "GA", "country": "United States"}}}}]}}, {"id": 36953303, "seedNum": 26, "entrant": {"id": 21501733, "name": "Toemes", "participants": [{"id": 19759103, "gamerTag": "Toemes", "prefix": "", "user": {"location": {"city": "Marietta", "state": null, "country": "United States"}}, "player": {"id": 2421080, "gamerTag": "Toemes", "prefix": "", "user": {"location": {"city": "Marietta", "state": null, "country": "United States"}}}}]}}, {"id": 36953496, "seedNum": 27, "entrant": {"id": 21501881, "name": "USAF | ATL | Juynni", "participants": [{"id": 19759222, "gamerTag": "Juynni", "prefix": "USAF | ATL", "user": {"location": {"city": "Atlanta", "state": "GA", "country": "United States"}}, "player": {"id": 1601885, "gamerTag": "Juynni", "prefix": "USAF | ATL", "user": {"location": {"city": "Atlanta", "state": "GA", "country": "United States"}}}}]}}, {"id": 36953611, "seedNum": 29, "entrant": {"id": 21501965, "name": "YoungTaco", "participants": [{"id": 19759297, "gamerTag": "YoungTaco", "prefix": "", "user": {"location": {"city": null, "state": "GA", "country": "United States"}}, "player": {"id": 1239045, "gamerTag": "YoungTaco", "prefix": "", "user": {"location": {"city": null, "state": "GA", "country": "United States"}}}}]}}]}}}