{"phase": {"seeds": {"pageInfo": {"totalPages": 1, "total": 39}, "nodes": [{"id": 36375818, "seedNum": 2, "entrant": {"id": 21103200, "name": "omega", "participants": [{"id": 19411452, "gamerTag": "omega", "prefix": "", "user": {"location": {"city": "Suwanee", "state": "GA", "country": "United States"}}, "player": {"id": 24638, "gamerTag": "omega", "prefix": "", "user": {"location": {"city": "Suwanee", "state": "GA", "country": "United States"}}}}]}}, {"id": 36377371, "seedNum": 3, "entrant": {"id": 21104387, "name": "DTN | Jahzz0", "participants": [{"id": 19412532, "gamerTag": "Jahzz0", "prefix": "DTN", "user": {"location": {"city": null, "state": null, "country": "United States"}}, "player": {"id": 946548, "gamerTag": "Jahzz0", "prefix": "DTN", "user": {"location": {"city": null, "state": null, "country": "United States"}}}}]}}, {"id": 36376977, "seedNum": 1, "entrant": {"id": 21104106, "name": "SR | Kola", "participants": [{"id": 19412270, "gamerTag": "Kola", "prefix": "SR", "user": {"location": {"city": "Duluth", "state": "GA", "country": "United States"}}, "player": {"id": 18802, "gamerTag": "Kola", "prefix": "SR", "user": {"location": {"city": "Duluth", "state": "GA", "country": "United States"}}}}]}}, {"id": 36375612, "seedNum": 12, "entrant": {"id": 21103020, "name": "GUMP2 | Spider", "participants": [{"id": 19411289, "gamerTag": "Spider", "prefix": "GUMP2", "user": {"location": {"city": "Atlanta", "state": "GA", "country": "United States"}}, "player": {"id": 691176, "gamerTag": "Spider", "prefix": "GUMP2", "user": {"location": {"city": "Atlanta", "state": "GA", "country": "United States"}}}}]}}, {"id": 36377584, "seedNum": 4, "entrant": {"id": 21104518, "name": "HyperKirby", "participants": [{"id": 19412642, "gamerTag": "HyperKirby", "prefix": null, "user": {"location": {"city": "Lawrenceville", "state": "GA", "country": "United States"}}, "player": {"id": 71079, "gamerTag": "HyperKirby", "prefix": null, "user": {"location": {"city": "Lawrenceville", "state": "GA", "country": "United States"}}}}]}}, {"id": 36373974, "seedNum": 11, "entrant": {"id": 21101750, "name": "GUMP2 | ToxiC", "participants": [{"id": 19410105, "gamerTag": "ToxiC", "prefix": "GUMP2", "user": {"location": {"city": "Marietta", "state": "GA", "country": "United States"}}, "player": {"id": 2585804, "gamerTag": "ToxiC", "prefix": "GUMP2", "user": {"location": {"city": "Marietta", "state": "GA", "country": "United States"}}}}]}}, {"id": 36355450, "seedNum": 7, "entrant": {"id": 21090344, "name": "Tobe", "participants": [{"id": 19399790, "gamerTag": "Tobe", "prefix": "", "user": {"location": {"city": "Buford", "state": "GA", "country": "United States"}}, "player": {"id": 1646132, "gamerTag": "Tobe", "prefix": "", "user": {"location": {"city": "Buford", "state": "GA", "country": "United States"}}}}]}}, {"id": 36376177, "seedNum": 9, "entrant": {"id": 21103557, "name": "The Simpsons | Ryu from Streets", "participants": [{"id": 19411782, "gamerTag": "Ryu from Streets", "prefix": "The Simpsons", "user": {"location": {"city": null, "state": null, "country": null}}, "player": {"id": 2348605, "gamerTag": "Ryu from Streets", "prefix": "GUMP2", "user": {"location": {"city": null, "state": null, "country": null}}}}]}}, {"id": 36373021, "seedNum": 5, "entrant": {"id": 21100984, "name": "Cake", "participants": [{"id": 19409364, "gamerTag": "Cake", "prefix": "", "user": {"location": {"city": "Dallas", "state": "AL", "country": "United States"}}, "player": {"id": 1046075, "gamerTag": "Cake", "prefix": "", "user": {"location": {"city": "Dallas", "state": "AL", "country": "United States"}}}}]}}, {"id": 36377069, "seedNum": 8, "entrant": {"id": 21104169, "name": "KumaDusk", "participants": [{"id": 19412328, "gamerTag": "KumaDusk", "prefix": "", "user": {"location": {"city": "Lawrenceville", "state": "GA", "country": "United States"}}, "player": {"id": 253909, "gamerTag": "KumaDusk", "prefix": "", "user": {"location": {"city": "Lawrenceville", "state": "GA", "country": "United States"}}}}]}}, {"id": 36375900, "seedNum": 10, "entrant": {"id": 21103281, "name": "MBS | Vivid", "participants": [{"id": 19411533, "gamerTag": "Vivid", "prefix": "MBS", "user": {"location": {"city": "Atl", "state": "GA", "country": "United States"}}, "player": {"id": 499333, "gamerTag": "Vivid", "prefix": "MBS", "user": {"location": {"city": "Atl", "state": "GA", "country": "United States"}}}}]}}, {"id": 36371182, "seedNum": 14, "entrant": {"id": 21099804, "name": "RM | GUMP2 | Kr!stal:0", "participants": [{"id": 19408301, "gamerTag": "Kr!stal:0", "prefix": "RM | GUMP2", "user": {"location": {"city": "Lawrenceville", "state": "GA", "country": "United States"}}, "player": {"id": 2409815, "gamerTag": "AO ASHI SEASON 2 2026", "prefix": "RM | GUMP2", "user": {"location": {"city": "Lawrenceville", "state": "GA", "country": "United States"}}}}]}}, {"id": 36333177, "seedNum": 6, "entrant": {"id": 21077910, "name": "Ave~", "participants": [{"id": 19388610, "gamerTag": "Ave~", "prefix": "", "user": {"location": {"city": null, "state": null, "country": null}}, "player": {"id": 38830, "gamerTag": "Ave~", "prefix": "", "user": {"location": {"city": null, "state": null, "country": null}}}}]}}, {"id": 36376842, "seedNum": 13, "entrant": {"id": 21104015, "name": "Dragonned", "participants": [{"id": 19412195, "gamerTag": "Dragonned", "prefix": "", "user": {"location": {"city": "Fayetteville", "state": "GA", "country": "United States"}}, "player": {"id": 979040, "gamerTag": "Dragonned", "prefix": "", "user": {"location": {"city": "Fayetteville", "state": "GA", "country": "United States"}}}}]}}, {"id": 36376877, "seedNum": 16, "entrant": {"id": 21104029, "name": "CFL | Benji", "participants": [{"id": 19412207, "gamerTag": "Benji", "prefix": "CFL", "user": {"location": {"city": "Orlando", "state": "FL", "country": "United States"}}, "player": {"id": 2990255, "gamerTag": "Benji", "prefix": "CFL", "user": {"location": {"city": "Orlando", "state": "FL", "country": "United States"}}}}]}}, {"id": 36375715, "seedNum": 17, "entrant": {"id": 21103107, "name": "MilesisBae", "participants": [{"id": 19411364, "gamerTag": "MilesisBae", "prefix": "", "user": {"location": {"city": "Richmond", "state": "VA", "country": "United States"}}, "player": {"id": 1218383, "gamerTag": "MilesisBae", "prefix": "", "user": {"location": {"city": "Richmond", "state": "VA", "country": "United States"}}}}]}}, {"id": 36374915, "seedNum": 15, "entrant": {"id": 21102492, "name": "GUMP2 | JankTrees!", "participants": [{"id": 19410809, "gamerTag": "JankTrees!", "prefix": "GUMP2", "user": {"location": {"city": "Cartersville", "state": "GA", "country": "United States"}}, "player": {"id": 35695, "gamerTag": "JankTrees!", "prefix": "GUMP2", "user": {"location": {"city": "Cartersville", "state": "GA", "country": "United States"}}}}]}}, {"id": 36376038, "seedNum": 18, "entrant": {"id": 21103418, "name": "PH | Nimbus", "participants": [{"id": 19411658, "gamerTag": "Nimbus", "prefix": "PH", "user": {"location": {"city": "Roswell", "state": "GA", "country": "United States"}}, "player": {"id": 36462, "gamerTag": "Nimbus", "prefix": "PH", "user": {"location": {"city": "Roswell", "state": "GA", "country": "United States"}}}}]}}, {"id": 36375969, "seedNum": 20, "entrant": {"id": 21103350, "name": "GUMP2 | Woz but evil", "participants": [{"id": 19411598, "gamerTag": "Woz but evil", "prefix": "GUMP2", "user": {"location": {"city": "Avondale Estates", "state": "GA", "country": "United States"}}, "player": {"id": 225744, "gamerTag": "Z I C O", "prefix": "GUMP2", "user": {"location": {"city": "Avondale Estates", "state": "GA", "country": "United States"}}}}]}}, {"id": 36377440, "seedNum": 25, "entrant": {"id": 21104447, "name": "Juncineroar", "participants": [{"id": 19412583, "gamerTag": "Juncineroar", "prefix": "", "user": {"location": {"city": "Atlanta", "state": "GA", "country": "United States"}}, "player": {"id": 208790, "gamerTag": "Juncineroar", "prefix": "", "user": {"location": {"city": "Atlanta", "state": "GA", "country": "United States"}}}}]}}, {"id": 36375602, "seedNum": 26, "entrant": {"id": 21103011, "name": "Rain~", "participants": [{"id": 19411283, "gamerTag": "Rain~", "prefix": null, "user": {"location": {"city": "Atlanta", "state": "GA", "country": "United States"}}, "player": {"id": 4240164, "gamerTag": "Rain~", "prefix": null, "user": {"location": {"city": "Atlanta", "state": "GA", "country": "United States"}}}}]}}, {"id": 36377661, "seedNum": 27, "entrant": {"id": 21104559, "name": "UTO|WhaLey | Kingwifi", "participants": [{"id": 19412674, "gamerTag": "Kingwifi", "prefix": "UTO|WhaLey", "user": {"location": {"city": "Stone Mountain", "state": "GA", "country": "United States"}}, "player": {"id": 2016149, "gamerTag": "Whaley", "prefix": "KSU|UTO|BLZE", "user": {"location": {"city": "Stone Mountain", "state": "GA", "country": "United States"}}}}]}}, {"id": 36376308, "seedNum": 28, "entrant": {"id": 21103687, "name": "carlop", "participants": [{"id": 19411893, "gamerTag": "carlop", "prefix": null, "user": {"location": {"city": "Johns Creek", "state": "GA", "country": "United States"}}, "player": {"id": 3431919, "gamerTag": "carlop", "prefix": null, "user": {"location": {"city": "Johns Creek", "state": "GA", "country": "United States"}}}}]}}, {"id": 36375494, "seedNum": 30, "entrant": {"id": 21102919, "name": "Bagel", "participants": [{"id": 19411198, "gamerTag": "Bagel", "prefix": "", "user": {"location": {"city": "Atlanta", "state": "GA", "country": "United States"}}, "player": {"id": 1794753, "gamerTag": "Bagel", "prefix": "", "user": {"location": {"city": "Atlanta", "state": "GA", "country": "United States"}}}}]}}, {"id": 36376256, "seedNum": 19, "entrant": {"id": 21103636, "name": "VA | StreetDzine", "participants": [{"id": 19411853, "gamerTag": "StreetDzine", "prefix": "VA", "user": {"location": {"city": null, "state": null, "country": "United States"}}, "player": {"id": 989587, "gamerTag": "StreetDzine", "prefix": "VA", "user": {"location": {"city": null, "state": null, "country": "United States"}}}}]}}, {"id": 36376280, "seedNum": 22, "entrant": {"id": 21103660, "name": "Mentayy", "participants": [{"id": 19411872, "gamerTag": "Mentayy", "prefix": "", "user": {"location": {"city": null, "state": "GA", "country": "United States"}}, "player": {"id": 2586911, "gamerTag": "Mentayy", "prefix": "", "user": {"location": {"city": null, "state": "GA", "country": "United States"}}}}]}}, {"id": 36375964, "seedNum": 23, "entrant": {"id": 21103345, "name": "red dot", "participants": [{"id": 19411593, "gamerTag": "red dot", "prefix": "", "user": {"location": {"city": "Milton", "state": "GA", "country": "United States"}}, "player": {"id": 1812177, "gamerTag": "red dot", "prefix": "", "user": {"location": {"city": "Milton", "state": "GA", "country": "United States"}}}}]}}, {"id": 36371015, "seedNum": 31, "entrant": {"id": 21099646, "name": "KSU | Subzero", "participants": [{"id": 19408148, "gamerTag": "Subzero", "prefix": "KSU", "user": {"location": {"city": "Acworth", "state": "GA", "country": "United States"}}, "player": {"id": 1808159, "gamerTag": "Subzero", "prefix": "KSU", "user": {"location": {"city": "Acworth", "state": "GA", "country": "United States"}}}}]}}, {"id": 36374288, "seedNum": 32, "entrant": {"id": 21102017, "name": "promamamia", "participants": [{"id": 19410353, "gamerTag": "promamamia", "prefix": "", "user": {"location": {"city": "Alpharetta", "state": "GA", "country": "United States"}}, "player": {"id": 3548468, "gamerTag": "promamamia", "prefix": "", "user": {"location": {"city": "Alpharetta", "state": "GA", "country": "United States"}}}}]}}, {"id": 36374793, "seedNum": 34, "entrant": {"id": 21102406, "name": "4o4 | Sh33rZ", "participants": [{"id": 19410725, "gamerTag": "Sh33rZ", "prefix": "4o4", "user": {"location": {"city": "alpharetta", "state": "GA", "country": "United States"}}, "player": {"id": 3640465, "gamerTag": "Sh33rZ", "prefix": "4o4", "user": {"location": {"city": "alpharetta", "state": "GA", "country": "United States"}}}}]}}, {"id": 36375994, "seedNum": 35, "entrant": {"id": 21103376, "name": "Pleeploploop", "participants": [{"id": 19411622, "gamerTag": "Pleeploploop", "prefix": "", "user": {"location": {"city": "Snellville", "state": null, "country": "United States"}}, "player": {"id": 1739676, "gamerTag": "Pleeploploop", "prefix": "", "user": {"location": {"city": "Snellville", "state": null, "country": "United States"}}}}]}}, {"id": 36333706, "seedNum": 36, "entrant": {"id": 21078274, "name": "jack | jazzman", "participants": [{"id": 19388919, "gamerTag": "jazzman", "prefix": "jack", "user": {"location": {"city": "Athens", "state": "GA", "country": "United States"}}, "player": {"id": 3883272, "gamerTag": "jazzman", "prefix": "jack", "user": {"location": {"city": "Athens", "state": "GA", "country": "United States"}}}}]}}, {"id": 36362292, "seedNum": 21, "entrant": {"id": 21095530, "name": "Daiyan", "participants": [{"id": 19404386, "gamerTag": "Daiyan", "prefix": "", "user": {"location": {"city": "Lawrenceville", "state": "GA", "country": "United States"}}, "player": {"id": 1059715, "gamerTag": "Daiyan", "prefix": "", "user": {"location": {"city": "Lawrenceville", "state": "GA", "country": "United States"}}}}]}}, {"id": 36374072, "seedNum": 24, "entrant": {"id": 21101831, "name": "Free | Hue", "participants": [{"id": 19410180, "gamerTag": "Hue", "prefix": "Free", "user": {"location": {"city": "Union City", "state": "GA", "country": "United States"}}, "player": {"id": 35934, "gamerTag": "Hue", "prefix": "Free", "user": {"location": {"city": "Union City", "state": "GA", "country": "United States"}}}}]}}, {"id": 36364147, "seedNum": 29, "entrant": {"id": 21096991, "name": "KSU | colorful\u029a\u025e", "participants": [{"id": 19405542, "gamerTag": "colorful\u029a\u025e", "prefix": "KSU", "user": {"location": {"city": "Kennesaw", "state": "GA", "country": "United States"}}, "player": {"id": 1783074, "gamerTag": "colorful\u029a\u025e", "prefix": "KSU | RM", "user": {"location": {"city": "Kennesaw", "state": "GA", "country": "United States"}}}}]}}, {"id": 36376356, "seedNum": 33, "entrant": {"id": 21103719, "name": "SIR | vivor", "participants": [{"id": 19411922, "gamerTag": "vivor", "prefix": "SIR", "user": {"location": {"city": "Atlanta", "state": "GA", "country": "United States"}}, "player": {"id": 3373990, "gamerTag": "vivor", "prefix": "SIR", "user": {"location": {"city": "Atlanta", "state": "GA", "country": "United States"}}}}]}}, {"id": 36375655, "seedNum": 37, "entrant": {"id": 21103065, "name": "AP | EdiblePine", "participants": [{"id": 19411326, "gamerTag": "EdiblePine", "prefix": "AP", "user": {"location": {"city": "Atlanta", "state": "GA", "country": "United States"}}, "player": {"id": 1648278, "gamerTag": "EdiblePine", "prefix": "AP", "user": {"location": {"city": "Atlanta", "state": "GA", "country": "United States"}}}}]}}, {"id": 36354303, "seedNum": 38, "entrant": {"id": 21089320, "name": "Ghost", "participants": [{"id": 19398802, "gamerTag": "Ghost", "prefix": "", "user": {"location": {"city": "Atlanta", "state": "GA", "country": "United States"}}, "player": {"id": 1804488, "gamerTag": "Ghost", "prefix": "", "user": {"location": {"city": "Atlanta", "state": "GA", "country": "United States"}}}}]}}, {"id": 36376152, "seedNum": 39, "entrant": {"id": 21103536, "name": "Amyx", "participants": [{"id": 19411764, "gamerTag": "Amyx", "prefix": null, "user": {"location": {"city": "saint marys", "state": "GA", "country": "United States"}}, "player": {"id": 4772117, "gamerTag": "Amyx", "prefix": null, "user": {"location": {"city": "saint marys", "state": "GA", "country": "United States"}}}}]}}]}}}