{"event": {"sets": {"pageInfo": {"totalPages": 4, "total": 51}, "nodes": [{"id": 92321184, "state": 3, "round": 2, "fullRoundText": "Winners Round 2", "completedAt": 1754443384, "winnerId": 20891751, "slots": [{"id": "92321184-0", "entrant": {"id": 20891751, "name": "RM | GUMP2 | Kr!stal:0", "participants": [{"id": 19222993, "gamerTag": "Kr!stal:0", "prefix": "RM | GUMP2", "user": {"location": {"city": "Lawrenceville", "state": "GA", "country": "United States"}}, "player": {"id": 2409815, "gamerTag": "AO ASHI SEASON 2 2026", "prefix": "RM | GUMP2", "user": {"location": {"city": "Lawrenceville", "state": "GA", "country": "United States"}}}}]}, "standing": {"placement": 1, "stats": {"score": {"value": 2}}}}, {"id": "92321184-1", "entrant": {"id": 20887151, "name": "UGA | Krishna", "participants": [{"id": 19218998, "gamerTag": "Krishna", "prefix": "UGA", "user": {"location": {"city": null, "state": null, "country": "United States"}}, "player": {"id": 2282949, "gamerTag": "Krishna", "prefix": "417", "user": {"location": {"city": null, "state": null, "country": "United States"}}}}]}, "standing": {"placement": 2, "stats": {"score": {"value": 1}}}}], "games": null}, {"id": 92321234, "state": 3, "round": -4, "fullRoundText": "Losers Round 2", "completedAt": 1754443977, "winnerId": 20887151, "slots": [{"id": "92321234-0", "entrant": {"id": 20887151, "name": "UGA | Krishna", "participants": [{"id": 19218998, "gamerTag": "Krishna", "prefix": "UGA", "user": {"location": {"city": null, "state": null, "country": "United States"}}, "player": {"id": 2282949, "gamerTag": "Krishna", "prefix": "417", "user": {"location": {"city": null, "state": null, "country": "United States"}}}}]}, "standing": {"placement": 1, "stats": {"score": {"value": 2}}}}, {"id": "92321234-1", "entrant": {"id": 20890969, "name": "Bik spoon", "participants": [{"id": 19222308, "gamerTag": "Bik spoon", "prefix": "", "user": {"location": {"city": "Auburn", "state": "AL", "country": "United States"}}, "player": {"id": 1191430, "gamerTag": "Bik spoon", "prefix": "", "user": {"location": {"city": "Auburn", "state": "AL", "country": "United States"}}}}]}, "standing": {"placement": 2, "stats": {"score": {"value": 0}}}}], "games": null}, {"id": 92321235, "state": 3, "round": -4, "fullRoundText": "Losers Round 2", "completedAt": 1754443128, "winnerId": 20889091, "slots": [{"id": "92321235-0", "entrant": {"id": 20889091, "name": "Jeni", "participants": [{"id": 19220637, "gamerTag": "Jeni", "prefix": "", "user": {"location": {"city": null, "state": null, "country": null}}, "player": {"id": 1499467, "gamerTag": "Jeni", "prefix": "", "user": {"location": {"city": null, "state": null, "country": null}}}}]}, "standing": {"placement": 1, "stats": {"score": {"value": 2}}}}, {"id": "92321235-1", "entrant": {"id": 20880053, "name": "PL | Shusui", "participants": [{"id": 19212806, "gamerTag": "Shusui", "prefix": "PL", "user": {"location": {"city": "Suwanee", "state": "GA", "country": "United States"}}, "player": {"id": 3465710, "gamerTag": "Shusui", "prefix": "", "user": {"location": {"city": "Suwanee", "state": "GA", "country": "United States"}}}}]}, "standing": {"placement": 2, "stats": {"score": {"value": 1}}}}], "games": null}, {"id": 92321236, "state": 3, "round": -4, "fullRoundText": "Losers Round 2", "completedAt": 1754442953, "winnerId": 20889154, "slots": [{"id": "92321236-0", "entrant": {"id": 20889154, "name": "Impluvio", "participants": [{"id": 19220684, "gamerTag": "Impluvio", "prefix": "", "user": {"location": {"city": null, "state": null, "country": null}}, "player": {"id": 2175953, "gamerTag": "Impluvio", "prefix": "417", "user": {"location": {"city": null, "state": null, "country": null}}}}]}, "standing": {"placement": 1, "stats": {"score": {"value": 2}}}}, {"id": "92321236-1", "entrant": {"id": 20891274, "name": "Typical!", "participants": [{"id": 19222583, "gamerTag": "Typical!", "prefix": "", "user": {"location": {"city": "Cumming", "state": "GA", "country": "United States"}}, "player": {"id": 1227171, "gamerTag": "Typical!", "prefix": "", "user": {"location": {"city": "Cumming", "state": "GA", "country": "United States"}}}}]}, "standing": {"placement": 2, "stats": {"score": {"value": 0}}}}], "games": null}, {"id": 92321237, "state": 3, "round": -4, "fullRoundText": "Losers Round 2", "completedAt": 1754442344, "winnerId": 20890712, "slots": [{"id": "92321237-0", "entrant": {"id": 20890712, "name": "PitchingAce33", "participants": [{"id": 19222064, "gamerTag": "PitchingAce33", "prefix": "", "user": {"location": {"city": null, "state": "GA", "country": "United States"}}, "player": {"id": 1198327, "gamerTag": "PitchingAce33", "prefix": "", "user": {"location": {"city": null, "state": "GA", "country": "United States"}}}}]}, "standing": {"placement": 1, "stats": {"score": {"value": 2}}}}, {"id": "92321237-1", "entrant": {"id": 20888236, "name": "GUMP2 | Z I C O", "participants": [{"id": 19219958, "gamerTag": "Z I C O", "prefix": "GUMP2", "user": {"location": {"city": "Avondale Estates", "state": "GA", "country": "United States"}}, "player": {"id": 225744, "gamerTag": "Z I C O", "prefix": "GUMP2", "user": {"location": {"city": "Avondale Estates", "state": "GA", "country": "United States"}}}}]}, "standing": {"placement": 2, "stats": {"score": {"value": 0}}}}], "games": null}, {"id": 92321238, "state": 3, "round": -4, "fullRoundText": "Losers Round 2", "completedAt": 1754442814, "winnerId": 20882689, "slots": [{"id": "92321238-0", "entrant": {"id": 20882689, "name": "ThatUser183", "participants": [{"id": 19215255, "gamerTag": "ThatUser183", "prefix": null, "user": {"location": {"city": "Suwanee", "state": "GA", "country": "United States"}}, "player": {"id": 2807415, "gamerTag": "ThatUser183", "prefix": null, "user": {"location": {"city": "Suwanee", "state": "GA", "country": "United States"}}}}]}, "standing": {"placement": 1, "stats": {"score": {"value": 2}}}}, {"id": "92321238-1", "entrant": {"id": 20890967, "name": "Nestor", "participants": [{"id": 19222306, "gamerTag": "Nestor", "prefix": null, "user": {"location": {"city": "Gainesville", "state": "GA", "country": "United States"}}, "player": {"id": 1630543, "gamerTag": "Nestor", "prefix": null, "user": {"location": {"city": "Gainesville", "state": "GA", "country": "United States"}}}}]}, "standing": {"placement": 2, "stats": {"score": {"value": 1}}}}], "games": null}, {"id": 92321239, "state": 3, "round": -4, "fullRoundText": "Losers Round 2", "completedAt": 1754443669, "winnerId": 20878432, "slots": [{"id": "92321239-0", "entrant": {"id": 20878432, "name": "Billy Jones", "participants": [{"id": 19211214, "gamerTag": "Billy Jones", "prefix": "", "user": {"location": {"city": "Atlanta", "state": "GA", "country": "United States"}}, "player": {"id": 1004383, "gamerTag": "Billy Jones", "prefix": "", "user": {"location": {"city": "Atlanta", "state": "GA", "country": "United States"}}}}]}, "standing": {"placement": 1, "stats": {"score": {"value": 2}}}}, {"id": "92321239-1", "entrant": {"id": 20891505, "name": "Moopisegg", "participants": [{"id": 19222776, "gamerTag": "Moopisegg", "prefix": "", "user": {"location": {"city": null, "state": null, "country": "United States"}}, "player": {"id": 4680890, "gamerTag": "Moopisegg", "prefix": "", "user": {"location": {"city": null, "state": null, "country": "United States"}}}}]}, "standing": {"placement": 2, "stats": {"score": {"value": 1}}}}], "games": null}, {"id": 92321240, "state": 3, "round": -4, "fullRoundText": "Losers Round 2", "completedAt": 1754443589, "winnerId": 20888589, "slots": [{"id": "92321240-0", "entrant": {"id": 20888589, "name": "MilesisBae", "participants": [{"id": 19220237, "gamerTag": "MilesisBae", "prefix": "", "user": {"location": {"city": "Richmond", "state": "VA", "country": "United States"}}, "player": {"id": 1218383, "gamerTag": "MilesisBae", "prefix": "", "user": {"location": {"city": "Richmond", "state": "VA", "country": "United States"}}}}]}, "standing": {"placement": 1, "stats": {"score": {"value": 2}}}}, {"id": "92321240-1", "entrant": {"id": 20878434, "name": "Mighty Morfin", "participants": [{"id": 19211216, "gamerTag": "Mighty Morfin", "prefix": "", "user": {"location": {"city": "Gainesville", "state": "GA", "country": "United States"}}, "player": {"id": 1630530, "gamerTag": "Mighty Morfin", "prefix": "", "user": {"location": {"city": "Gainesville", "state": "GA", "country": "United States"}}}}]}, "standing": {"placement": 2, "stats": {"score": {"value": 0}}}}], "games": null}, {"id": 92321241, "state": 3, "round": -4, "fullRoundText": "Losers Round 2", "completedAt": 1754443197, "winnerId": 20888274, "slots": [{"id": "92321241-0", "entrant": {"id": 20888274, "name": "Rain~", "participants": [{"id": 19219995, "gamerTag": "Rain~", "prefix": null, "user": {"location": {"city": "Atlanta", "state": "GA", "country": "United States"}}, "player": {"id": 4240164, "gamerTag": "Rain~", "prefix": null, "user": {"location": {"city": "Atlanta", "state": "GA", "country": "United States"}}}}]}, "standing": {"placement": 1, "stats": {"score": {"value": 2}}}}, {"id": "92321241-1", "entrant": {"id": 20890971, "name": "Bakered", "participants": [{"id": 19222310, "gamerTag": "Bakered", "prefix": null, "user": {"location": {"city": "Buford", "state": "GA", "country": "United States"}}, "player": {"id": 1952789, "gamerTag": "Bakered", "prefix": null, "user": {"location": {"city": "Buford", "state": "GA", "country": "United States"}}}}]}, "standing": {"placement": 2, "stats": {"score": {"value": 1}}}}], "games": null}, {"id": 92321227, "state": 3, "round": -3, "fullRoundText": "Losers Round 1", "completedAt": 1754442130, "winnerId": 20880053, "slots": [{"id": "92321227-0", "entrant": {"id": 20880053, "name": "PL | Shusui", "participants": [{"id": 19212806, "gamerTag": "Shusui", "prefix": "PL", "user": {"location": {"city": "Suwanee", "state": "GA", "country": "United States"}}, "player": {"id": 3465710, "gamerTag": "Shusui", "prefix": "", "user": {"location": {"city": "Suwanee", "state": "GA", "country": "United States"}}}}]}, "standing": {"placement": 1, "stats": {"score": {"value": 2}}}}, {"id": "92321227-1", "entrant": {"id": 20891969, "name": "Hq", "participants": [{"id": 19223195, "gamerTag": "Hq", "prefix": "", "user": {"location": {"city": "Suwanee", "state": "GA", "country": "United States"}}, "player": {"id": 4680916, "gamerTag": "Hq", "prefix": "", "user": {"location": {"city": "Suwanee", "state": "GA", "country": "United States"}}}}]}, "standing": {"placement": 2, "stats": {"score": {"value": 0}}}}], "games": null}, {"id": 92321231, "state": 3, "round": -3, "fullRoundText": "Losers Round 1", "completedAt": 1754442370, "winnerId": 20891505, "slots": [{"id": "92321231-0", "entrant": {"id": 20891505, "name": "Moopisegg", "participants": [{"id": 19222776, "gamerTag": "Moopisegg", "prefix": "", "user": {"location": {"city": null, "state": null, "country": "United States"}}, "player": {"id": 4680890, "gamerTag": "Moopisegg", "prefix": "", "user": {"location": {"city": null, "state": null, "country": "United States"}}}}]}, "standing": {"placement": 1, "stats": {"score": {"value": 2}}}}, {"id": "92321231-1", "entrant": {"id": 20876475, "name": "brave", "participants": [{"id": 19209415, "gamerTag": "brave", "prefix": "", "user": {"location": {"city": "Lawrenceville", "state": "GA", "country": "United States"}}, "player": {"id": 1000536, "gamerTag": "brave", "prefix": "", "user": {"location": {"city": "Lawrenceville", "state": "GA", "country": "United States"}}}}]}, "standing": {"placement": 2, "stats": {"score": {"value": 0}}}}], "games": null}, {"id": 92321162, "state": 3, "round": 1, "fullRoundText": "Winners Round 1", "completedAt": 1754441112, "winnerId": 20888274, "slots": [{"id": "92321162-0", "entrant": {"id": 20888274, "name": "Rain~", "participants": [{"id": 19219995, "gamerTag": "Rain~", "prefix": null, "user": {"location": {"city": "Atlanta", "state": "GA", "country": "United States"}}, "player": {"id": 4240164, "gamerTag": "Rain~", "prefix": null, "user": {"location": {"city": "Atlanta", "state": "GA", "country": "United States"}}}}]}, "standing": {"placement": 1, "stats": {"score": {"value": 2}}}}, {"id": "92321162-1", "entrant": {"id": 20890969, "name": "Bik spoon", "participants": [{"id": 19222308, "gamerTag": "Bik spoon", "prefix": "", "user": {"location": {"city": "Auburn", "state": "AL", "country": "United States"}}, "player": {"id": 1191430, "gamerTag": "Bik spoon", "prefix": "", "user": {"location": {"city": "Auburn", "state": "AL", "country": "United States"}}}}]}, "standing": {"placement": 2, "stats": {"score": {"value": 0}}}}], "games": null}, {"id": 92321163, "state": 3, "round": 1, "fullRoundText": "Winners Round 1", "completedAt": 1754440496, "winnerId": 20888219, "slots": [{"id": "92321163-0", "entrant": {"id": 20888219, "name": "GUMP2 | STiCK", "participants": [{"id": 19219944, "gamerTag": "STiCK", "prefix": "GUMP2", "user": {"location": {"city": "Woodstock", "state": "GA", "country": "United States"}}, "player": {"id": 282674, "gamerTag": "STiCK", "prefix": "GUMP2", "user": {"location": {"city": "Woodstock", "state": "GA", "country": "United States"}}}}]}, "standing": {"placement": 1, "stats": {"score": {"value": 2}}}}, {"id": "92321163-1", "entrant": {"id": 20880053, "name": "PL | Shusui", "participants": [{"id": 19212806, "gamerTag": "Shusui", "prefix": "PL", "user": {"location": {"city": "Suwanee", "state": "GA", "country": "United States"}}, "player": {"id": 3465710, "gamerTag": "Shusui", "prefix": "", "user": {"location": {"city": "Suwanee", "state": "GA", "country": "United States"}}}}]}, "standing": {"placement": 2, "stats": {"score": {"value": 0}}}}], "games": null}, {"id": 92321164, "state": 3, "round": 1, "fullRoundText": "Winners Round 1", "completedAt": 1754440955, "winnerId": 20888589, "slots": [{"id": "92321164-0", "entrant": {"id": 20888589, "name": "MilesisBae", "participants": [{"id": 19220237, "gamerTag": "MilesisBae", "prefix": "", "user": {"location": {"city": "Richmond", "state": "VA", "country": "United States"}}, "player": {"id": 1218383, "gamerTag": "MilesisBae", "prefix": "", "user": {"location": {"city": "Richmond", "state": "VA", "country": "United States"}}}}]}, "standing": {"placement": 1, "stats": {"score": {"value": 2}}}}, {"id": "92321164-1", "entrant": {"id": 20891969, "name": "Hq", "participants": [{"id": 19223195, "gamerTag": "Hq", "prefix": "", "user": {"location": {"city": "Suwanee", "state": "GA", "country": "United States"}}, "player": {"id": 4680916, "gamerTag": "Hq", "prefix": "", "user": {"location": {"city": "Suwanee", "state": "GA", "country": "United States"}}}}]}, "standing": {"placement": 2, "stats": {"score": {"value": 0}}}}], "games": null}, {"id": 92321166, "state": 3, "round": 1, "fullRoundText": "Winners Round 1", "completedAt": 1754440600, "winnerId": 20878432, "slots": [{"id": "92321166-0", "entrant": {"id": 20891274, "name": "Typical!", "participants": [{"id": 19222583, "gamerTag": "Typical!", "prefix": "", "user": {"location": {"city": "Cumming", "state": "GA", "country": "United States"}}, "player": {"id": 1227171, "gamerTag": "Typical!", "prefix": "", "user": {"location": {"city": "Cumming", "state": "GA", "country": "United States"}}}}]}, "standing": {"placement": 2, "stats": {"score": {"value": 1}}}}, {"id": "92321166-1", "entrant": {"id": 20878432, "name": "Billy Jones", "participants": [{"id": 19211214, "gamerTag": "Billy Jones", "prefix": "", "user": {"location": {"city": "Atlanta", "state": "GA", "country": "United States"}}, "player": {"id": 1004383, "gamerTag": "Billy Jones", "prefix": "", "user": {"location": {"city": "Atlanta", "state": "GA", "country": "United States"}}}}]}, "standing": {"placement": 1, "stats": {"score": {"value": 2}}}}], "games": null}]}}}