{"phase": {"seeds": {"pageInfo": {"totalPages": 1, "total": 19}, "nodes": [{"id": 36940734, "seedNum": 1, "entrant": {"id": 21491787, "name": "GUMP2 | JankTrees!", "participants": [{"id": 19750299, "gamerTag": "JankTrees!", "prefix": "GUMP2", "user": {"location": {"city": "Cartersville", "state": "GA", "country": "United States"}}, "player": {"id": 35695, "gamerTag": "JankTrees!", "prefix": "GUMP2", "user": {"location": {"city": "Cartersville", "state": "GA", "country": "United States"}}}}]}}, {"id": 36950964, "seedNum": 2, "entrant": {"id": 21499930, "name": "CFL | Benji", "participants": [{"id": 19757452, "gamerTag": "Benji", "prefix": "CFL", "user": {"location": {"city": "Orlando", "state": "FL", "country": "United States"}}, "player": {"id": 2990255, "gamerTag": "Benji", "prefix": "CFL", "user": {"location": {"city": "Orlando", "state": "FL", "country": "United States"}}}}]}}, {"id": 36948641, "seedNum": 5, "entrant": {"id": 21497895, "name": "Boo", "participants": [{"id": 19755615, "gamerTag": "Boo", "prefix": "", "user": {"location": {"city": "Cumming", "state": "GA", "country": "United States"}}, "player": {"id": 2647915, "gamerTag": "Boo", "prefix": "", "user": {"location": {"city": "Cumming", "state": "GA", "country": "United States"}}}}]}}, {"id": 36949556, "seedNum": 4, "entrant": {"id": 21498686, "name": "GUMP2 | Z I C O", "participants": [{"id": 19756334, "gamerTag": "Z I C O", "prefix": "GUMP2", "user": {"location": {"city": "Avondale Estates", "state": "GA", "country": "United States"}}, "player": {"id": 225744, "gamerTag": "Z I C O", "prefix": "GUMP2", "user": {"location": {"city": "Avondale Estates", "state": "GA", "country": "United States"}}}}]}}, {"id": 36949817, "seedNum": 3, "entrant": {"id": 21498917, "name": "red dot", "participants": [{"id": 19756541, "gamerTag": "red dot", "prefix": "", "user": {"location": {"city": "Milton", "state": "GA", "country": "United States"}}, "player": {"id": 1812177, "gamerTag": "red dot", "prefix": "", "user": {"location": {"city": "Milton", "state": "GA", "country": "United States"}}}}]}}, {"id": 36952482, "seedNum": 6, "entrant": {"id": 21501091, "name": "BGA | KSU | WhopperFloppers", "participants": [{"id": 19758532, "gamerTag": "WhopperFloppers", "prefix": "BGA | KSU", "user": {"location": {"city": null, "state": null, "country": "United States"}}, "player": {"id": 2564706, "gamerTag": "WhopperFloppers", "prefix": "BGA | KSU", "user": {"location": {"city": null, "state": null, "country": "United States"}}}}]}}, {"id": 36949731, "seedNum": 7, "entrant": {"id": 21498831, "name": "KSU | colorful\u029a\u025e", "participants": [{"id": 19756462, "gamerTag": "colorful\u029a\u025e", "prefix": "KSU", "user": {"location": {"city": "Kennesaw", "state": "GA", "country": "United States"}}, "player": {"id": 1783074, "gamerTag": "colorful\u029a\u025e", "prefix": "KSU | RM", "user": {"location": {"city": "Kennesaw", "state": "GA", "country": "United States"}}}}]}}, {"id": 36947239, "seedNum": 8, "entrant": {"id": 21496796, "name": "KSU | Subzero", "participants": [{"id": 19754627, "gamerTag": "Subzero", "prefix": "KSU", "user": {"location": {"city": "Acworth", "state": "GA", "country": "United States"}}, "player": {"id": 1808159, "gamerTag": "Subzero", "prefix": "KSU", "user": {"location": {"city": "Acworth", "state": "GA", "country": "United States"}}}}]}}, {"id": 36951839, "seedNum": 9, "entrant": {"id": 21500735, "name": "RM | Prince Peach", "participants": [{"id": 19758212, "gamerTag": "Prince Peach", "prefix": "RM", "user": {"location": {"city": "Stone Mountain", "state": "GA", "country": "United States"}}, "player": {"id": 3003562, "gamerTag": "Prince Peach", "prefix": "RM", "user": {"location": {"city": "Stone Mountain", "state": "GA", "country": "United States"}}}}]}}, {"id": 36950446, "seedNum": 10, "entrant": {"id": 21499507, "name": "WDKL MTM | D*ron", "participants": [{"id": 19757079, "gamerTag": "D*ron", "prefix": "WDKL MTM", "user": {"location": {"city": "Smyrna", "state": "GA", "country": "United States"}}, "player": {"id": 516047, "gamerTag": "D*ron", "prefix": "WDKL MTM", "user": {"location": {"city": "Smyrna", "state": "GA", "country": "United States"}}}}]}}, {"id": 36950546, "seedNum": 14, "entrant": {"id": 21499596, "name": "Zarek", "participants": [{"id": 19757164, "gamerTag": "Zarek", "prefix": "", "user": {"location": {"city": "Atlanta", "state": "GA", "country": "United States"}}, "player": {"id": 405682, "gamerTag": "Zarek", "prefix": "", "user": {"location": {"city": "Atlanta", "state": "GA", "country": "United States"}}}}]}}, {"id": 36952486, "seedNum": 15, "entrant": {"id": 21501095, "name": "MTM | X", "participants": [{"id": 19758536, "gamerTag": "X", "prefix": "MTM", "user": {"location": {"city": "Sandy Springs", "state": "GA", "country": "United States"}}, "player": {"id": 2650387, "gamerTag": "X", "prefix": "MTM", "user": {"location": {"city": "Sandy Springs", "state": "GA", "country": "United States"}}}}]}}, {"id": 36948197, "seedNum": 11, "entrant": {"id": 21497590, "name": "jack | jazzman", "participants": [{"id": 19755319, "gamerTag": "jazzman", "prefix": "jack", "user": {"location": {"city": "Athens", "state": "GA", "country": "United States"}}, "player": {"id": 3883272, "gamerTag": "jazzman", "prefix": "jack", "user": {"location": {"city": "Athens", "state": "GA", "country": "United States"}}}}]}}, {"id": 36951109, "seedNum": 13, "entrant": {"id": 21500059, "name": "MTM | Mishmash", "participants": [{"id": 19757574, "gamerTag": "Mishmash", "prefix": "MTM", "user": {"location": {"city": "Cartersville", "state": "GA", "country": "United States"}}, "player": {"id": 4104907, "gamerTag": "Mishmash", "prefix": "MTM", "user": {"location": {"city": "Cartersville", "state": "GA", "country": "United States"}}}}]}}, {"id": 36951308, "seedNum": 16, "entrant": {"id": 21500245, "name": "Q", "participants": [{"id": 19757751, "gamerTag": "Q", "prefix": null, "user": {"location": {"city": null, "state": null, "country": null}}, "player": {"id": 3131876, "gamerTag": "Q", "prefix": null, "user": {"location": {"city": null, "state": null, "country": null}}}}]}}, {"id": 36900872, "seedNum": 18, "entrant": {"id": 21463377, "name": "Sylvinyx", "participants": [{"id": 19725490, "gamerTag": "Sylvinyx", "prefix": null, "user": {"location": {"city": null, "state": null, "country": null}}, "player": {"id": 4804141, "gamerTag": "Sylvinyx", "prefix": null, "user": {"location": {"city": null, "state": null, "country": null}}}}]}}, {"id": 36952562, "seedNum": 12, "entrant": {"id": 21501171, "name": "Vitamin C", "participants": [{"id": 19758601, "gamerTag": "Vitamin C", "prefix": null, "user": {"location": {"city": "Lawrenceville", "state": "GA", "country": "United States"}}, "player": {"id": 4943785, "gamerTag": "Vitamin C", "prefix": null, "user": {"location": {"city": "Lawrenceville", "state": "GA", "country": "United States"}}}}]}}, {"id": 36933064, "seedNum": 17, "entrant": {"id": 21485815, "name": "Ohple", "participants": [{"id": 19744931, "gamerTag": "Ohple", "prefix": null, "user": {"location": {"city": "Roswell", "state": "GA", "country": "United States"}}, "player": {"id": 134634, "gamerTag": "Ohple", "prefix": null, "user": {"location": {"city": "Roswell", "state": "GA", "country": "United States"}}}}]}}, {"id": 36951935, "seedNum": 19, "entrant": {"id": 21500822, "name": "KnoNaym", "participants": [{"id": 19758293, "gamerTag": "KnoNaym", "prefix": "", "user": null, "player": {"id": 5010960, "gamerTag": "KnoNaym", "prefix": "", "user": null}}]}}]}}}