{"phase": {"seeds": {"pageInfo": {"totalPages": 1, "total": 5}, "nodes": [{"id": 36772255, "seedNum": 1, "entrant": {"id": 21375087, "name": "Foam Root", "participants": [{"id": 19649153, "gamerTag": "Foam Root", "prefix": null, "user": {"location": {"city": "Covington", "state": "GA", "country": "United States"}}, "player": {"id": 541222, "gamerTag": "Foam Root", "prefix": "", "user": {"location": {"city": "Covington", "state": "GA", "country": "United States"}}}}]}}, {"id": 36667391, "seedNum": 2, "entrant": {"id": 21304127, "name": "Skate", "participants": [{"id": 19585807, "gamerTag": "Skate", "prefix": null, "user": {"location": {"city": null, "state": null, "country": "United States"}}, "player": {"id": 4045198, "gamerTag": "Skate", "prefix": null, "user": {"location": {"city": null, "state": null, "country": "United States"}}}}]}}, {"id": 36653010, "seedNum": 3, "entrant": {"id": 21293875, "name": "Hobbit", "participants": [{"id": 19576779, "gamerTag": "Hobbit", "prefix": null, "user": {"location": {"city": null, "state": "GA", "country": "United States"}}, "player": {"id": 4025480, "gamerTag": "Hobbit", "prefix": null, "user": {"location": {"city": null, "state": "GA", "country": "United States"}}}}]}}, {"id": 36782427, "seedNum": 4, "entrant": {"id": 21381991, "name": "OEG | EggJolk", "participants": [{"id": 19655242, "gamerTag": "EggJolk", "prefix": "OEG", "user": {"location": {"city": "Atlanta", "state": "GA", "country": "United States"}}, "player": {"id": 1009143, "gamerTag": "EggJolk", "prefix": "OEG", "user": {"location": {"city": "Atlanta", "state": "GA", "country": "United States"}}}}]}}, {"id": 36804961, "seedNum": 5, "entrant": {"id": 21398100, "name": "xXST4RRS41NTXx", "participants": [{"id": 19669020, "gamerTag": "xXST4RRS41NTXx", "prefix": null, "user": {"location": {"city": "Snellville", "state": "GA", "country": "United States"}}, "player": {"id": 4804435, "gamerTag": "xXST4RRS41NTXx", "prefix": null, "user": {"location": {"city": "Snellville", "state": "GA", "country": "United States"}}}}]}}]}}}