{"event": {"sets": {"pageInfo": {"totalPages": 3, "total": 33}, "nodes": [{"id": 94278988, "state": 3, "round": 2, "fullRoundText": "Winners Round 2", "completedAt": 1758760087, "winnerId": 21369873, "slots": [{"id": "94278988-0", "entrant": {"id": 21369873, "name": "O.N.2", "participants": [{"id": 19644588, "gamerTag": "O.N.2", "prefix": "", "user": {"location": {"city": "SNELLVILLE", "state": "GA", "country": "United States"}}, "player": {"id": 1042436, "gamerTag": "O.N.2", "prefix": "", "user": {"location": {"city": "SNELLVILLE", "state": "GA", "country": "United States"}}}}]}, "standing": {"placement": 1, "stats": {"score": {"value": 2}}}}, {"id": "94278988-1", "entrant": {"id": 21371117, "name": "REHOO", "participants": [{"id": 19645780, "gamerTag": "REHOO", "prefix": null, "user": {"location": {"city": "jonesboro", "state": "GA", "country": "United States"}}, "player": {"id": 427983, "gamerTag": "REHOO", "prefix": null, "user": {"location": {"city": "jonesboro", "state": "GA", "country": "United States"}}}}]}, "standing": {"placement": 2, "stats": {"score": {"value": 0}}}}], "games": null}, {"id": 94279038, "state": 3, "round": -4, "fullRoundText": "Losers Round 1", "completedAt": 1758761001, "winnerId": 21371117, "slots": [{"id": "94279038-0", "entrant": {"id": 21371117, "name": "REHOO", "participants": [{"id": 19645780, "gamerTag": "REHOO", "prefix": null, "user": {"location": {"city": "jonesboro", "state": "GA", "country": "United States"}}, "player": {"id": 427983, "gamerTag": "REHOO", "prefix": null, "user": {"location": {"city": "jonesboro", "state": "GA", "country": "United States"}}}}]}, "standing": {"placement": 1, "stats": {"score": {"value": 2}}}}, {"id": "94279038-1", "entrant": {"id": 21371152, "name": "WVSH", "participants": [{"id": 19645819, "gamerTag": "WVSH", "prefix": null, "user": {"location": {"city": "Atlanta", "state": "GA", "country": "United States"}}, "player": {"id": 4660025, "gamerTag": "WVSH", "prefix": null, "user": {"location": {"city": "Atlanta", "state": "GA", "country": "United States"}}}}]}, "standing": {"placement": 2, "stats": {"score": {"value": 1}}}}], "games": null}, {"id": 94278966, "state": 3, "round": 1, "fullRoundText": "Winners Round 1", "completedAt": 1758760142, "winnerId": 21369265, "slots": [{"id": "94278966-0", "entrant": {"id": 21369265, "name": "PrimeStone", "participants": [{"id": 19644007, "gamerTag": "PrimeStone", "prefix": null, "user": {"location": {"city": "Loganville", "state": "GA", "country": "United States"}}, "player": {"id": 1130909, "gamerTag": "PrimeStone", "prefix": null, "user": {"location": {"city": "Loganville", "state": "GA", "country": "United States"}}}}]}, "standing": {"placement": 1, "stats": {"score": {"value": 2}}}}, {"id": "94278966-1", "entrant": {"id": 21371152, "name": "WVSH", "participants": [{"id": 19645819, "gamerTag": "WVSH", "prefix": null, "user": {"location": {"city": "Atlanta", "state": "GA", "country": "United States"}}, "player": {"id": 4660025, "gamerTag": "WVSH", "prefix": null, "user": {"location": {"city": "Atlanta", "state": "GA", "country": "United States"}}}}]}, "standing": {"placement": 2, "stats": {"score": {"value": 0}}}}], "games": null}]}}}