{"phase": {"seeds": {"pageInfo": {"totalPages": 1, "total": 12}, "nodes": [{"id": 36056925, "seedNum": 1, "entrant": {"id": 20901665, "name": "JJBREEZE", "participants": [{"id": 19231630, "gamerTag": "JJBREEZE", "prefix": "", "user": {"location": {"city": "Atlanta", "state": "GA", "country": "United States"}}, "player": {"id": 688460, "gamerTag": "JJBREEZE", "prefix": "", "user": {"location": {"city": "Atlanta", "state": "GA", "country": "United States"}}}}]}}, {"id": 36054248, "seedNum": 7, "entrant": {"id": 20900393, "name": "Armanisaint", "participants": [{"id": 19230378, "gamerTag": "Armanisaint", "prefix": null, "user": {"location": {"city": "Roswell", "state": "GA", "country": "United States"}}, "player": {"id": 3943806, "gamerTag": "Armanisaint", "prefix": null, "user": {"location": {"city": "Roswell", "state": "GA", "country": "United States"}}}}]}}, {"id": 36055420, "seedNum": 3, "entrant": {"id": 20901414, "name": "4o4 | KhalRhaego", "participants": [{"id": 19231339, "gamerTag": "KhalRhaego", "prefix": "4o4", "user": {"location": {"city": "Jonesboro", "state": "GA", "country": "United States"}}, "player": {"id": 4076327, "gamerTag": "KhalRhaego", "prefix": "BOLT", "user": {"location": {"city": "Jonesboro", "state": "GA", "country": "United States"}}}}]}}, {"id": 36059402, "seedNum": 5, "entrant": {"id": 20902072, "name": "Iso.Dgaf", "participants": [{"id": 19232031, "gamerTag": "Iso.Dgaf", "prefix": null, "user": {"location": {"city": "Acworth", "state": "GA", "country": "United States"}}, "player": {"id": 4285541, "gamerTag": "Iso.Dgaf", "prefix": null, "user": {"location": {"city": "Acworth", "state": "GA", "country": "United States"}}}}]}}, {"id": 36055378, "seedNum": 2, "entrant": {"id": 20901380, "name": "duetosideeffects", "participants": [{"id": 19231308, "gamerTag": "duetosideeffects", "prefix": "", "user": {"location": {"city": "Atlanta", "state": "GA", "country": "United States"}}, "player": {"id": 924041, "gamerTag": "duetosideeffects", "prefix": "", "user": {"location": {"city": "Atlanta", "state": "GA", "country": "United States"}}}}]}}, {"id": 36057684, "seedNum": 10, "entrant": {"id": 20901768, "name": "4o4 | blitz", "participants": [{"id": 19231755, "gamerTag": "blitz", "prefix": "4o4", "user": {"location": {"city": "Lawrenceville", "state": "GA", "country": "United States"}}, "player": {"id": 2228539, "gamerTag": "blitz", "prefix": "4o4", "user": {"location": {"city": "Lawrenceville", "state": "GA", "country": "United States"}}}}]}}, {"id": 36041953, "seedNum": 8, "entrant": {"id": 20893336, "name": "ctrikz", "participants": [{"id": 19224113, "gamerTag": "ctrikz", "prefix": "", "user": {"location": {"city": null, "state": null, "country": null}}, "player": {"id": 1496863, "gamerTag": "ctrikz", "prefix": "", "user": {"location": {"city": null, "state": null, "country": null}}}}]}}, {"id": 36054629, "seedNum": 9, "entrant": {"id": 20900725, "name": "HEAVANER", "participants": [{"id": 19230717, "gamerTag": "HEAVANER", "prefix": "", "user": null, "player": {"id": 4912576, "gamerTag": "HEAVANER", "prefix": "", "user": null}}]}}, {"id": 36056229, "seedNum": 4, "entrant": {"id": 20901595, "name": "StrataJay", "participants": [{"id": 19231514, "gamerTag": "StrataJay", "prefix": "", "user": {"location": {"city": "Grayson", "state": "GA", "country": "United States"}}, "player": {"id": 1112189, "gamerTag": "StrataJay", "prefix": "", "user": {"location": {"city": "Grayson", "state": "GA", "country": "United States"}}}}]}}, {"id": 36049863, "seedNum": 6, "entrant": {"id": 20898556, "name": "GCH | slaughterwall", "participants": [{"id": 19228832, "gamerTag": "slaughterwall", "prefix": "GCH", "user": {"location": {"city": "Atlanta", "state": "GA", "country": "United States"}}, "player": {"id": 1104452, "gamerTag": "slaughterwall", "prefix": "GCH", "user": {"location": {"city": "Atlanta", "state": "GA", "country": "United States"}}}}]}}, {"id": 35999847, "seedNum": 11, "entrant": {"id": 20866740, "name": "Marcus", "participants": [{"id": 19201005, "gamerTag": "Marcus", "prefix": "", "user": {"location": {"city": "Decatur", "state": "GA", "country": "United States"}}, "player": {"id": 720330, "gamerTag": "Marcus", "prefix": "", "user": {"location": {"city": "Decatur", "state": "GA", "country": "United States"}}}}]}}, {"id": 36054359, "seedNum": 12, "entrant": {"id": 20900507, "name": "DeadlyNut", "participants": [{"id": 19230489, "gamerTag": "DeadlyNut", "prefix": "", "user": null, "player": {"id": 4912558, "gamerTag": "DeadlyNut", "prefix": "", "user": null}}]}}]}}}