{"phase": {"seeds": {"pageInfo": {"totalPages": 1, "total": 39}, "nodes": [{"id": 36327235, "seedNum": 1, "entrant": {"id": 21073297, "name": "Colbol", "participants": [{"id": 19384445, "gamerTag": "Colbol", "prefix": "", "user": {"location": {"city": "Tucker", "state": "GA", "country": "United States"}}, "player": {"id": 1009, "gamerTag": "Colbol", "prefix": "", "user": {"location": {"city": "Tucker", "state": "GA", "country": "United States"}}}}]}}, {"id": 36261538, "seedNum": 3, "entrant": {"id": 21027545, "name": "vivesthesia", "participants": [{"id": 19342915, "gamerTag": "vivesthesia", "prefix": null, "user": {"location": {"city": "Atlanta", "state": "GA", "country": "United States"}}, "player": {"id": 4395171, "gamerTag": "vivesthesia", "prefix": null, "user": {"location": {"city": "Atlanta", "state": "GA", "country": "United States"}}}}]}}, {"id": 36257413, "seedNum": 4, "entrant": {"id": 21024834, "name": "audrey", "participants": [{"id": 19340634, "gamerTag": "audrey", "prefix": null, "user": {"location": {"city": "Dunwoody", "state": "GA", "country": "United States"}}, "player": {"id": 1335864, "gamerTag": "audrey", "prefix": null, "user": {"location": {"city": "Dunwoody", "state": "GA", "country": "United States"}}}}]}}, {"id": 36328194, "seedNum": 2, "entrant": {"id": 21074075, "name": "Tipped Off | CAUP", "participants": [{"id": 19385122, "gamerTag": "CAUP", "prefix": "Tipped Off", "user": {"location": {"city": "Athens", "state": "GA", "country": "United States"}}, "player": {"id": 36662, "gamerTag": "CAUP", "prefix": "Tipped Off", "user": {"location": {"city": "Athens", "state": "GA", "country": "United States"}}}}]}}, {"id": 36321825, "seedNum": 6, "entrant": {"id": 21068954, "name": "Austintacious", "participants": [{"id": 19380462, "gamerTag": "Austintacious", "prefix": "", "user": {"location": {"city": "Atlanta", "state": "GA", "country": "United States"}}, "player": {"id": 14025, "gamerTag": "Austintacious", "prefix": "", "user": {"location": {"city": "Atlanta", "state": "GA", "country": "United States"}}}}]}}, {"id": 36300781, "seedNum": 8, "entrant": {"id": 21054213, "name": "cardd", "participants": [{"id": 19367288, "gamerTag": "cardd", "prefix": "", "user": {"location": {"city": "ATL", "state": "GA", "country": "United States"}}, "player": {"id": 34781, "gamerTag": "cardd", "prefix": "", "user": {"location": {"city": "ATL", "state": "GA", "country": "United States"}}}}]}}, {"id": 36323541, "seedNum": 7, "entrant": {"id": 21070261, "name": "Karan", "participants": [{"id": 19381678, "gamerTag": "Karan", "prefix": "", "user": {"location": {"city": "Atlanta", "state": "GA", "country": "United States"}}, "player": {"id": 35472, "gamerTag": "Karan", "prefix": "", "user": {"location": {"city": "Atlanta", "state": "GA", "country": "United States"}}}}]}}, {"id": 36327917, "seedNum": 13, "entrant": {"id": 21073897, "name": "omega", "participants": [{"id": 19384980, "gamerTag": "omega", "prefix": "", "user": {"location": {"city": "Suwanee", "state": "GA", "country": "United States"}}, "player": {"id": 24638, "gamerTag": "omega", "prefix": "", "user": {"location": {"city": "Suwanee", "state": "GA", "country": "United States"}}}}]}}, {"id": 36257981, "seedNum": 5, "entrant": {"id": 21025330, "name": "skyguy | Chris Danger", "participants": [{"id": 19341066, "gamerTag": "Chris Danger", "prefix": "skyguy", "user": {"location": {"city": "Atlanta", "state": "GA", "country": "United States"}}, "player": {"id": 2808268, "gamerTag": "Chris Danger", "prefix": "skyguy", "user": {"location": {"city": "Atlanta", "state": "GA", "country": "United States"}}}}]}}, {"id": 36260984, "seedNum": 10, "entrant": {"id": 21027008, "name": "Monolithic", "participants": [{"id": 19342471, "gamerTag": "Monolithic", "prefix": "", "user": {"location": {"city": "", "state": "GA", "country": "United States"}}, "player": {"id": 1926775, "gamerTag": "Monolithic", "prefix": "", "user": {"location": {"city": "", "state": "GA", "country": "United States"}}}}]}}, {"id": 36246996, "seedNum": 11, "entrant": {"id": 21018556, "name": "NMBS | Phteven", "participants": [{"id": 19334741, "gamerTag": "Phteven", "prefix": "NMBS", "user": {"location": {"city": "Mableton", "state": "GA", "country": "United States"}}, "player": {"id": 209952, "gamerTag": "Phteven", "prefix": "NMBS", "user": {"location": {"city": "Mableton", "state": "GA", "country": "United States"}}}}]}}, {"id": 36301149, "seedNum": 18, "entrant": {"id": 21054505, "name": "EVIL | Alas", "participants": [{"id": 19367531, "gamerTag": "Alas", "prefix": "EVIL", "user": {"location": {"city": null, "state": null, "country": null}}, "player": {"id": 25946, "gamerTag": "Alas", "prefix": "EVIL", "user": {"location": {"city": null, "state": null, "country": null}}}}]}}, {"id": 36257585, "seedNum": 14, "entrant": {"id": 21024994, "name": "Wolven", "participants": [{"id": 19340785, "gamerTag": "Wolven", "prefix": null, "user": {"location": {"city": "Atlanta", "state": "GA", "country": "United States"}}, "player": {"id": 126978, "gamerTag": "Wolven", "prefix": null, "user": {"location": {"city": "Atlanta", "state": "GA", "country": "United States"}}}}]}}, {"id": 36257171, "seedNum": 17, "entrant": {"id": 21024599, "name": "diremaykr", "participants": [{"id": 19340403, "gamerTag": "diremaykr", "prefix": null, "user": {"location": {"city": "Buford", "state": "GA", "country": "United States"}}, "player": {"id": 3207366, "gamerTag": "diremaykr", "prefix": "", "user": {"location": {"city": "Buford", "state": "GA", "country": "United States"}}}}]}}, {"id": 36318776, "seedNum": 22, "entrant": {"id": 21067179, "name": "Chamu", "participants": [{"id": 19378725, "gamerTag": "Chamu", "prefix": null, "user": {"location": {"city": "Columbia", "state": "SC", "country": "United States"}}, "player": {"id": 1471872, "gamerTag": "Chamu", "prefix": null, "user": {"location": {"city": "Columbia", "state": "SC", "country": "United States"}}}}]}}, {"id": 36292620, "seedNum": 24, "entrant": {"id": 21048563, "name": "noided", "participants": [{"id": 19362120, "gamerTag": "noided", "prefix": "", "user": {"location": {"city": "Atlanta", "state": "GA", "country": "United States"}}, "player": {"id": 2586521, "gamerTag": "noided", "prefix": "", "user": {"location": {"city": "Atlanta", "state": "GA", "country": "United States"}}}}]}}, {"id": 36274327, "seedNum": 12, "entrant": {"id": 21036383, "name": "Joseph", "participants": [{"id": 19351128, "gamerTag": "Joseph", "prefix": "", "user": {"location": {"city": "", "state": "AL", "country": "United States"}}, "player": {"id": 22422, "gamerTag": "Joseph", "prefix": "", "user": {"location": {"city": "", "state": "AL", "country": "United States"}}}}]}}, {"id": 36246995, "seedNum": 15, "entrant": {"id": 21018554, "name": "N/a | C$", "participants": [{"id": 19334740, "gamerTag": "C$", "prefix": "N/a", "user": {"location": null}, "player": {"id": 228175, "gamerTag": "C$", "prefix": "N/a", "user": {"location": null}}}]}}, {"id": 36314563, "seedNum": 16, "entrant": {"id": 21064374, "name": "GCB | fries", "participants": [{"id": 19376200, "gamerTag": "fries", "prefix": "GCB", "user": {"location": {"city": "Greer", "state": "SC", "country": "United States"}}, "player": {"id": 1120136, "gamerTag": "fries", "prefix": "GCB", "user": {"location": {"city": "Greer", "state": "SC", "country": "United States"}}}}]}}, {"id": 36326668, "seedNum": 19, "entrant": {"id": 21072844, "name": "BreathOfTheSwamp", "participants": [{"id": 19384031, "gamerTag": "BreathOfTheSwamp", "prefix": "", "user": null, "player": {"id": 4940327, "gamerTag": "BreathOfTheSwamp", "prefix": "", "user": null}}]}}, {"id": 36313622, "seedNum": 20, "entrant": {"id": 21063632, "name": "2ndary | Errant", "participants": [{"id": 19375549, "gamerTag": "Errant", "prefix": "2ndary", "user": {"location": {"city": "Atlanta", "state": "GA", "country": "United States"}}, "player": {"id": 2823413, "gamerTag": "Errant", "prefix": "2ndary", "user": {"location": {"city": "Atlanta", "state": "GA", "country": "United States"}}}}]}}, {"id": 36306269, "seedNum": 21, "entrant": {"id": 21058331, "name": "citizendog", "participants": [{"id": 19370789, "gamerTag": "citizendog", "prefix": "", "user": {"location": {"city": "Monroe", "state": "GA", "country": "United States"}}, "player": {"id": 176325, "gamerTag": "citizendog", "prefix": "", "user": {"location": {"city": "Monroe", "state": "GA", "country": "United States"}}}}]}}, {"id": 36307399, "seedNum": 23, "entrant": {"id": 21059262, "name": "Tyme", "participants": [{"id": 19371524, "gamerTag": "Tyme", "prefix": null, "user": {"location": {"city": null, "state": null, "country": null}}, "player": {"id": 325589, "gamerTag": "Tyme", "prefix": null, "user": {"location": {"city": null, "state": null, "country": null}}}}]}}, {"id": 36261208, "seedNum": 25, "entrant": {"id": 21027217, "name": "blaise", "participants": [{"id": 19342659, "gamerTag": "blaise", "prefix": "", "user": {"location": {"city": "douglasville", "state": "GA", "country": "United States"}}, "player": {"id": 1326121, "gamerTag": "blaise", "prefix": "", "user": {"location": {"city": "douglasville", "state": "GA", "country": "United States"}}}}]}}, {"id": 36323701, "seedNum": 26, "entrant": {"id": 21070403, "name": "Hardberry", "participants": [{"id": 19381815, "gamerTag": "Hardberry", "prefix": "", "user": {"location": {"city": "Marietta", "state": "GA", "country": "United States"}}, "player": {"id": 50855, "gamerTag": "hardberry", "prefix": "", "user": {"location": {"city": "Marietta", "state": "GA", "country": "United States"}}}}]}}, {"id": 36260424, "seedNum": 27, "entrant": {"id": 21026536, "name": "Deign", "participants": [{"id": 19342055, "gamerTag": "Deign", "prefix": "", "user": {"location": {"city": null, "state": null, "country": "United States"}}, "player": {"id": 325595, "gamerTag": "Deign", "prefix": "", "user": {"location": {"city": null, "state": null, "country": "United States"}}}}]}}, {"id": 36282621, "seedNum": 28, "entrant": {"id": 21041936, "name": "Juan J. Steven's", "participants": [{"id": 19356397, "gamerTag": "Juan J. Steven's", "prefix": null, "user": {"location": {"city": "atlanta", "state": "GA", "country": "United States"}}, "player": {"id": 3318064, "gamerTag": "Guts", "prefix": "\u72a0\u7272\u306e\u70d9\u5370", "user": {"location": {"city": "atlanta", "state": "GA", "country": "United States"}}}}]}}, {"id": 36323485, "seedNum": 29, "entrant": {"id": 21070204, "name": "KHW | Frumps", "participants": [{"id": 19381622, "gamerTag": "Frumps", "prefix": "KHW", "user": {"location": {"city": "Greenville", "state": "SC", "country": "United States"}}, "player": {"id": 2844590, "gamerTag": "Frumps", "prefix": "KHW", "user": {"location": {"city": "Greenville", "state": "SC", "country": "United States"}}}}]}}, {"id": 36266611, "seedNum": 30, "entrant": {"id": 21030256, "name": "Permafrost", "participants": [{"id": 19345445, "gamerTag": "Permafrost", "prefix": "", "user": {"location": {"city": "Atlanta", "state": "GA", "country": "United States"}}, "player": {"id": 1256898, "gamerTag": "Permafrost", "prefix": "", "user": {"location": {"city": "Atlanta", "state": "GA", "country": "United States"}}}}]}}, {"id": 36303260, "seedNum": 33, "entrant": {"id": 21056233, "name": "kablooey", "participants": [{"id": 19368963, "gamerTag": "kablooey", "prefix": "", "user": {"location": {"city": "Peachtree City", "state": "GA", "country": "United States"}}, "player": {"id": 220299, "gamerTag": "kablooey", "prefix": "milk", "user": {"location": {"city": "Peachtree City", "state": "GA", "country": "United States"}}}}]}}, {"id": 36323463, "seedNum": 34, "entrant": {"id": 21070185, "name": "BigSleep", "participants": [{"id": 19381604, "gamerTag": "BigSleep", "prefix": null, "user": {"location": {"city": null, "state": "GA", "country": "United States"}}, "player": {"id": 3638029, "gamerTag": "BigSleep", "prefix": null, "user": {"location": {"city": null, "state": "GA", "country": "United States"}}}}]}}, {"id": 36323425, "seedNum": 35, "entrant": {"id": 21070156, "name": "pwyezl", "participants": [{"id": 19381573, "gamerTag": "pwyezl", "prefix": null, "user": {"location": {"city": "Alpharetta", "state": "GA", "country": "United States"}}, "player": {"id": 4929686, "gamerTag": "pwyezl", "prefix": null, "user": {"location": {"city": "Alpharetta", "state": "GA", "country": "United States"}}}}]}}, {"id": 36258300, "seedNum": 9, "entrant": {"id": 21025529, "name": "Taza", "participants": [{"id": 19341254, "gamerTag": "Taza", "prefix": null, "user": {"location": {"city": "Roswell", "state": "GA", "country": "United States"}}, "player": {"id": 278724, "gamerTag": "Taza", "prefix": null, "user": {"location": {"city": "Roswell", "state": "GA", "country": "United States"}}}}]}}, {"id": 36327631, "seedNum": 31, "entrant": {"id": 21073646, "name": "STEEZY", "participants": [{"id": 19384758, "gamerTag": "STEEZY", "prefix": null, "user": {"location": {"city": "HELL", "state": "GA", "country": "United States"}}, "player": {"id": 2496238, "gamerTag": "STEEZY", "prefix": null, "user": {"location": {"city": "HELL", "state": "GA", "country": "United States"}}}}]}}, {"id": 36289506, "seedNum": 32, "entrant": {"id": 21046348, "name": "dgo", "participants": [{"id": 19360384, "gamerTag": "dgo", "prefix": null, "user": {"location": {"city": "Lithonia", "state": "GA", "country": "United States"}}, "player": {"id": 3821146, "gamerTag": "dgo", "prefix": null, "user": {"location": {"city": "Lithonia", "state": "GA", "country": "United States"}}}}]}}, {"id": 36323669, "seedNum": 36, "entrant": {"id": 21070375, "name": "June!", "participants": [{"id": 19381787, "gamerTag": "June!", "prefix": null, "user": {"location": {"city": null, "state": "GA", "country": "United States"}}, "player": {"id": 1969803, "gamerTag": "June!", "prefix": null, "user": {"location": {"city": null, "state": "GA", "country": "United States"}}}}]}}, {"id": 36261154, "seedNum": 37, "entrant": {"id": 21027163, "name": "TPS | $CAIT", "participants": [{"id": 19342612, "gamerTag": "$CAIT", "prefix": "TPS", "user": {"location": {"city": "Acworth", "state": "GA", "country": "United States"}}, "player": {"id": 3422494, "gamerTag": "$CAITLIN", "prefix": "TPS", "user": {"location": {"city": "Acworth", "state": "GA", "country": "United States"}}}}]}}, {"id": 36262514, "seedNum": 38, "entrant": {"id": 21028003, "name": "popsicle", "participants": [{"id": 19343372, "gamerTag": "popsicle", "prefix": "", "user": {"location": {"city": "Atlanta", "state": "GA", "country": "United States"}}, "player": {"id": 4435133, "gamerTag": "popsicle", "prefix": "", "user": {"location": {"city": "Atlanta", "state": "GA", "country": "United States"}}}}]}}, {"id": 36326887, "seedNum": 39, "entrant": {"id": 21072984, "name": "Juncineroar", "participants": [{"id": 19384161, "gamerTag": "Juncineroar", "prefix": "", "user": {"location": {"city": "Atlanta", "state": "GA", "country": "United States"}}, "player": {"id": 208790, "gamerTag": "Juncineroar", "prefix": "", "user": {"location": {"city": "Atlanta", "state": "GA", "country": "United States"}}}}]}}]}}}