{"phase": {"seeds": {"pageInfo": {"totalPages": 1, "total": 22}, "nodes": [{"id": 35730011, "seedNum": 1, "entrant": {"id": 20700634, "name": "Nia", "participants": [{"id": 19052057, "gamerTag": "Nia", "prefix": null, "user": {"location": {"city": "Buford", "state": "GA", "country": "United States"}}, "player": {"id": 428070, "gamerTag": "Nia", "prefix": null, "user": {"location": {"city": "Buford", "state": "GA", "country": "United States"}}}}]}}, {"id": 35729920, "seedNum": 3, "entrant": {"id": 20700544, "name": "Typical!", "participants": [{"id": 19051983, "gamerTag": "Typical!", "prefix": "", "user": {"location": {"city": "Cumming", "state": "GA", "country": "United States"}}, "player": {"id": 1227171, "gamerTag": "Typical!", "prefix": "", "user": {"location": {"city": "Cumming", "state": "GA", "country": "United States"}}}}]}}, {"id": 35732072, "seedNum": 10, "entrant": {"id": 20702400, "name": "Mellow", "participants": [{"id": 19053664, "gamerTag": "Mellow", "prefix": "", "user": {"location": {"city": null, "state": null, "country": null}}, "player": {"id": 951859, "gamerTag": "Mellow", "prefix": "", "user": {"location": {"city": null, "state": null, "country": null}}}}]}}, {"id": 35730574, "seedNum": 5, "entrant": {"id": 20701035, "name": "Rain~", "participants": [{"id": 19052432, "gamerTag": "Rain~", "prefix": null, "user": {"location": {"city": "Atlanta", "state": "GA", "country": "United States"}}, "player": {"id": 4240164, "gamerTag": "Rain~", "prefix": null, "user": {"location": {"city": "Atlanta", "state": "GA", "country": "United States"}}}}]}}, {"id": 35663100, "seedNum": 6, "entrant": {"id": 20651968, "name": "AO5 | ImPhenyl", "participants": [{"id": 19010110, "gamerTag": "ImPhenyl", "prefix": "AO5", "user": {"location": {"city": "Lawrenceville", "state": "GA", "country": "United States"}}, "player": {"id": 3256876, "gamerTag": "ImPhenyl", "prefix": "AO5", "user": {"location": {"city": "Lawrenceville", "state": "GA", "country": "United States"}}}}]}}, {"id": 35724567, "seedNum": 7, "entrant": {"id": 20696483, "name": "Penguin", "participants": [{"id": 19048572, "gamerTag": "Penguin", "prefix": "", "user": {"location": {"city": "Atlanta", "state": "GA", "country": "United States"}}, "player": {"id": 4287822, "gamerTag": "Heart", "prefix": "", "user": {"location": {"city": "Atlanta", "state": "GA", "country": "United States"}}}}]}}, {"id": 35723548, "seedNum": 2, "entrant": {"id": 20695707, "name": "Jeni", "participants": [{"id": 19047905, "gamerTag": "Jeni", "prefix": "", "user": {"location": {"city": null, "state": null, "country": null}}, "player": {"id": 1499467, "gamerTag": "Jeni", "prefix": "", "user": {"location": {"city": null, "state": null, "country": null}}}}]}}, {"id": 35731305, "seedNum": 4, "entrant": {"id": 20701721, "name": "PitchingAce33", "participants": [{"id": 19053087, "gamerTag": "PitchingAce33", "prefix": "", "user": {"location": {"city": null, "state": "GA", "country": "United States"}}, "player": {"id": 1198327, "gamerTag": "PitchingAce33", "prefix": "", "user": {"location": {"city": null, "state": "GA", "country": "United States"}}}}]}}, {"id": 35728990, "seedNum": 8, "entrant": {"id": 20699852, "name": "Bik spoon", "participants": [{"id": 19051378, "gamerTag": "Bik spoon", "prefix": "", "user": {"location": {"city": "Auburn", "state": "AL", "country": "United States"}}, "player": {"id": 1191430, "gamerTag": "Bik spoon", "prefix": "", "user": {"location": {"city": "Auburn", "state": "AL", "country": "United States"}}}}]}}, {"id": 35724671, "seedNum": 11, "entrant": {"id": 20696548, "name": "Grey", "participants": [{"id": 19048632, "gamerTag": "Grey", "prefix": null, "user": {"location": {"city": null, "state": "GA", "country": "United States"}}, "player": {"id": 1901973, "gamerTag": "Grey", "prefix": null, "user": {"location": {"city": null, "state": "GA", "country": "United States"}}}}]}}, {"id": 35711143, "seedNum": 13, "entrant": {"id": 20686972, "name": "Mighty Morfin", "participants": [{"id": 19040085, "gamerTag": "Mighty Morfin", "prefix": "", "user": {"location": {"city": "Gainesville", "state": "GA", "country": "United States"}}, "player": {"id": 1630530, "gamerTag": "Mighty Morfin", "prefix": "", "user": {"location": {"city": "Gainesville", "state": "GA", "country": "United States"}}}}]}}, {"id": 35713541, "seedNum": 16, "entrant": {"id": 20688729, "name": "jack | jazzman", "participants": [{"id": 19041760, "gamerTag": "jazzman", "prefix": "jack", "user": {"location": {"city": "Athens", "state": "GA", "country": "United States"}}, "player": {"id": 3883272, "gamerTag": "jazzman", "prefix": "jack", "user": {"location": {"city": "Athens", "state": "GA", "country": "United States"}}}}]}}, {"id": 35721623, "seedNum": 12, "entrant": {"id": 20694315, "name": "promamamia", "participants": [{"id": 19046679, "gamerTag": "promamamia", "prefix": "", "user": {"location": {"city": "Alpharetta", "state": "GA", "country": "United States"}}, "player": {"id": 3548468, "gamerTag": "promamamia", "prefix": "", "user": {"location": {"city": "Alpharetta", "state": "GA", "country": "United States"}}}}]}}, {"id": 35719379, "seedNum": 14, "entrant": {"id": 20693109, "name": "Master J.J.", "participants": [{"id": 19045767, "gamerTag": "Master J.J.", "prefix": "", "user": {"location": {"city": "New Britain", "state": "CT", "country": "United States"}}, "player": {"id": 41440, "gamerTag": "Master J.J.", "prefix": "", "user": {"location": {"city": "New Britain", "state": "CT", "country": "United States"}}}}]}}, {"id": 35728657, "seedNum": 15, "entrant": {"id": 20699515, "name": "ThatUser183", "participants": [{"id": 19051106, "gamerTag": "ThatUser183", "prefix": null, "user": {"location": {"city": "Suwanee", "state": "GA", "country": "United States"}}, "player": {"id": 2807415, "gamerTag": "ThatUser183", "prefix": null, "user": {"location": {"city": "Suwanee", "state": "GA", "country": "United States"}}}}]}}, {"id": 35714298, "seedNum": 19, "entrant": {"id": 20689305, "name": "CheddrTV", "participants": [{"id": 19042308, "gamerTag": "CheddrTV", "prefix": "", "user": {"location": {"city": null, "state": "GA", "country": "United States"}}, "player": {"id": 4629852, "gamerTag": "CheddrTV", "prefix": "", "user": {"location": {"city": null, "state": "GA", "country": "United States"}}}}]}}, {"id": 35711139, "seedNum": 9, "entrant": {"id": 20686968, "name": "Billy Jones", "participants": [{"id": 19040081, "gamerTag": "Billy Jones", "prefix": "", "user": {"location": {"city": "Atlanta", "state": "GA", "country": "United States"}}, "player": {"id": 1004383, "gamerTag": "Billy Jones", "prefix": "", "user": {"location": {"city": "Atlanta", "state": "GA", "country": "United States"}}}}]}}, {"id": 35728144, "seedNum": 17, "entrant": {"id": 20699234, "name": "Mc'Plow", "participants": [{"id": 19050869, "gamerTag": "Mc'Plow", "prefix": null, "user": {"location": {"city": "Athens", "state": "GA", "country": "United States"}}, "player": {"id": 4060815, "gamerTag": "Mc'Plow", "prefix": null, "user": {"location": {"city": "Athens", "state": "GA", "country": "United States"}}}}]}}, {"id": 35723516, "seedNum": 18, "entrant": {"id": 20695675, "name": "Hq", "participants": [{"id": 19047877, "gamerTag": "Hq", "prefix": "", "user": {"location": {"city": "Suwanee", "state": "GA", "country": "United States"}}, "player": {"id": 4680916, "gamerTag": "Hq", "prefix": "", "user": {"location": {"city": "Suwanee", "state": "GA", "country": "United States"}}}}]}}, {"id": 35701561, "seedNum": 20, "entrant": {"id": 20680385, "name": "Mothmanne", "participants": [{"id": 19034340, "gamerTag": "Mothmanne", "prefix": null, "user": {"location": {"city": null, "state": null, "country": "United States"}}, "player": {"id": 3649197, "gamerTag": "Mothmanne", "prefix": null, "user": {"location": {"city": null, "state": null, "country": "United States"}}}}]}}, {"id": 35724119, "seedNum": 21, "entrant": {"id": 20696202, "name": "PL | Shusui", "participants": [{"id": 19048325, "gamerTag": "Shusui", "prefix": "PL", "user": {"location": {"city": "Suwanee", "state": "GA", "country": "United States"}}, "player": {"id": 3465710, "gamerTag": "Shusui", "prefix": "", "user": {"location": {"city": "Suwanee", "state": "GA", "country": "United States"}}}}]}}, {"id": 35731367, "seedNum": 22, "entrant": {"id": 20701785, "name": "Moopisegg", "participants": [{"id": 19053143, "gamerTag": "Moopisegg", "prefix": "", "user": {"location": {"city": null, "state": null, "country": "United States"}}, "player": {"id": 4680890, "gamerTag": "Moopisegg", "prefix": "", "user": {"location": {"city": null, "state": null, "country": "United States"}}}}]}}]}}}