{"phase": {"seeds": {"pageInfo": {"totalPages": 1, "total": 26}, "nodes": [{"id": 36035193, "seedNum": 1, "entrant": {"id": 20888540, "name": "omega", "participants": [{"id": 19220197, "gamerTag": "omega", "prefix": "", "user": {"location": {"city": "Suwanee", "state": "GA", "country": "United States"}}, "player": {"id": 24638, "gamerTag": "omega", "prefix": "", "user": {"location": {"city": "Suwanee", "state": "GA", "country": "United States"}}}}]}}, {"id": 36036164, "seedNum": 2, "entrant": {"id": 20889386, "name": "DGS | spickles", "participants": [{"id": 19220871, "gamerTag": "spickles", "prefix": "DGS", "user": {"location": {"city": null, "state": null, "country": "United States"}}, "player": {"id": 1154793, "gamerTag": "spickles", "prefix": "DGS", "user": {"location": {"city": null, "state": null, "country": "United States"}}}}]}}, {"id": 36018335, "seedNum": 3, "entrant": {"id": 20876323, "name": "Ave~", "participants": [{"id": 19209281, "gamerTag": "Ave~", "prefix": "", "user": {"location": {"city": null, "state": null, "country": null}}, "player": {"id": 38830, "gamerTag": "Ave~", "prefix": "", "user": {"location": {"city": null, "state": null, "country": null}}}}]}}, {"id": 36039645, "seedNum": 7, "entrant": {"id": 20891821, "name": "Barbashop", "participants": [{"id": 19223054, "gamerTag": "Barbashop", "prefix": "", "user": {"location": {"city": null, "state": null, "country": null}}, "player": {"id": 2537853, "gamerTag": "Barbashop", "prefix": "", "user": {"location": {"city": null, "state": null, "country": null}}}}]}}, {"id": 36039807, "seedNum": 4, "entrant": {"id": 20891935, "name": "MBS | Vivid", "participants": [{"id": 19223162, "gamerTag": "Vivid", "prefix": "MBS", "user": {"location": {"city": "Atl", "state": "GA", "country": "United States"}}, "player": {"id": 499333, "gamerTag": "Vivid", "prefix": "MBS", "user": {"location": {"city": "Atl", "state": "GA", "country": "United States"}}}}]}}, {"id": 36038556, "seedNum": 5, "entrant": {"id": 20891102, "name": "GUMP2 | Spider", "participants": [{"id": 19222426, "gamerTag": "Spider", "prefix": "GUMP2", "user": {"location": {"city": "Atlanta", "state": "GA", "country": "United States"}}, "player": {"id": 691176, "gamerTag": "Spider", "prefix": "GUMP2", "user": {"location": {"city": "Atlanta", "state": "GA", "country": "United States"}}}}]}}, {"id": 36039437, "seedNum": 6, "entrant": {"id": 20891751, "name": "RM | GUMP2 | Kr!stal:0", "participants": [{"id": 19222993, "gamerTag": "Kr!stal:0", "prefix": "RM | GUMP2", "user": {"location": {"city": "Lawrenceville", "state": "GA", "country": "United States"}}, "player": {"id": 2409815, "gamerTag": "AO ASHI SEASON 2 2026", "prefix": "RM | GUMP2", "user": {"location": {"city": "Lawrenceville", "state": "GA", "country": "United States"}}}}]}}, {"id": 36035892, "seedNum": 10, "entrant": {"id": 20889154, "name": "Impluvio", "participants": [{"id": 19220684, "gamerTag": "Impluvio", "prefix": "", "user": {"location": {"city": null, "state": null, "country": null}}, "player": {"id": 2175953, "gamerTag": "Impluvio", "prefix": "417", "user": {"location": {"city": null, "state": null, "country": null}}}}]}}, {"id": 36034835, "seedNum": 8, "entrant": {"id": 20888219, "name": "GUMP2 | STiCK", "participants": [{"id": 19219944, "gamerTag": "STiCK", "prefix": "GUMP2", "user": {"location": {"city": "Woodstock", "state": "GA", "country": "United States"}}, "player": {"id": 282674, "gamerTag": "STiCK", "prefix": "GUMP2", "user": {"location": {"city": "Woodstock", "state": "GA", "country": "United States"}}}}]}}, {"id": 36035249, "seedNum": 9, "entrant": {"id": 20888589, "name": "MilesisBae", "participants": [{"id": 19220237, "gamerTag": "MilesisBae", "prefix": "", "user": {"location": {"city": "Richmond", "state": "VA", "country": "United States"}}, "player": {"id": 1218383, "gamerTag": "MilesisBae", "prefix": "", "user": {"location": {"city": "Richmond", "state": "VA", "country": "United States"}}}}]}}, {"id": 36035813, "seedNum": 14, "entrant": {"id": 20889091, "name": "Jeni", "participants": [{"id": 19220637, "gamerTag": "Jeni", "prefix": "", "user": {"location": {"city": null, "state": null, "country": null}}, "player": {"id": 1499467, "gamerTag": "Jeni", "prefix": "", "user": {"location": {"city": null, "state": null, "country": null}}}}]}}, {"id": 36022006, "seedNum": 20, "entrant": {"id": 20878432, "name": "Billy Jones", "participants": [{"id": 19211214, "gamerTag": "Billy Jones", "prefix": "", "user": {"location": {"city": "Atlanta", "state": "GA", "country": "United States"}}, "player": {"id": 1004383, "gamerTag": "Billy Jones", "prefix": "", "user": {"location": {"city": "Atlanta", "state": "GA", "country": "United States"}}}}]}}, {"id": 36033642, "seedNum": 11, "entrant": {"id": 20887151, "name": "UGA | Krishna", "participants": [{"id": 19218998, "gamerTag": "Krishna", "prefix": "UGA", "user": {"location": {"city": null, "state": null, "country": "United States"}}, "player": {"id": 2282949, "gamerTag": "Krishna", "prefix": "417", "user": {"location": {"city": null, "state": null, "country": "United States"}}}}]}}, {"id": 36037944, "seedNum": 15, "entrant": {"id": 20890712, "name": "PitchingAce33", "participants": [{"id": 19222064, "gamerTag": "PitchingAce33", "prefix": "", "user": {"location": {"city": null, "state": "GA", "country": "United States"}}, "player": {"id": 1198327, "gamerTag": "PitchingAce33", "prefix": "", "user": {"location": {"city": null, "state": "GA", "country": "United States"}}}}]}}, {"id": 36034888, "seedNum": 16, "entrant": {"id": 20888274, "name": "Rain~", "participants": [{"id": 19219995, "gamerTag": "Rain~", "prefix": null, "user": {"location": {"city": "Atlanta", "state": "GA", "country": "United States"}}, "player": {"id": 4240164, "gamerTag": "Rain~", "prefix": null, "user": {"location": {"city": "Atlanta", "state": "GA", "country": "United States"}}}}]}}, {"id": 36027395, "seedNum": 21, "entrant": {"id": 20882689, "name": "ThatUser183", "participants": [{"id": 19215255, "gamerTag": "ThatUser183", "prefix": null, "user": {"location": {"city": "Suwanee", "state": "GA", "country": "United States"}}, "player": {"id": 2807415, "gamerTag": "ThatUser183", "prefix": null, "user": {"location": {"city": "Suwanee", "state": "GA", "country": "United States"}}}}]}}, {"id": 36034852, "seedNum": 12, "entrant": {"id": 20888236, "name": "GUMP2 | Z I C O", "participants": [{"id": 19219958, "gamerTag": "Z I C O", "prefix": "GUMP2", "user": {"location": {"city": "Avondale Estates", "state": "GA", "country": "United States"}}, "player": {"id": 225744, "gamerTag": "Z I C O", "prefix": "GUMP2", "user": {"location": {"city": "Avondale Estates", "state": "GA", "country": "United States"}}}}]}}, {"id": 36038766, "seedNum": 13, "entrant": {"id": 20891274, "name": "Typical!", "participants": [{"id": 19222583, "gamerTag": "Typical!", "prefix": "", "user": {"location": {"city": "Cumming", "state": "GA", "country": "United States"}}, "player": {"id": 1227171, "gamerTag": "Typical!", "prefix": "", "user": {"location": {"city": "Cumming", "state": "GA", "country": "United States"}}}}]}}, {"id": 36038380, "seedNum": 17, "entrant": {"id": 20890969, "name": "Bik spoon", "participants": [{"id": 19222308, "gamerTag": "Bik spoon", "prefix": "", "user": {"location": {"city": "Auburn", "state": "AL", "country": "United States"}}, "player": {"id": 1191430, "gamerTag": "Bik spoon", "prefix": "", "user": {"location": {"city": "Auburn", "state": "AL", "country": "United States"}}}}]}}, {"id": 36038378, "seedNum": 18, "entrant": {"id": 20890967, "name": "Nestor", "participants": [{"id": 19222306, "gamerTag": "Nestor", "prefix": null, "user": {"location": {"city": "Gainesville", "state": "GA", "country": "United States"}}, "player": {"id": 1630543, "gamerTag": "Nestor", "prefix": null, "user": {"location": {"city": "Gainesville", "state": "GA", "country": "United States"}}}}]}}, {"id": 36022008, "seedNum": 19, "entrant": {"id": 20878434, "name": "Mighty Morfin", "participants": [{"id": 19211216, "gamerTag": "Mighty Morfin", "prefix": "", "user": {"location": {"city": "Gainesville", "state": "GA", "country": "United States"}}, "player": {"id": 1630530, "gamerTag": "Mighty Morfin", "prefix": "", "user": {"location": {"city": "Gainesville", "state": "GA", "country": "United States"}}}}]}}, {"id": 36038382, "seedNum": 22, "entrant": {"id": 20890971, "name": "Bakered", "participants": [{"id": 19222310, "gamerTag": "Bakered", "prefix": null, "user": {"location": {"city": "Buford", "state": "GA", "country": "United States"}}, "player": {"id": 1952789, "gamerTag": "Bakered", "prefix": null, "user": {"location": {"city": "Buford", "state": "GA", "country": "United States"}}}}]}}, {"id": 36024128, "seedNum": 25, "entrant": {"id": 20880053, "name": "PL | Shusui", "participants": [{"id": 19212806, "gamerTag": "Shusui", "prefix": "PL", "user": {"location": {"city": "Suwanee", "state": "GA", "country": "United States"}}, "player": {"id": 3465710, "gamerTag": "Shusui", "prefix": "", "user": {"location": {"city": "Suwanee", "state": "GA", "country": "United States"}}}}]}}, {"id": 36039111, "seedNum": 26, "entrant": {"id": 20891505, "name": "Moopisegg", "participants": [{"id": 19222776, "gamerTag": "Moopisegg", "prefix": "", "user": {"location": {"city": null, "state": null, "country": "United States"}}, "player": {"id": 4680890, "gamerTag": "Moopisegg", "prefix": "", "user": {"location": {"city": null, "state": null, "country": "United States"}}}}]}}, {"id": 36018501, "seedNum": 23, "entrant": {"id": 20876475, "name": "brave", "participants": [{"id": 19209415, "gamerTag": "brave", "prefix": "", "user": {"location": {"city": "Lawrenceville", "state": "GA", "country": "United States"}}, "player": {"id": 1000536, "gamerTag": "brave", "prefix": "", "user": {"location": {"city": "Lawrenceville", "state": "GA", "country": "United States"}}}}]}}, {"id": 36039831, "seedNum": 24, "entrant": {"id": 20891969, "name": "Hq", "participants": [{"id": 19223195, "gamerTag": "Hq", "prefix": "", "user": {"location": {"city": "Suwanee", "state": "GA", "country": "United States"}}, "player": {"id": 4680916, "gamerTag": "Hq", "prefix": "", "user": {"location": {"city": "Suwanee", "state": "GA", "country": "United States"}}}}]}}]}}}