{"phase": {"seeds": {"pageInfo": {"totalPages": 1, "total": 6}, "nodes": [{"id": 35786019, "seedNum": 3, "entrant": {"id": 20740251, "name": "ZB | lupeslounge", "participants": [{"id": 19086265, "gamerTag": "lupeslounge", "prefix": "ZB", "user": {"location": {"city": "Morrow", "state": "GA", "country": "United States"}}, "player": {"id": 303516, "gamerTag": "lupeslounge", "prefix": "ZB", "user": {"location": {"city": "Morrow", "state": "GA", "country": "United States"}}}}]}}, {"id": 35785996, "seedNum": 1, "entrant": {"id": 20740229, "name": "ZB | Gerard", "participants": [{"id": 19086246, "gamerTag": "Gerard", "prefix": "ZB", "user": {"location": {"city": "Atlanta", "state": "GA", "country": "United States"}}, "player": {"id": 325542, "gamerTag": "Gerard", "prefix": "ZB", "user": {"location": {"city": "Atlanta", "state": "GA", "country": "United States"}}}}]}}, {"id": 35663578, "seedNum": 2, "entrant": {"id": 20652281, "name": "ZB | Juniper", "participants": [{"id": 19010377, "gamerTag": "Juniper", "prefix": "ZB", "user": {"location": {"city": "Morrow", "state": "GA", "country": "United States"}}, "player": {"id": 46895, "gamerTag": "Juniper", "prefix": "ZB", "user": {"location": {"city": "Morrow", "state": "GA", "country": "United States"}}}}]}}, {"id": 35648809, "seedNum": 4, "entrant": {"id": 20642041, "name": "ZB | Sanaito", "participants": [{"id": 19001528, "gamerTag": "Sanaito", "prefix": "ZB", "user": {"location": {"city": "Fayetteville", "state": "GA", "country": "United States"}}, "player": {"id": 12761, "gamerTag": "Sanaito", "prefix": "ZB", "user": {"location": {"city": "Fayetteville", "state": "GA", "country": "United States"}}}}]}}, {"id": 35785828, "seedNum": 5, "entrant": {"id": 20740079, "name": "ZB | wolfy", "participants": [{"id": 19086119, "gamerTag": "wolfy", "prefix": "ZB", "user": {"location": {"city": "Tyrone", "state": "GA", "country": "United States"}}, "player": {"id": 295981, "gamerTag": "wolfy", "prefix": "ZB", "user": {"location": {"city": "Tyrone", "state": "GA", "country": "United States"}}}}]}}, {"id": 35652160, "seedNum": 6, "entrant": {"id": 20644836, "name": "Hobbit", "participants": [{"id": 19004014, "gamerTag": "Hobbit", "prefix": null, "user": {"location": {"city": null, "state": "GA", "country": "United States"}}, "player": {"id": 4025480, "gamerTag": "Hobbit", "prefix": null, "user": {"location": {"city": null, "state": "GA", "country": "United States"}}}}]}}]}}}