{"event": {"sets": {"pageInfo": {"totalPages": 4, "total": 51}, "nodes": [{"id": 92383163, "state": 3, "round": -6, "fullRoundText": "Losers Round 4", "completedAt": 1754616989, "winnerId": 20907739, "slots": [{"id": "92383163-0", "entrant": {"id": 20907739, "name": "carlop", "participants": [{"id": 19236915, "gamerTag": "carlop", "prefix": null, "user": {"location": {"city": "Johns Creek", "state": "GA", "country": "United States"}}, "player": {"id": 3431919, "gamerTag": "carlop", "prefix": null, "user": {"location": {"city": "Johns Creek", "state": "GA", "country": "United States"}}}}]}, "standing": {"placement": 1, "stats": {"score": {"value": 2}}}}, {"id": "92383163-1", "entrant": {"id": 20908322, "name": "4o4 | Sh33rZ", "participants": [{"id": 19237464, "gamerTag": "Sh33rZ", "prefix": "4o4", "user": {"location": {"city": "alpharetta", "state": "GA", "country": "United States"}}, "player": {"id": 3640465, "gamerTag": "Sh33rZ", "prefix": "4o4", "user": {"location": {"city": "alpharetta", "state": "GA", "country": "United States"}}}}]}, "standing": {"placement": 2, "stats": {"score": {"value": 0}}}}], "games": null}, {"id": 92383164, "state": 3, "round": -6, "fullRoundText": "Losers Round 4", "completedAt": 1754617121, "winnerId": 20908740, "slots": [{"id": "92383164-0", "entrant": {"id": 20908740, "name": "GG | varunk", "participants": [{"id": 19237880, "gamerTag": "varunk", "prefix": "GG", "user": {"location": {"city": "Marietta", "state": "GA", "country": "United States"}}, "player": {"id": 1653684, "gamerTag": "varunk", "prefix": "GG", "user": {"location": {"city": "Marietta", "state": "GA", "country": "United States"}}}}]}, "standing": {"placement": 1, "stats": {"score": {"value": 2}}}}, {"id": "92383164-1", "entrant": {"id": 20886672, "name": "Nikol", "participants": [{"id": 19218563, "gamerTag": "Nikol", "prefix": "", "user": {"location": {"city": "Stockbridge", "state": "GA", "country": "United States"}}, "player": {"id": 2152846, "gamerTag": "Nikol", "prefix": "", "user": {"location": {"city": "Stockbridge", "state": "GA", "country": "United States"}}}}]}, "standing": {"placement": 2, "stats": {"score": {"value": 0}}}}], "games": null}, {"id": 92383165, "state": 3, "round": -6, "fullRoundText": "Losers Round 4", "completedAt": 1754617814, "winnerId": 20904760, "slots": [{"id": "92383165-0", "entrant": {"id": 20907497, "name": "UTO | Whaley", "participants": [{"id": 19236707, "gamerTag": "Whaley", "prefix": "UTO", "user": {"location": {"city": "Stone Mountain", "state": "GA", "country": "United States"}}, "player": {"id": 2016149, "gamerTag": "Whaley", "prefix": "KSU|UTO|BLZE", "user": {"location": {"city": "Stone Mountain", "state": "GA", "country": "United States"}}}}]}, "standing": {"placement": 2, "stats": {"score": {"value": 0}}}}, {"id": "92383165-1", "entrant": {"id": 20904760, "name": "Free Puli | Maverick", "participants": [{"id": 19234256, "gamerTag": "Maverick", "prefix": "Free Puli", "user": {"location": {"city": "Columbus", "state": "GA", "country": "United States"}}, "player": {"id": 1058777, "gamerTag": "Maverick", "prefix": "", "user": {"location": {"city": "Columbus", "state": "GA", "country": "United States"}}}}]}, "standing": {"placement": 1, "stats": {"score": {"value": 2}}}}], "games": null}, {"id": 92383166, "state": 3, "round": -6, "fullRoundText": "Losers Round 4", "completedAt": 1754617612, "winnerId": 20909932, "slots": [{"id": "92383166-0", "entrant": {"id": 20909932, "name": "Juncineroar", "participants": [{"id": 19238945, "gamerTag": "Juncineroar", "prefix": "", "user": {"location": {"city": "Atlanta", "state": "GA", "country": "United States"}}, "player": {"id": 208790, "gamerTag": "Juncineroar", "prefix": "", "user": {"location": {"city": "Atlanta", "state": "GA", "country": "United States"}}}}]}, "standing": {"placement": 1, "stats": {"score": {"value": 2}}}}, {"id": "92383166-1", "entrant": {"id": 20906224, "name": "red dot", "participants": [{"id": 19235573, "gamerTag": "red dot", "prefix": "", "user": {"location": {"city": "Milton", "state": "GA", "country": "United States"}}, "player": {"id": 1812177, "gamerTag": "red dot", "prefix": "", "user": {"location": {"city": "Milton", "state": "GA", "country": "United States"}}}}]}, "standing": {"placement": 2, "stats": {"score": {"value": 1}}}}], "games": null}, {"id": 92383159, "state": 3, "round": -5, "fullRoundText": "Losers Round 3", "completedAt": 1754615899, "winnerId": 20908322, "slots": [{"id": "92383159-0", "entrant": {"id": 20908322, "name": "4o4 | Sh33rZ", "participants": [{"id": 19237464, "gamerTag": "Sh33rZ", "prefix": "4o4", "user": {"location": {"city": "alpharetta", "state": "GA", "country": "United States"}}, "player": {"id": 3640465, "gamerTag": "Sh33rZ", "prefix": "4o4", "user": {"location": {"city": "alpharetta", "state": "GA", "country": "United States"}}}}]}, "standing": {"placement": 1, "stats": {"score": {"value": 2}}}}, {"id": "92383159-1", "entrant": {"id": 20903416, "name": "SIR | vivor", "participants": [{"id": 19233075, "gamerTag": "vivor", "prefix": "SIR", "user": {"location": {"city": "Atlanta", "state": "GA", "country": "United States"}}, "player": {"id": 3373990, "gamerTag": "vivor", "prefix": "SIR", "user": {"location": {"city": "Atlanta", "state": "GA", "country": "United States"}}}}]}, "standing": {"placement": 2, "stats": {"score": {"value": 0}}}}], "games": null}, {"id": 92383160, "state": 3, "round": -5, "fullRoundText": "Losers Round 3", "completedAt": 1754616524, "winnerId": 20886672, "slots": [{"id": "92383160-0", "entrant": {"id": 20898366, "name": "Heart", "participants": [{"id": 19228666, "gamerTag": "Heart", "prefix": "", "user": {"location": {"city": "Atlanta", "state": "GA", "country": "United States"}}, "player": {"id": 4287822, "gamerTag": "Heart", "prefix": "", "user": {"location": {"city": "Atlanta", "state": "GA", "country": "United States"}}}}]}, "standing": {"placement": 2, "stats": {"score": {"value": 0}}}}, {"id": "92383160-1", "entrant": {"id": 20886672, "name": "Nikol", "participants": [{"id": 19218563, "gamerTag": "Nikol", "prefix": "", "user": {"location": {"city": "Stockbridge", "state": "GA", "country": "United States"}}, "player": {"id": 2152846, "gamerTag": "Nikol", "prefix": "", "user": {"location": {"city": "Stockbridge", "state": "GA", "country": "United States"}}}}]}, "standing": {"placement": 1, "stats": {"score": {"value": 2}}}}], "games": null}, {"id": 92383161, "state": 3, "round": -5, "fullRoundText": "Losers Round 3", "completedAt": 1754615627, "winnerId": 20904760, "slots": [{"id": "92383161-0", "entrant": {"id": 20904760, "name": "Free Puli | Maverick", "participants": [{"id": 19234256, "gamerTag": "Maverick", "prefix": "Free Puli", "user": {"location": {"city": "Columbus", "state": "GA", "country": "United States"}}, "player": {"id": 1058777, "gamerTag": "Maverick", "prefix": "", "user": {"location": {"city": "Columbus", "state": "GA", "country": "United States"}}}}]}, "standing": {"placement": 1, "stats": {"score": {"value": 2}}}}, {"id": "92383161-1", "entrant": {"id": 20907048, "name": "KSU | Subzero", "participants": [{"id": 19236301, "gamerTag": "Subzero", "prefix": "KSU", "user": {"location": {"city": "Acworth", "state": "GA", "country": "United States"}}, "player": {"id": 1808159, "gamerTag": "Subzero", "prefix": "KSU", "user": {"location": {"city": "Acworth", "state": "GA", "country": "United States"}}}}]}, "standing": {"placement": 2, "stats": {"score": {"value": 0}}}}], "games": null}, {"id": 92383162, "state": 3, "round": -5, "fullRoundText": "Losers Round 3", "completedAt": 1754616877, "winnerId": 20906224, "slots": [{"id": "92383162-0", "entrant": {"id": 20906224, "name": "red dot", "participants": [{"id": 19235573, "gamerTag": "red dot", "prefix": "", "user": {"location": {"city": "Milton", "state": "GA", "country": "United States"}}, "player": {"id": 1812177, "gamerTag": "red dot", "prefix": "", "user": {"location": {"city": "Milton", "state": "GA", "country": "United States"}}}}]}, "standing": {"placement": 1, "stats": {"score": {"value": 2}}}}, {"id": "92383162-1", "entrant": {"id": 20906245, "name": "promamamia", "participants": [{"id": 19235595, "gamerTag": "promamamia", "prefix": "", "user": {"location": {"city": "Alpharetta", "state": "GA", "country": "United States"}}, "player": {"id": 3548468, "gamerTag": "promamamia", "prefix": "", "user": {"location": {"city": "Alpharetta", "state": "GA", "country": "United States"}}}}]}, "standing": {"placement": 2, "stats": {"score": {"value": 0}}}}], "games": null}, {"id": 92383094, "state": 3, "round": 2, "fullRoundText": "Winners Round 2", "completedAt": 1754613945, "winnerId": 20909454, "slots": [{"id": "92383094-0", "entrant": {"id": 20909454, "name": "MBS | Vivid", "participants": [{"id": 19238519, "gamerTag": "Vivid", "prefix": "MBS", "user": {"location": {"city": "Atl", "state": "GA", "country": "United States"}}, "player": {"id": 499333, "gamerTag": "Vivid", "prefix": "MBS", "user": {"location": {"city": "Atl", "state": "GA", "country": "United States"}}}}]}, "standing": {"placement": 1, "stats": {"score": {"value": 2}}}}, {"id": "92383094-1", "entrant": {"id": 20906245, "name": "promamamia", "participants": [{"id": 19235595, "gamerTag": "promamamia", "prefix": "", "user": {"location": {"city": "Alpharetta", "state": "GA", "country": "United States"}}, "player": {"id": 3548468, "gamerTag": "promamamia", "prefix": "", "user": {"location": {"city": "Alpharetta", "state": "GA", "country": "United States"}}}}]}, "standing": {"placement": 2, "stats": {"score": {"value": 0}}}}], "games": null}, {"id": 92383095, "state": 3, "round": 2, "fullRoundText": "Winners Round 2", "completedAt": 1754615675, "winnerId": 20908740, "slots": [{"id": "92383095-0", "entrant": {"id": 20906224, "name": "red dot", "participants": [{"id": 19235573, "gamerTag": "red dot", "prefix": "", "user": {"location": {"city": "Milton", "state": "GA", "country": "United States"}}, "player": {"id": 1812177, "gamerTag": "red dot", "prefix": "", "user": {"location": {"city": "Milton", "state": "GA", "country": "United States"}}}}]}, "standing": {"placement": 2, "stats": {"score": {"value": 0}}}}, {"id": "92383095-1", "entrant": {"id": 20908740, "name": "GG | varunk", "participants": [{"id": 19237880, "gamerTag": "varunk", "prefix": "GG", "user": {"location": {"city": "Marietta", "state": "GA", "country": "United States"}}, "player": {"id": 1653684, "gamerTag": "varunk", "prefix": "GG", "user": {"location": {"city": "Marietta", "state": "GA", "country": "United States"}}}}]}, "standing": {"placement": 1, "stats": {"score": {"value": 2}}}}], "games": null}, {"id": 92383096, "state": 3, "round": 2, "fullRoundText": "Winners Round 2", "completedAt": 1754613839, "winnerId": 20909245, "slots": [{"id": "92383096-0", "entrant": {"id": 20909245, "name": "Barbashop", "participants": [{"id": 19238331, "gamerTag": "Barbashop", "prefix": "", "user": {"location": {"city": null, "state": null, "country": null}}, "player": {"id": 2537853, "gamerTag": "Barbashop", "prefix": "", "user": {"location": {"city": null, "state": null, "country": null}}}}]}, "standing": {"placement": 1, "stats": {"score": {"value": 2}}}}, {"id": "92383096-1", "entrant": {"id": 20907048, "name": "KSU | Subzero", "participants": [{"id": 19236301, "gamerTag": "Subzero", "prefix": "KSU", "user": {"location": {"city": "Acworth", "state": "GA", "country": "United States"}}, "player": {"id": 1808159, "gamerTag": "Subzero", "prefix": "KSU", "user": {"location": {"city": "Acworth", "state": "GA", "country": "United States"}}}}]}, "standing": {"placement": 2, "stats": {"score": {"value": 0}}}}], "games": null}, {"id": 92383097, "state": 3, "round": 2, "fullRoundText": "Winners Round 2", "completedAt": 1754613895, "winnerId": 20907739, "slots": [{"id": "92383097-0", "entrant": {"id": 20904760, "name": "Free Puli | Maverick", "participants": [{"id": 19234256, "gamerTag": "Maverick", "prefix": "Free Puli", "user": {"location": {"city": "Columbus", "state": "GA", "country": "United States"}}, "player": {"id": 1058777, "gamerTag": "Maverick", "prefix": "", "user": {"location": {"city": "Columbus", "state": "GA", "country": "United States"}}}}]}, "standing": {"placement": 2, "stats": {"score": {"value": 1}}}}, {"id": "92383097-1", "entrant": {"id": 20907739, "name": "carlop", "participants": [{"id": 19236915, "gamerTag": "carlop", "prefix": null, "user": {"location": {"city": "Johns Creek", "state": "GA", "country": "United States"}}, "player": {"id": 3431919, "gamerTag": "carlop", "prefix": null, "user": {"location": {"city": "Johns Creek", "state": "GA", "country": "United States"}}}}]}, "standing": {"placement": 1, "stats": {"score": {"value": 2}}}}], "games": null}, {"id": 92383098, "state": 3, "round": 2, "fullRoundText": "Winners Round 2", "completedAt": 1754613726, "winnerId": 20905257, "slots": [{"id": "92383098-0", "entrant": {"id": 20905257, "name": "GUMP2 | ToxiC", "participants": [{"id": 19234709, "gamerTag": "ToxiC", "prefix": "GUMP2", "user": {"location": {"city": "Marietta", "state": "GA", "country": "United States"}}, "player": {"id": 2585804, "gamerTag": "ToxiC", "prefix": "GUMP2", "user": {"location": {"city": "Marietta", "state": "GA", "country": "United States"}}}}]}, "standing": {"placement": 1, "stats": {"score": {"value": 2}}}}, {"id": "92383098-1", "entrant": {"id": 20886672, "name": "Nikol", "participants": [{"id": 19218563, "gamerTag": "Nikol", "prefix": "", "user": {"location": {"city": "Stockbridge", "state": "GA", "country": "United States"}}, "player": {"id": 2152846, "gamerTag": "Nikol", "prefix": "", "user": {"location": {"city": "Stockbridge", "state": "GA", "country": "United States"}}}}]}, "standing": {"placement": 2, "stats": {"score": {"value": 0}}}}], "games": null}, {"id": 92383099, "state": 3, "round": 2, "fullRoundText": "Winners Round 2", "completedAt": 1754615061, "winnerId": 20909932, "slots": [{"id": "92383099-0", "entrant": {"id": 20909932, "name": "Juncineroar", "participants": [{"id": 19238945, "gamerTag": "Juncineroar", "prefix": "", "user": {"location": {"city": "Atlanta", "state": "GA", "country": "United States"}}, "player": {"id": 208790, "gamerTag": "Juncineroar", "prefix": "", "user": {"location": {"city": "Atlanta", "state": "GA", "country": "United States"}}}}]}, "standing": {"placement": 1, "stats": {"score": {"value": 2}}}}, {"id": "92383099-1", "entrant": {"id": 20898366, "name": "Heart", "participants": [{"id": 19228666, "gamerTag": "Heart", "prefix": "", "user": {"location": {"city": "Atlanta", "state": "GA", "country": "United States"}}, "player": {"id": 4287822, "gamerTag": "Heart", "prefix": "", "user": {"location": {"city": "Atlanta", "state": "GA", "country": "United States"}}}}]}, "standing": {"placement": 2, "stats": {"score": {"value": 1}}}}], "games": null}, {"id": 92383100, "state": 3, "round": 2, "fullRoundText": "Winners Round 2", "completedAt": 1754614168, "winnerId": 20906678, "slots": [{"id": "92383100-0", "entrant": {"id": 20906678, "name": "EVC | squirtleB", "participants": [{"id": 19235973, "gamerTag": "squirtleB", "prefix": "EVC", "user": {"location": {"city": null, "state": null, "country": null}}, "player": {"id": 264290, "gamerTag": "squirtleB", "prefix": "EVC", "user": {"location": {"city": null, "state": null, "country": null}}}}]}, "standing": {"placement": 1, "stats": {"score": {"value": 2}}}}, {"id": "92383100-1", "entrant": {"id": 20903416, "name": "SIR | vivor", "participants": [{"id": 19233075, "gamerTag": "vivor", "prefix": "SIR", "user": {"location": {"city": "Atlanta", "state": "GA", "country": "United States"}}, "player": {"id": 3373990, "gamerTag": "vivor", "prefix": "SIR", "user": {"location": {"city": "Atlanta", "state": "GA", "country": "United States"}}}}]}, "standing": {"placement": 2, "stats": {"score": {"value": 0}}}}], "games": null}]}}}