{"phase": {"seeds": {"pageInfo": {"totalPages": 1, "total": 15}, "nodes": [{"id": 36498121, "seedNum": 1, "entrant": {"id": 21186385, "name": "drubyplz", "participants": [{"id": 19484996, "gamerTag": "drubyplz", "prefix": null, "user": {"location": {"city": "Augusta", "state": "GA", "country": "United States"}}, "player": {"id": 150393, "gamerTag": "drubyplz", "prefix": null, "user": {"location": {"city": "Augusta", "state": "GA", "country": "United States"}}}}]}}, {"id": 36447119, "seedNum": 3, "entrant": {"id": 21152908, "name": "DELETERIOUS", "participants": [{"id": 19455940, "gamerTag": "DELETERIOUS", "prefix": "", "user": {"location": {"city": "Fort Gordon", "state": "GA", "country": "United States"}}, "player": {"id": 3292722, "gamerTag": "DELETERIOUS", "prefix": "", "user": {"location": {"city": "Fort Gordon", "state": "GA", "country": "United States"}}}}]}}, {"id": 36441774, "seedNum": 5, "entrant": {"id": 21148768, "name": "Wide Open Wound", "participants": [{"id": 19452302, "gamerTag": "Wide Open Wound", "prefix": null, "user": {"location": {"city": "Warrenville", "state": "SC", "country": "United States"}}, "player": {"id": 2416627, "gamerTag": "Wide Open Wound", "prefix": null, "user": {"location": {"city": "Warrenville", "state": "SC", "country": "United States"}}}}]}}, {"id": 36497086, "seedNum": 2, "entrant": {"id": 21185862, "name": "Licorice", "participants": [{"id": 19484530, "gamerTag": "Licorice", "prefix": "", "user": {"location": {"city": null, "state": "GA", "country": "United States"}}, "player": {"id": 3559388, "gamerTag": "Licorice", "prefix": "", "user": {"location": {"city": null, "state": "GA", "country": "United States"}}}}]}}, {"id": 36506213, "seedNum": 4, "entrant": {"id": 21191909, "name": "DATA | Dirty Llama", "participants": [{"id": 19489558, "gamerTag": "Dirty Llama", "prefix": "DATA", "user": {"location": {"city": "Atlanta", "state": "GA", "country": "United States"}}, "player": {"id": 157755, "gamerTag": "Dirty Llama", "prefix": "DATA", "user": {"location": {"city": "Atlanta", "state": "GA", "country": "United States"}}}}]}}, {"id": 36332313, "seedNum": 6, "entrant": {"id": 21077172, "name": "Gorduri Cap", "participants": [{"id": 19387925, "gamerTag": "Gorduri Cap", "prefix": "", "user": {"location": {"city": "", "state": "AK", "country": "United States"}}, "player": {"id": 2068683, "gamerTag": "Spauldo", "prefix": "", "user": {"location": {"city": "", "state": "AK", "country": "United States"}}}}]}}, {"id": 36355709, "seedNum": 8, "entrant": {"id": 21090482, "name": "ATLRiot", "participants": [{"id": 19399903, "gamerTag": "ATLRiot", "prefix": null, "user": {"location": {"city": "Augusta", "state": "GA", "country": "United States"}}, "player": {"id": 2057913, "gamerTag": "ATLRiot", "prefix": "", "user": {"location": {"city": "Augusta", "state": "GA", "country": "United States"}}}}]}}, {"id": 36509841, "seedNum": 10, "entrant": {"id": 21194549, "name": "Gohan Blanco", "participants": [{"id": 19492045, "gamerTag": "Gohan Blanco", "prefix": null, "user": {"location": {"city": null, "state": null, "country": "United States"}}, "player": {"id": 2413038, "gamerTag": "Gohan Blanco", "prefix": null, "user": {"location": {"city": null, "state": null, "country": "United States"}}}}]}}, {"id": 36504370, "seedNum": 9, "entrant": {"id": 21190298, "name": "cheddarcola", "participants": [{"id": 19488143, "gamerTag": "cheddarcola", "prefix": null, "user": {"location": {"city": null, "state": null, "country": "United States"}}, "player": {"id": 4724537, "gamerTag": "cheddarcola", "prefix": null, "user": {"location": {"city": null, "state": null, "country": "United States"}}}}]}}, {"id": 36430620, "seedNum": 11, "entrant": {"id": 21141057, "name": "Yamcha157", "participants": [{"id": 19445623, "gamerTag": "Yamcha157", "prefix": null, "user": {"location": {"city": null, "state": null, "country": null}}, "player": {"id": 3440866, "gamerTag": "Yamcha157", "prefix": null, "user": {"location": {"city": null, "state": null, "country": null}}}}]}}, {"id": 36492317, "seedNum": 13, "entrant": {"id": 21183347, "name": "CV | NiNE", "participants": [{"id": 19482454, "gamerTag": "NiNE", "prefix": "CV", "user": {"location": {"city": "Augusta", "state": "GA", "country": "United States"}}, "player": {"id": 25337, "gamerTag": "NiNE", "prefix": "CV", "user": {"location": {"city": "Augusta", "state": "GA", "country": "United States"}}}}]}}, {"id": 36457678, "seedNum": 15, "entrant": {"id": 21161293, "name": "Nave", "participants": [{"id": 19463205, "gamerTag": "Nave", "prefix": "", "user": {"location": {"city": null, "state": null, "country": "United States"}}, "player": {"id": 4956370, "gamerTag": "Nave", "prefix": "", "user": {"location": {"city": null, "state": null, "country": "United States"}}}}]}}, {"id": 36497609, "seedNum": 7, "entrant": {"id": 21186049, "name": "SCF | Uncle Duke", "participants": [{"id": 19484706, "gamerTag": "Uncle Duke", "prefix": "SCF", "user": {"location": {"city": "Barnwell", "state": "SC", "country": "United States"}}, "player": {"id": 71346, "gamerTag": "Uncle Duke", "prefix": "SCF", "user": {"location": {"city": "Barnwell", "state": "SC", "country": "United States"}}}}]}}, {"id": 36448497, "seedNum": 12, "entrant": {"id": 21154079, "name": "RKG | Mr.Otter", "participants": [{"id": 19456864, "gamerTag": "Mr.Otter", "prefix": "RKG", "user": {"location": {"city": "Anderson", "state": "SC", "country": "United States"}}, "player": {"id": 2819418, "gamerTag": "Mr.Otter", "prefix": "RKG", "user": {"location": {"city": "Anderson", "state": "SC", "country": "United States"}}}}]}}, {"id": 36457325, "seedNum": 14, "entrant": {"id": 21161015, "name": "Greenbean", "participants": [{"id": 19462966, "gamerTag": "Greenbean", "prefix": null, "user": {"location": {"city": "Augusta", "state": "GA", "country": "United States"}}, "player": {"id": 2249747, "gamerTag": "Greenbean", "prefix": null, "user": {"location": {"city": "Augusta", "state": "GA", "country": "United States"}}}}]}}]}}}