{"event": {"sets": {"pageInfo": {"totalPages": 3, "total": 34}, "nodes": [{"id": 92799930, "state": 3, "round": -6, "fullRoundText": "Losers Round 3", "completedAt": 1755470488, "winnerId": 20995481, "slots": [{"id": "92799930-0", "entrant": {"id": 20995481, "name": "TEAM FISH | GI0GOAT", "participants": [{"id": 19313608, "gamerTag": "GI0GOAT", "prefix": "TEAM FISH", "user": {"location": {"city": "Elmwood Park", "state": "IL", "country": "United States"}}, "player": {"id": 153434, "gamerTag": "GI0GOAT", "prefix": "TEAM FISH", "user": {"location": {"city": "Elmwood Park", "state": "IL", "country": "United States"}}}}]}, "standing": {"placement": 1, "stats": {"score": {"value": 3}}}}, {"id": "92799930-1", "entrant": {"id": 20995694, "name": "cheeks", "participants": [{"id": 19313817, "gamerTag": "cheeks", "prefix": "", "user": {"location": {"city": "Greenville", "state": "SC", "country": "United States"}}, "player": {"id": 2168044, "gamerTag": "cheeks", "prefix": "", "user": {"location": {"city": "Greenville", "state": "SC", "country": "United States"}}}}]}, "standing": {"placement": 2, "stats": {"score": {"value": 0}}}}], "games": null}, {"id": 92799931, "state": 3, "round": -6, "fullRoundText": "Losers Round 3", "completedAt": 1755472068, "winnerId": 20994645, "slots": [{"id": "92799931-0", "entrant": {"id": 20994645, "name": "vivesthesia", "participants": [{"id": 19312852, "gamerTag": "vivesthesia", "prefix": null, "user": {"location": {"city": "Atlanta", "state": "GA", "country": "United States"}}, "player": {"id": 4395171, "gamerTag": "vivesthesia", "prefix": null, "user": {"location": {"city": "Atlanta", "state": "GA", "country": "United States"}}}}]}, "standing": {"placement": 1, "stats": {"score": {"value": 3}}}}, {"id": "92799931-1", "entrant": {"id": 20996420, "name": "N/a | C$", "participants": [{"id": 19314468, "gamerTag": "C$", "prefix": "N/a", "user": {"location": null}, "player": {"id": 228175, "gamerTag": "C$", "prefix": "N/a", "user": {"location": null}}}]}, "standing": {"placement": 2, "stats": {"score": {"value": 0}}}}], "games": null}, {"id": 92799928, "state": 3, "round": -6, "fullRoundText": "Losers Round 3", "completedAt": 1755470817, "winnerId": 20996378, "slots": [{"id": "92799928-0", "entrant": {"id": 20996378, "name": "Supersponge", "participants": [{"id": 19314430, "gamerTag": "Supersponge", "prefix": "", "user": {"location": {"city": "Greenville", "state": "SC", "country": "United States"}}, "player": {"id": 11208, "gamerTag": "Supersponge", "prefix": "", "user": {"location": {"city": "Greenville", "state": "SC", "country": "United States"}}}}]}, "standing": {"placement": 1, "stats": {"score": {"value": 3}}}}, {"id": "92799928-1", "entrant": {"id": 20995175, "name": "tomguy", "participants": [{"id": 19313330, "gamerTag": "tomguy", "prefix": "", "user": {"location": {"city": "Atlanta", "state": "GA", "country": "United States"}}, "player": {"id": 147458, "gamerTag": "tomguy", "prefix": "", "user": {"location": {"city": "Atlanta", "state": "GA", "country": "United States"}}}}]}, "standing": {"placement": 2, "stats": {"score": {"value": 1}}}}], "games": null}, {"id": 92799924, "state": 3, "round": -5, "fullRoundText": "Losers Round 2", "completedAt": 1755469755, "winnerId": 20995175, "slots": [{"id": "92799924-0", "entrant": {"id": 20995175, "name": "tomguy", "participants": [{"id": 19313330, "gamerTag": "tomguy", "prefix": "", "user": {"location": {"city": "Atlanta", "state": "GA", "country": "United States"}}, "player": {"id": 147458, "gamerTag": "tomguy", "prefix": "", "user": {"location": {"city": "Atlanta", "state": "GA", "country": "United States"}}}}]}, "standing": {"placement": 1, "stats": {"score": {"value": 2}}}}, {"id": "92799924-1", "entrant": {"id": 20995554, "name": "Tech Chase | braxton", "participants": [{"id": 19313685, "gamerTag": "braxton", "prefix": "Tech Chase", "user": {"location": {"city": "Atlanta", "state": "GA", "country": "United States"}}, "player": {"id": 1037821, "gamerTag": "braxton", "prefix": "The Hive", "user": {"location": {"city": "Atlanta", "state": "GA", "country": "United States"}}}}]}, "standing": {"placement": 2, "stats": {"score": {"value": 0}}}}], "games": null}, {"id": 92799925, "state": 3, "round": -5, "fullRoundText": "Losers Round 2", "completedAt": 1755471145, "winnerId": 20996878, "slots": [{"id": "92799925-0", "entrant": {"id": 20996878, "name": "EnergySword", "participants": [{"id": 19314836, "gamerTag": "EnergySword", "prefix": "", "user": null, "player": {"id": 4928521, "gamerTag": "EnergySword", "prefix": "", "user": null}}]}, "standing": {"placement": 1, "stats": {"score": {"value": 2}}}}, {"id": "92799925-1", "entrant": {"id": 20994614, "name": "blaise", "participants": [{"id": 19312820, "gamerTag": "blaise", "prefix": "", "user": {"location": {"city": "douglasville", "state": "GA", "country": "United States"}}, "player": {"id": 1326121, "gamerTag": "blaise", "prefix": "", "user": {"location": {"city": "douglasville", "state": "GA", "country": "United States"}}}}]}, "standing": {"placement": 2, "stats": {"score": {"value": 0}}}}], "games": null}, {"id": 92799926, "state": 3, "round": -5, "fullRoundText": "Losers Round 2", "completedAt": 1755469220, "winnerId": 20995694, "slots": [{"id": "92799926-0", "entrant": {"id": 20994442, "name": "SKRUNT | diremaykr", "participants": [{"id": 19312650, "gamerTag": "diremaykr", "prefix": "SKRUNT", "user": {"location": {"city": "Buford", "state": "GA", "country": "United States"}}, "player": {"id": 3207366, "gamerTag": "diremaykr", "prefix": "", "user": {"location": {"city": "Buford", "state": "GA", "country": "United States"}}}}]}, "standing": {"placement": 2, "stats": {"score": {"value": 0}}}}, {"id": "92799926-1", "entrant": {"id": 20995694, "name": "cheeks", "participants": [{"id": 19313817, "gamerTag": "cheeks", "prefix": "", "user": {"location": {"city": "Greenville", "state": "SC", "country": "United States"}}, "player": {"id": 2168044, "gamerTag": "cheeks", "prefix": "", "user": {"location": {"city": "Greenville", "state": "SC", "country": "United States"}}}}]}, "standing": {"placement": 1, "stats": {"score": {"value": 2}}}}], "games": null}, {"id": 92799927, "state": 3, "round": -5, "fullRoundText": "Losers Round 2", "completedAt": 1755471341, "winnerId": 20996420, "slots": [{"id": "92799927-0", "entrant": {"id": 20996420, "name": "N/a | C$", "participants": [{"id": 19314468, "gamerTag": "C$", "prefix": "N/a", "user": {"location": null}, "player": {"id": 228175, "gamerTag": "C$", "prefix": "N/a", "user": {"location": null}}}]}, "standing": {"placement": 1, "stats": {"score": {"value": 2}}}}, {"id": "92799927-1", "entrant": {"id": 20995804, "name": "DogLikeThing", "participants": [{"id": 19313920, "gamerTag": "DogLikeThing", "prefix": "", "user": {"location": {"city": "Greenville", "state": "SC", "country": "United States"}}, "player": {"id": 3791525, "gamerTag": "Zeik", "prefix": "", "user": {"location": {"city": "Greenville", "state": "SC", "country": "United States"}}}}]}, "standing": {"placement": 2, "stats": {"score": {"value": 0}}}}], "games": null}, {"id": 92799859, "state": 3, "round": 2, "fullRoundText": "Winners Round 2", "completedAt": 1755467475, "winnerId": 20996400, "slots": [{"id": "92799859-0", "entrant": {"id": 20996400, "name": "Colbol", "participants": [{"id": 19314450, "gamerTag": "Colbol", "prefix": "", "user": {"location": {"city": "Tucker", "state": "GA", "country": "United States"}}, "player": {"id": 1009, "gamerTag": "Colbol", "prefix": "", "user": {"location": {"city": "Tucker", "state": "GA", "country": "United States"}}}}]}, "standing": {"placement": 1, "stats": {"score": {"value": 2}}}}, {"id": "92799859-1", "entrant": {"id": 20995804, "name": "DogLikeThing", "participants": [{"id": 19313920, "gamerTag": "DogLikeThing", "prefix": "", "user": {"location": {"city": "Greenville", "state": "SC", "country": "United States"}}, "player": {"id": 3791525, "gamerTag": "Zeik", "prefix": "", "user": {"location": {"city": "Greenville", "state": "SC", "country": "United States"}}}}]}, "standing": {"placement": 2, "stats": {"score": {"value": 0}}}}], "games": null}, {"id": 92799860, "state": 3, "round": 2, "fullRoundText": "Winners Round 2", "completedAt": 1755469814, "winnerId": 20994992, "slots": [{"id": "92799860-0", "entrant": {"id": 20994992, "name": "Karan", "participants": [{"id": 19313164, "gamerTag": "Karan", "prefix": "", "user": {"location": {"city": "Atlanta", "state": "GA", "country": "United States"}}, "player": {"id": 35472, "gamerTag": "Karan", "prefix": "", "user": {"location": {"city": "Atlanta", "state": "GA", "country": "United States"}}}}]}, "standing": {"placement": 1, "stats": {"score": {"value": 2}}}}, {"id": "92799860-1", "entrant": {"id": 20996420, "name": "N/a | C$", "participants": [{"id": 19314468, "gamerTag": "C$", "prefix": "N/a", "user": {"location": null}, "player": {"id": 228175, "gamerTag": "C$", "prefix": "N/a", "user": {"location": null}}}]}, "standing": {"placement": 2, "stats": {"score": {"value": 0}}}}], "games": null}, {"id": 92799861, "state": 3, "round": 2, "fullRoundText": "Winners Round 2", "completedAt": 1755468034, "winnerId": 20997283, "slots": [{"id": "92799861-0", "entrant": {"id": 20997283, "name": "swaggerbee", "participants": [{"id": 19315175, "gamerTag": "swaggerbee", "prefix": "", "user": {"location": {"city": "Atlanta", "state": "GA", "country": "United States"}}, "player": {"id": 1687384, "gamerTag": "swaggerbee", "prefix": "", "user": {"location": {"city": "Atlanta", "state": "GA", "country": "United States"}}}}]}, "standing": {"placement": 1, "stats": {"score": {"value": 2}}}}, {"id": "92799861-1", "entrant": {"id": 20995694, "name": "cheeks", "participants": [{"id": 19313817, "gamerTag": "cheeks", "prefix": "", "user": {"location": {"city": "Greenville", "state": "SC", "country": "United States"}}, "player": {"id": 2168044, "gamerTag": "cheeks", "prefix": "", "user": {"location": {"city": "Greenville", "state": "SC", "country": "United States"}}}}]}, "standing": {"placement": 2, "stats": {"score": {"value": 0}}}}], "games": null}, {"id": 92799862, "state": 3, "round": 2, "fullRoundText": "Winners Round 2", "completedAt": 1755467378, "winnerId": 20996378, "slots": [{"id": "92799862-0", "entrant": {"id": 20996378, "name": "Supersponge", "participants": [{"id": 19314430, "gamerTag": "Supersponge", "prefix": "", "user": {"location": {"city": "Greenville", "state": "SC", "country": "United States"}}, "player": {"id": 11208, "gamerTag": "Supersponge", "prefix": "", "user": {"location": {"city": "Greenville", "state": "SC", "country": "United States"}}}}]}, "standing": {"placement": 1, "stats": {"score": {"value": 2}}}}, {"id": "92799862-1", "entrant": {"id": 20994442, "name": "SKRUNT | diremaykr", "participants": [{"id": 19312650, "gamerTag": "diremaykr", "prefix": "SKRUNT", "user": {"location": {"city": "Buford", "state": "GA", "country": "United States"}}, "player": {"id": 3207366, "gamerTag": "diremaykr", "prefix": "", "user": {"location": {"city": "Buford", "state": "GA", "country": "United States"}}}}]}, "standing": {"placement": 2, "stats": {"score": {"value": 0}}}}], "games": [{"id": 31976355, "orderNum": 1, "winnerId": 20996378, "entrant1Score": null, "entrant2Score": 0, "stage": null, "selections": null}, {"id": 31976356, "orderNum": 2, "winnerId": 20996378, "entrant1Score": null, "entrant2Score": 0, "stage": null, "selections": null}]}, {"id": 92799863, "state": 3, "round": 2, "fullRoundText": "Winners Round 2", "completedAt": 1755467700, "winnerId": 20994645, "slots": [{"id": "92799863-0", "entrant": {"id": 20994645, "name": "vivesthesia", "participants": [{"id": 19312852, "gamerTag": "vivesthesia", "prefix": null, "user": {"location": {"city": "Atlanta", "state": "GA", "country": "United States"}}, "player": {"id": 4395171, "gamerTag": "vivesthesia", "prefix": null, "user": {"location": {"city": "Atlanta", "state": "GA", "country": "United States"}}}}]}, "standing": {"placement": 1, "stats": {"score": {"value": 2}}}}, {"id": "92799863-1", "entrant": {"id": 20994614, "name": "blaise", "participants": [{"id": 19312820, "gamerTag": "blaise", "prefix": "", "user": {"location": {"city": "douglasville", "state": "GA", "country": "United States"}}, "player": {"id": 1326121, "gamerTag": "blaise", "prefix": "", "user": {"location": {"city": "douglasville", "state": "GA", "country": "United States"}}}}]}, "standing": {"placement": 2, "stats": {"score": {"value": 0}}}}], "games": null}, {"id": 92799864, "state": 3, "round": 2, "fullRoundText": "Winners Round 2", "completedAt": 1755469776, "winnerId": 20995501, "slots": [{"id": "92799864-0", "entrant": {"id": 20995501, "name": "skyguy | Chris Danger", "participants": [{"id": 19313629, "gamerTag": "Chris Danger", "prefix": "skyguy", "user": {"location": {"city": "Atlanta", "state": "GA", "country": "United States"}}, "player": {"id": 2808268, "gamerTag": "Chris Danger", "prefix": "skyguy", "user": {"location": {"city": "Atlanta", "state": "GA", "country": "United States"}}}}]}, "standing": {"placement": 1, "stats": {"score": {"value": 2}}}}, {"id": "92799864-1", "entrant": {"id": 20996878, "name": "EnergySword", "participants": [{"id": 19314836, "gamerTag": "EnergySword", "prefix": "", "user": null, "player": {"id": 4928521, "gamerTag": "EnergySword", "prefix": "", "user": null}}]}, "standing": {"placement": 2, "stats": {"score": {"value": 1}}}}], "games": null}, {"id": 92799865, "state": 3, "round": 2, "fullRoundText": "Winners Round 2", "completedAt": 1755467831, "winnerId": 20995481, "slots": [{"id": "92799865-0", "entrant": {"id": 20995481, "name": "TEAM FISH | GI0GOAT", "participants": [{"id": 19313608, "gamerTag": "GI0GOAT", "prefix": "TEAM FISH", "user": {"location": {"city": "Elmwood Park", "state": "IL", "country": "United States"}}, "player": {"id": 153434, "gamerTag": "GI0GOAT", "prefix": "TEAM FISH", "user": {"location": {"city": "Elmwood Park", "state": "IL", "country": "United States"}}}}]}, "standing": {"placement": 1, "stats": {"score": {"value": 2}}}}, {"id": "92799865-1", "entrant": {"id": 20995554, "name": "Tech Chase | braxton", "participants": [{"id": 19313685, "gamerTag": "braxton", "prefix": "Tech Chase", "user": {"location": {"city": "Atlanta", "state": "GA", "country": "United States"}}, "player": {"id": 1037821, "gamerTag": "braxton", "prefix": "The Hive", "user": {"location": {"city": "Atlanta", "state": "GA", "country": "United States"}}}}]}, "standing": {"placement": 2, "stats": {"score": {"value": 0}}}}], "games": null}, {"id": 92799866, "state": 3, "round": 2, "fullRoundText": "Winners Round 2", "completedAt": 1755468920, "winnerId": 20995520, "slots": [{"id": "92799866-0", "entrant": {"id": 20995520, "name": "skyguy | bag", "participants": [{"id": 19313650, "gamerTag": "bag", "prefix": "skyguy", "user": {"location": {"city": "Atlanta", "state": "GA", "country": "United States"}}, "player": {"id": 271346, "gamerTag": "bag", "prefix": "skyguy", "user": {"location": {"city": "Atlanta", "state": "GA", "country": "United States"}}}}]}, "standing": {"placement": 1, "stats": {"score": {"value": 2}}}}, {"id": "92799866-1", "entrant": {"id": 20995175, "name": "tomguy", "participants": [{"id": 19313330, "gamerTag": "tomguy", "prefix": "", "user": {"location": {"city": "Atlanta", "state": "GA", "country": "United States"}}, "player": {"id": 147458, "gamerTag": "tomguy", "prefix": "", "user": {"location": {"city": "Atlanta", "state": "GA", "country": "United States"}}}}]}, "standing": {"placement": 2, "stats": {"score": {"value": 0}}}}], "games": null}]}}}