{"phase": {"seeds": {"pageInfo": {"totalPages": 1, "total": 18}, "nodes": [{"id": 36163690, "seedNum": 1, "entrant": {"id": 20971035, "name": "Pokchop", "participants": [{"id": 19292652, "gamerTag": "Pokchop", "prefix": "", "user": {"location": {"city": "Atlanta", "state": "GA", "country": "United States"}}, "player": {"id": 150402, "gamerTag": "Pokchop", "prefix": "", "user": {"location": {"city": "Atlanta", "state": "GA", "country": "United States"}}}}]}}, {"id": 36180845, "seedNum": 3, "entrant": {"id": 20976253, "name": "TheJestur", "participants": [{"id": 19297334, "gamerTag": "TheJestur", "prefix": "", "user": {"location": {"city": "Warner Robins", "state": null, "country": "United States"}}, "player": {"id": 609621, "gamerTag": "TheJestur", "prefix": "", "user": {"location": {"city": "Warner Robins", "state": null, "country": "United States"}}}}]}}, {"id": 36154720, "seedNum": 8, "entrant": {"id": 20966643, "name": "Luff", "participants": [{"id": 19288626, "gamerTag": "Luff", "prefix": null, "user": {"location": {"city": "Savannah", "state": "GA", "country": "United States"}}, "player": {"id": 4102348, "gamerTag": "Luff", "prefix": "SQ1", "user": {"location": {"city": "Savannah", "state": "GA", "country": "United States"}}}}]}}, {"id": 36142644, "seedNum": 4, "entrant": {"id": 20958573, "name": "LOL!", "participants": [{"id": 19281775, "gamerTag": "LOL!", "prefix": null, "user": {"location": {"city": "Byron", "state": "GA", "country": "United States"}}, "player": {"id": 730420, "gamerTag": "LOL!", "prefix": "HJE", "user": {"location": {"city": "Byron", "state": "GA", "country": "United States"}}}}]}}, {"id": 36127381, "seedNum": 7, "entrant": {"id": 20947552, "name": "Foam Root", "participants": [{"id": 19272375, "gamerTag": "Foam Root", "prefix": "", "user": {"location": {"city": "Covington", "state": "GA", "country": "United States"}}, "player": {"id": 541222, "gamerTag": "Foam Root", "prefix": "", "user": {"location": {"city": "Covington", "state": "GA", "country": "United States"}}}}]}}, {"id": 36201450, "seedNum": 18, "entrant": {"id": 20989455, "name": "BRUHnana", "participants": [{"id": 19308399, "gamerTag": "BRUHnana", "prefix": null, "user": {"location": {"city": "Warner Robins", "state": "GA", "country": "United States"}}, "player": {"id": 3570019, "gamerTag": "BRUHnana", "prefix": null, "user": {"location": {"city": "Warner Robins", "state": "GA", "country": "United States"}}}}]}}, {"id": 36200821, "seedNum": 16, "entrant": {"id": 20989021, "name": "Midira", "participants": [{"id": 19308019, "gamerTag": "Midira", "prefix": null, "user": {"location": {"city": "Kathleen", "state": "GA", "country": "United States"}}, "player": {"id": 779164, "gamerTag": "Midira", "prefix": null, "user": {"location": {"city": "Kathleen", "state": "GA", "country": "United States"}}}}]}}, {"id": 36200916, "seedNum": 17, "entrant": {"id": 20989071, "name": "RBG | Cpain20", "participants": [{"id": 19308063, "gamerTag": "Cpain20", "prefix": "RBG", "user": {"location": {"city": "Macon", "state": "GA", "country": "United States"}}, "player": {"id": 1528477, "gamerTag": "Cpain20", "prefix": "RBG", "user": {"location": {"city": "Macon", "state": "GA", "country": "United States"}}}}]}}, {"id": 36087574, "seedNum": 2, "entrant": {"id": 20920900, "name": "JSH3LLZ", "participants": [{"id": 19248764, "gamerTag": "JSH3LLZ", "prefix": null, "user": {"location": {"city": "atlanta", "state": "GA", "country": "United States"}}, "player": {"id": 1379919, "gamerTag": "JSH3LLZ", "prefix": null, "user": {"location": {"city": "atlanta", "state": "GA", "country": "United States"}}}}]}}, {"id": 36181120, "seedNum": 5, "entrant": {"id": 20976517, "name": "Area_478 | BigBoss_DP", "participants": [{"id": 19297563, "gamerTag": "BigBoss_DP", "prefix": "Area_478", "user": {"location": {"city": "Macon", "state": "GA", "country": "United States"}}, "player": {"id": 146751, "gamerTag": "BigBoss_DP", "prefix": "Area_478", "user": {"location": {"city": "Macon", "state": "GA", "country": "United States"}}}}]}}, {"id": 36195515, "seedNum": 10, "entrant": {"id": 20985264, "name": "SQ1 | dertdobber", "participants": [{"id": 19304856, "gamerTag": "dertdobber", "prefix": "SQ1", "user": {"location": {"city": "Savannah", "state": "GA", "country": "United States"}}, "player": {"id": 173899, "gamerTag": "dertdobber", "prefix": null, "user": {"location": {"city": "Savannah", "state": "GA", "country": "United States"}}}}]}}, {"id": 36188656, "seedNum": 11, "entrant": {"id": 20981286, "name": "TimBob", "participants": [{"id": 19301778, "gamerTag": "TimBob", "prefix": null, "user": {"location": {"city": "Macon", "state": "GA", "country": "United States"}}, "player": {"id": 4345861, "gamerTag": "TimBob", "prefix": null, "user": {"location": {"city": "Macon", "state": "GA", "country": "United States"}}}}]}}, {"id": 36147147, "seedNum": 9, "entrant": {"id": 20961736, "name": "MGA | Hoodlum1012", "participants": [{"id": 19284478, "gamerTag": "Hoodlum1012", "prefix": "MGA", "user": {"location": {"city": "Macon", "state": "GA", "country": "United States"}}, "player": {"id": 855502, "gamerTag": "Hoodlum1012", "prefix": "MGA", "user": {"location": {"city": "Macon", "state": "GA", "country": "United States"}}}}]}}, {"id": 36192590, "seedNum": 13, "entrant": {"id": 20983604, "name": "BlazingFox", "participants": [{"id": 19303627, "gamerTag": "BlazingFox", "prefix": "", "user": {"location": {"city": "Byron", "state": null, "country": "United States"}}, "player": {"id": 592139, "gamerTag": "BlazingFox", "prefix": "", "user": {"location": {"city": "Byron", "state": null, "country": "United States"}}}}]}}, {"id": 36188565, "seedNum": 14, "entrant": {"id": 20981202, "name": "Damatrix", "participants": [{"id": 19301743, "gamerTag": "Damatrix", "prefix": "", "user": {"location": {"city": "Griffin", "state": null, "country": "United States"}}, "player": {"id": 4925551, "gamerTag": "Damatrix", "prefix": "", "user": {"location": {"city": "Griffin", "state": null, "country": "United States"}}}}]}}, {"id": 36200818, "seedNum": 15, "entrant": {"id": 20989017, "name": "DirtyDan", "participants": [{"id": 19308016, "gamerTag": "DirtyDan", "prefix": "", "user": {"location": {"city": "Centerville", "state": "GA", "country": "United States"}}, "player": {"id": 1995257, "gamerTag": "DirtyDan", "prefix": "", "user": {"location": {"city": "Centerville", "state": "GA", "country": "United States"}}}}]}}, {"id": 36191358, "seedNum": 6, "entrant": {"id": 20982756, "name": "Evernight", "participants": [{"id": 19302967, "gamerTag": "Evernight", "prefix": null, "user": {"location": {"city": "Macon", "state": "GA", "country": "United States"}}, "player": {"id": 548064, "gamerTag": "Evernight", "prefix": null, "user": {"location": {"city": "Macon", "state": "GA", "country": "United States"}}}}]}}, {"id": 36119427, "seedNum": 12, "entrant": {"id": 20942796, "name": "SE UNI | Shuri", "participants": [{"id": 19268251, "gamerTag": "Shuri", "prefix": "SE UNI", "user": {"location": {"city": "Bonaire", "state": "GA", "country": "United States"}}, "player": {"id": 183894, "gamerTag": "Shuri", "prefix": "SE UNI", "user": {"location": {"city": "Bonaire", "state": "GA", "country": "United States"}}}}]}}]}}}