{"phase": {"seeds": {"pageInfo": {"totalPages": 1, "total": 5}, "nodes": [{"id": 36678736, "seedNum": 5, "entrant": {"id": 21312495, "name": "69TacoTuesday69", "participants": [{"id": 19593037, "gamerTag": "69TacoTuesday69", "prefix": "", "user": {"location": {"city": "Atlanta", "state": "GA", "country": "United States"}}, "player": {"id": 158130, "gamerTag": "69TacoTuesday69", "prefix": "", "user": {"location": {"city": "Atlanta", "state": "GA", "country": "United States"}}}}]}}, {"id": 36653524, "seedNum": 2, "entrant": {"id": 21294105, "name": "DD | Kingpoyothefirst", "participants": [{"id": 19576980, "gamerTag": "Kingpoyothefirst", "prefix": "DD", "user": {"location": {"city": null, "state": null, "country": null}}, "player": {"id": 2934299, "gamerTag": "Kingpoyothefirst", "prefix": "DD", "user": {"location": {"city": null, "state": null, "country": null}}}}]}}, {"id": 36677882, "seedNum": 4, "entrant": {"id": 21311741, "name": "sanrio enjoyer", "participants": [{"id": 19592330, "gamerTag": "sanrio enjoyer", "prefix": "", "user": {"location": {"city": "Atlanta", "state": "GA", "country": "United States"}}, "player": {"id": 3792585, "gamerTag": "sanrio enjoyer", "prefix": "", "user": {"location": {"city": "Atlanta", "state": "GA", "country": "United States"}}}}]}}, {"id": 36653515, "seedNum": 1, "entrant": {"id": 21294096, "name": "EVIL | Alas", "participants": [{"id": 19576970, "gamerTag": "Alas", "prefix": "EVIL", "user": {"location": {"city": null, "state": null, "country": null}}, "player": {"id": 25946, "gamerTag": "Alas", "prefix": "EVIL", "user": {"location": {"city": null, "state": null, "country": null}}}}]}}, {"id": 36673772, "seedNum": 3, "entrant": {"id": 21308559, "name": "TPS | $CAITLIN", "participants": [{"id": 19589701, "gamerTag": "$CAITLIN", "prefix": "TPS", "user": {"location": {"city": "Kennesaw", "state": "GA", "country": "United States"}}, "player": {"id": 3422494, "gamerTag": "$CAITLIN", "prefix": "TPS", "user": {"location": {"city": "Kennesaw", "state": "GA", "country": "United States"}}}}]}}]}}}