{"event": {"sets": {"pageInfo": {"totalPages": 1, "total": 5}, "nodes": [{"id": 91470335, "state": 3, "round": 3, "fullRoundText": "Final", "completedAt": 1752706375, "winnerId": 20713647, "slots": [{"id": "91470335-0", "entrant": {"id": 20713647, "name": "Barbashop", "participants": [{"id": 19063559, "gamerTag": "Barbashop", "prefix": "", "user": {"location": {"city": null, "state": null, "country": null}}, "player": {"id": 2537853, "gamerTag": "Barbashop", "prefix": "", "user": {"location": {"city": null, "state": null, "country": null}}}}]}, "standing": {"placement": 1, "stats": {"score": {"value": 2}}}}, {"id": "91470335-1", "entrant": {"id": 20709329, "name": "Boo", "participants": [{"id": 19059927, "gamerTag": "Boo", "prefix": "", "user": {"location": {"city": "Cumming", "state": "GA", "country": "United States"}}, "player": {"id": 2647915, "gamerTag": "Boo", "prefix": "", "user": {"location": {"city": "Cumming", "state": "GA", "country": "United States"}}}}]}, "standing": {"placement": 2, "stats": {"score": {"value": 0}}}}], "games": null}, {"id": 91470333, "state": 3, "round": 2, "fullRoundText": "Semi-Final", "completedAt": 1752705847, "winnerId": 20713647, "slots": [{"id": "91470333-0", "entrant": {"id": 20713647, "name": "Barbashop", "participants": [{"id": 19063559, "gamerTag": "Barbashop", "prefix": "", "user": {"location": {"city": null, "state": null, "country": null}}, "player": {"id": 2537853, "gamerTag": "Barbashop", "prefix": "", "user": {"location": {"city": null, "state": null, "country": null}}}}]}, "standing": {"placement": 1, "stats": {"score": {"value": 2}}}}, {"id": "91470333-1", "entrant": {"id": 20712822, "name": "Zarek", "participants": [{"id": 19063095, "gamerTag": "Zarek", "prefix": "", "user": {"location": {"city": "Atlanta", "state": "GA", "country": "United States"}}, "player": {"id": 405682, "gamerTag": "Zarek", "prefix": "", "user": {"location": {"city": "Atlanta", "state": "GA", "country": "United States"}}}}]}, "standing": {"placement": 2, "stats": {"score": {"value": 0}}}}], "games": null}, {"id": 91470334, "state": 3, "round": 2, "fullRoundText": "Semi-Final", "completedAt": 1752705820, "winnerId": 20709329, "slots": [{"id": "91470334-0", "entrant": {"id": 20712974, "name": "Rain~", "participants": [{"id": 19063240, "gamerTag": "Rain~", "prefix": null, "user": {"location": {"city": "Atlanta", "state": "GA", "country": "United States"}}, "player": {"id": 4240164, "gamerTag": "Rain~", "prefix": null, "user": {"location": {"city": "Atlanta", "state": "GA", "country": "United States"}}}}]}, "standing": {"placement": 2, "stats": {"score": {"value": 0}}}}, {"id": "91470334-1", "entrant": {"id": 20709329, "name": "Boo", "participants": [{"id": 19059927, "gamerTag": "Boo", "prefix": "", "user": {"location": {"city": "Cumming", "state": "GA", "country": "United States"}}, "player": {"id": 2647915, "gamerTag": "Boo", "prefix": "", "user": {"location": {"city": "Cumming", "state": "GA", "country": "United States"}}}}]}, "standing": {"placement": 1, "stats": {"score": {"value": 2}}}}], "games": null}, {"id": 91470330, "state": 3, "round": 1, "fullRoundText": "Quarter-Final", "completedAt": 1752705256, "winnerId": 20712822, "slots": [{"id": "91470330-0", "entrant": {"id": 20712727, "name": "KSU | Subzero", "participants": [{"id": 19054554, "gamerTag": "Subzero", "prefix": "KSU", "user": {"location": {"city": "Acworth", "state": "GA", "country": "United States"}}, "player": {"id": 1808159, "gamerTag": "Subzero", "prefix": "KSU", "user": {"location": {"city": "Acworth", "state": "GA", "country": "United States"}}}}]}, "standing": {"placement": 2, "stats": {"score": {"value": 1}}}}, {"id": "91470330-1", "entrant": {"id": 20712822, "name": "Zarek", "participants": [{"id": 19063095, "gamerTag": "Zarek", "prefix": "", "user": {"location": {"city": "Atlanta", "state": "GA", "country": "United States"}}, "player": {"id": 405682, "gamerTag": "Zarek", "prefix": "", "user": {"location": {"city": "Atlanta", "state": "GA", "country": "United States"}}}}]}, "standing": {"placement": 1, "stats": {"score": {"value": 2}}}}], "games": null}, {"id": 91470332, "state": 3, "round": 1, "fullRoundText": "Quarter-Final", "completedAt": 1752705102, "winnerId": 20709329, "slots": [{"id": "91470332-0", "entrant": {"id": 20709329, "name": "Boo", "participants": [{"id": 19059927, "gamerTag": "Boo", "prefix": "", "user": {"location": {"city": "Cumming", "state": "GA", "country": "United States"}}, "player": {"id": 2647915, "gamerTag": "Boo", "prefix": "", "user": {"location": {"city": "Cumming", "state": "GA", "country": "United States"}}}}]}, "standing": {"placement": 1, "stats": {"score": {"value": null}}}}, {"id": "91470332-1", "entrant": {"id": 20712724, "name": "CRAZYTAXI | FlyingSaucer", "participants": [{"id": 19062997, "gamerTag": "FlyingSaucer", "prefix": "CRAZYTAXI", "user": {"location": {"city": "Atlanta", "state": "GA", "country": "United States"}}, "player": {"id": 3116904, "gamerTag": "FlyingSaucer", "prefix": "CRAZYTAXI", "user": {"location": {"city": "Atlanta", "state": "GA", "country": "United States"}}}}]}, "standing": {"placement": 2, "stats": {"score": {"value": -1}}}}], "games": null}]}}}