{"event": {"sets": {"pageInfo": {"totalPages": 3, "total": 34}, "nodes": [{"id": 92799916, "state": 3, "round": -4, "fullRoundText": "Losers Round 1", "completedAt": 1755469309, "winnerId": 20995175, "slots": [{"id": "92799916-0", "entrant": {"id": 20995175, "name": "tomguy", "participants": [{"id": 19313330, "gamerTag": "tomguy", "prefix": "", "user": {"location": {"city": "Atlanta", "state": "GA", "country": "United States"}}, "player": {"id": 147458, "gamerTag": "tomguy", "prefix": "", "user": {"location": {"city": "Atlanta", "state": "GA", "country": "United States"}}}}]}, "standing": {"placement": 1, "stats": {"score": {"value": 2}}}}, {"id": "92799916-1", "entrant": {"id": 20995755, "name": "STEEZY", "participants": [{"id": 19313873, "gamerTag": "STEEZY", "prefix": null, "user": {"location": {"city": "HELL", "state": "GA", "country": "United States"}}, "player": {"id": 2496238, "gamerTag": "STEEZY", "prefix": null, "user": {"location": {"city": "HELL", "state": "GA", "country": "United States"}}}}]}, "standing": {"placement": 2, "stats": {"score": {"value": 0}}}}], "games": null}, {"id": 92799920, "state": 3, "round": -4, "fullRoundText": "Losers Round 1", "completedAt": 1755468467, "winnerId": 20994442, "slots": [{"id": "92799920-0", "entrant": {"id": 20994442, "name": "SKRUNT | diremaykr", "participants": [{"id": 19312650, "gamerTag": "diremaykr", "prefix": "SKRUNT", "user": {"location": {"city": "Buford", "state": "GA", "country": "United States"}}, "player": {"id": 3207366, "gamerTag": "diremaykr", "prefix": "", "user": {"location": {"city": "Buford", "state": "GA", "country": "United States"}}}}]}, "standing": {"placement": 1, "stats": {"score": {"value": 2}}}}, {"id": "92799920-1", "entrant": {"id": 20995188, "name": "TPS | $CAIT", "participants": [{"id": 19313340, "gamerTag": "$CAIT", "prefix": "TPS", "user": {"location": {"city": "Kennesaw", "state": "GA", "country": "United States"}}, "player": {"id": 3422494, "gamerTag": "$CAITLIN", "prefix": "TPS", "user": {"location": {"city": "Kennesaw", "state": "GA", "country": "United States"}}}}]}, "standing": {"placement": 2, "stats": {"score": {"value": 0}}}}], "games": null}, {"id": 92799844, "state": 3, "round": 1, "fullRoundText": "Winners Round 1", "completedAt": 1755467139, "winnerId": 20995804, "slots": [{"id": "92799844-0", "entrant": {"id": 20995804, "name": "DogLikeThing", "participants": [{"id": 19313920, "gamerTag": "DogLikeThing", "prefix": "", "user": {"location": {"city": "Greenville", "state": "SC", "country": "United States"}}, "player": {"id": 3791525, "gamerTag": "Zeik", "prefix": "", "user": {"location": {"city": "Greenville", "state": "SC", "country": "United States"}}}}]}, "standing": {"placement": 1, "stats": {"score": {"value": 2}}}}, {"id": "92799844-1", "entrant": {"id": 20995755, "name": "STEEZY", "participants": [{"id": 19313873, "gamerTag": "STEEZY", "prefix": null, "user": {"location": {"city": "HELL", "state": "GA", "country": "United States"}}, "player": {"id": 2496238, "gamerTag": "STEEZY", "prefix": null, "user": {"location": {"city": "HELL", "state": "GA", "country": "United States"}}}}]}, "standing": {"placement": 2, "stats": {"score": {"value": 0}}}}], "games": null}, {"id": 92799852, "state": 3, "round": 1, "fullRoundText": "Winners Round 1", "completedAt": 1755466856, "winnerId": 20994614, "slots": [{"id": "92799852-0", "entrant": {"id": 20994614, "name": "blaise", "participants": [{"id": 19312820, "gamerTag": "blaise", "prefix": "", "user": {"location": {"city": "douglasville", "state": "GA", "country": "United States"}}, "player": {"id": 1326121, "gamerTag": "blaise", "prefix": "", "user": {"location": {"city": "douglasville", "state": "GA", "country": "United States"}}}}]}, "standing": {"placement": 1, "stats": {"score": {"value": 2}}}}, {"id": "92799852-1", "entrant": {"id": 20995188, "name": "TPS | $CAIT", "participants": [{"id": 19313340, "gamerTag": "$CAIT", "prefix": "TPS", "user": {"location": {"city": "Kennesaw", "state": "GA", "country": "United States"}}, "player": {"id": 3422494, "gamerTag": "$CAITLIN", "prefix": "TPS", "user": {"location": {"city": "Kennesaw", "state": "GA", "country": "United States"}}}}]}, "standing": {"placement": 2, "stats": {"score": {"value": 0}}}}], "games": null}]}}}