{"event": {"sets": {"pageInfo": {"totalPages": 7, "total": 101}, "nodes": [{"id": 93351244, "state": 3, "round": -4, "fullRoundText": "Losers Round 2", "completedAt": 1756674752, "winnerId": 21122153, "slots": [{"id": "93351244-0", "entrant": {"id": 21122153, "name": "MTM | Bob Weiner", "participants": [{"id": 19428298, "gamerTag": "Bob Weiner", "prefix": "MTM", "user": {"location": {"city": "Kennesaw", "state": "GA", "country": "United States"}}, "player": {"id": 2142601, "gamerTag": "Bob Weiner", "prefix": "MTM", "user": {"location": {"city": "Kennesaw", "state": "GA", "country": "United States"}}}}]}, "standing": {"placement": 1, "stats": {"score": {"value": 2}}}}, {"id": "93351244-1", "entrant": {"id": 21062348, "name": "Turquoise", "participants": [{"id": 19374452, "gamerTag": "Turquoise", "prefix": "", "user": {"location": {"city": "Matthews", "state": "NC", "country": "United States"}}, "player": {"id": 49856, "gamerTag": "Turquoise", "prefix": "", "user": {"location": {"city": "Matthews", "state": "NC", "country": "United States"}}}}]}, "standing": {"placement": 2, "stats": {"score": {"value": 0}}}}], "games": null}, {"id": 93342897, "state": 3, "round": -4, "fullRoundText": "Losers Round 2", "completedAt": 1756665145, "winnerId": 21128641, "slots": [{"id": "93342897-0", "entrant": {"id": 21128641, "name": "TFT | BigCheese", "participants": [{"id": 19434413, "gamerTag": "BigCheese", "prefix": "TFT", "user": {"location": {"city": null, "state": null, "country": null}}, "player": {"id": 3991446, "gamerTag": "BigCheese", "prefix": "TFT", "user": {"location": {"city": null, "state": null, "country": null}}}}]}, "standing": {"placement": 1, "stats": {"score": {"value": null}}}}, {"id": "93342897-1", "entrant": {"id": 21120930, "name": "Lupo", "participants": [{"id": 19426471, "gamerTag": "Lupo", "prefix": "", "user": {"location": {"city": null, "state": null, "country": null}}, "player": {"id": 3848849, "gamerTag": "Lupo", "prefix": "", "user": {"location": {"city": null, "state": null, "country": null}}}}]}, "standing": {"placement": 2, "stats": {"score": {"value": -1}}}}], "games": null}, {"id": 93337923, "state": 3, "round": -4, "fullRoundText": "Losers Round 2", "completedAt": 1756659085, "winnerId": 21099538, "slots": [{"id": "93337923-0", "entrant": {"id": 21099538, "name": "JJ Hardy", "participants": [{"id": 19408044, "gamerTag": "JJ Hardy", "prefix": null, "user": {"location": {"city": "Windsor", "state": "CT", "country": "United States"}}, "player": {"id": 1825931, "gamerTag": "JJ Hardy", "prefix": "", "user": {"location": {"city": "Windsor", "state": "CT", "country": "United States"}}}}]}, "standing": {"placement": 1, "stats": {"score": {"value": 2}}}}, {"id": "93337923-1", "entrant": {"id": 21089141, "name": "sol.onion", "participants": [{"id": 19398634, "gamerTag": "sol.onion", "prefix": "", "user": {"location": {"city": "Stamford", "state": "CT", "country": "United States"}}, "player": {"id": 4943274, "gamerTag": "sol.onion", "prefix": "", "user": {"location": {"city": "Stamford", "state": "CT", "country": "United States"}}}}]}, "standing": {"placement": 2, "stats": {"score": {"value": 0}}}}], "games": null}, {"id": 93351245, "state": 3, "round": -4, "fullRoundText": "Losers Round 2", "completedAt": 1756672883, "winnerId": 21127162, "slots": [{"id": "93351245-0", "entrant": {"id": 21101150, "name": "GOONER | VolarIRL", "participants": [{"id": 19409518, "gamerTag": "VolarIRL", "prefix": "GOONER", "user": {"location": {"city": "Atlanta/Marietta", "state": "GA", "country": "United States"}}, "player": {"id": 2998706, "gamerTag": "VolarIRL", "prefix": "GOONER", "user": {"location": {"city": "Atlanta/Marietta", "state": "GA", "country": "United States"}}}}]}, "standing": {"placement": 2, "stats": {"score": {"value": 0}}}}, {"id": "93351245-1", "entrant": {"id": 21127162, "name": "BeigeMage", "participants": [{"id": 19432878, "gamerTag": "BeigeMage", "prefix": "", "user": {"location": {"city": "Savannah", "state": "GA", "country": "United States"}}, "player": {"id": 4949517, "gamerTag": "BeigeMage", "prefix": "", "user": {"location": {"city": "Savannah", "state": "GA", "country": "United States"}}}}]}, "standing": {"placement": 1, "stats": {"score": {"value": 2}}}}], "games": null}, {"id": 93342898, "state": 3, "round": -4, "fullRoundText": "Losers Round 2", "completedAt": 1756667909, "winnerId": 21104042, "slots": [{"id": "93342898-0", "entrant": {"id": 20983084, "name": "Swaggin Waggon", "participants": [{"id": 19303225, "gamerTag": "Swaggin Waggon", "prefix": "", "user": {"location": {"city": "Bay City", "state": "TX", "country": "United States"}}, "player": {"id": 833326, "gamerTag": "Swaggin Waggon", "prefix": "", "user": {"location": {"city": "Bay City", "state": "TX", "country": "United States"}}}}]}, "standing": {"placement": 2, "stats": {"score": {"value": 1}}}}, {"id": "93342898-1", "entrant": {"id": 21104042, "name": "Chromaticblue28", "participants": [{"id": 19412220, "gamerTag": "Chromaticblue28", "prefix": null, "user": {"location": {"city": null, "state": null, "country": null}}, "player": {"id": 3607653, "gamerTag": "Chromaticblue28", "prefix": null, "user": {"location": {"city": null, "state": null, "country": null}}}}]}, "standing": {"placement": 1, "stats": {"score": {"value": 2}}}}], "games": null}, {"id": 93357394, "state": 3, "round": -4, "fullRoundText": "Losers Round 1", "completedAt": 1756681268, "winnerId": 21059693, "slots": [{"id": "93357394-0", "entrant": {"id": 21059693, "name": "Bitazeee", "participants": [{"id": 19371927, "gamerTag": "Bitazeee", "prefix": null, "user": {"location": {"city": "Charlotte", "state": "NC", "country": "United States"}}, "player": {"id": 3817099, "gamerTag": "Bitazeee", "prefix": null, "user": {"location": {"city": "Charlotte", "state": "NC", "country": "United States"}}}}]}, "standing": {"placement": 1, "stats": {"score": {"value": 2}}}}, {"id": "93357394-1", "entrant": {"id": 21028213, "name": "Greenflaming0", "participants": [{"id": 19343543, "gamerTag": "Greenflaming0", "prefix": null, "user": {"location": {"city": "marietta", "state": "GA", "country": "United States"}}, "player": {"id": 4932878, "gamerTag": "Greenflaming0", "prefix": null, "user": {"location": {"city": "marietta", "state": "GA", "country": "United States"}}}}]}, "standing": {"placement": 2, "stats": {"score": {"value": 0}}}}], "games": null}, {"id": 93337924, "state": 3, "round": -4, "fullRoundText": "Losers Round 2", "completedAt": 1756658700, "winnerId": 21030363, "slots": [{"id": "93337924-0", "entrant": {"id": 21080045, "name": "Damp\u00e9", "participants": [{"id": 19390581, "gamerTag": "Damp\u00e9", "prefix": null, "user": {"location": {"city": "Atlanta", "state": "GA", "country": "United States"}}, "player": {"id": 1170738, "gamerTag": "Damp\u00e9", "prefix": "TnT", "user": {"location": {"city": "Atlanta", "state": "GA", "country": "United States"}}}}]}, "standing": {"placement": 2, "stats": {"score": {"value": -1}}}}, {"id": "93337924-1", "entrant": {"id": 21030363, "name": "w3155", "participants": [{"id": 19345540, "gamerTag": "w3155", "prefix": "", "user": {"location": {"city": "Flowery Branch", "state": "GA", "country": "United States"}}, "player": {"id": 3556938, "gamerTag": "w3155", "prefix": "", "user": {"location": {"city": "Flowery Branch", "state": "GA", "country": "United States"}}}}]}, "standing": {"placement": 1, "stats": {"score": {"value": null}}}}], "games": null}, {"id": 93342899, "state": 3, "round": -4, "fullRoundText": "Losers Round 2", "completedAt": 1756666672, "winnerId": 21119103, "slots": [{"id": "93342899-0", "entrant": {"id": 21115111, "name": "Crimson", "participants": [{"id": 19422115, "gamerTag": "Crimson", "prefix": null, "user": {"location": {"city": "Peoria", "state": "AZ", "country": "United States"}}, "player": {"id": 4533084, "gamerTag": "Crimson", "prefix": "", "user": {"location": {"city": "Peoria", "state": "AZ", "country": "United States"}}}}]}, "standing": {"placement": 2, "stats": {"score": {"value": 1}}}}, {"id": "93342899-1", "entrant": {"id": 21119103, "name": "SirMelltheGreat", "participants": [{"id": 19425677, "gamerTag": "SirMelltheGreat", "prefix": "", "user": {"location": {"city": "Savannah", "state": "GA", "country": "United States"}}, "player": {"id": 3603872, "gamerTag": "SirMelltheGreat", "prefix": "", "user": {"location": {"city": "Savannah", "state": "GA", "country": "United States"}}}}]}, "standing": {"placement": 1, "stats": {"score": {"value": 2}}}}], "games": null}, {"id": 93351246, "state": 3, "round": -4, "fullRoundText": "Losers Round 2", "completedAt": 1756672657, "winnerId": 21062074, "slots": [{"id": "93351246-0", "entrant": {"id": 21062074, "name": "Jdaddy", "participants": [{"id": 19374212, "gamerTag": "Jdaddy", "prefix": null, "user": {"location": {"city": "Atlanta", "state": "GA", "country": "United States"}}, "player": {"id": 4384721, "gamerTag": "Jdaddy", "prefix": null, "user": {"location": {"city": "Atlanta", "state": "GA", "country": "United States"}}}}]}, "standing": {"placement": 1, "stats": {"score": {"value": null}}}}, {"id": "93351246-1", "entrant": {"id": 21104272, "name": "SaggyMilkJug", "participants": [{"id": 19412425, "gamerTag": "SaggyMilkJug", "prefix": "", "user": {"location": {"city": "Atlanta", "state": "GA", "country": "United States"}}, "player": {"id": 4651404, "gamerTag": "SaggyMilkJug", "prefix": "", "user": {"location": {"city": "Atlanta", "state": "GA", "country": "United States"}}}}]}, "standing": {"placement": 2, "stats": {"score": {"value": -1}}}}], "games": null}, {"id": 93351247, "state": 3, "round": -4, "fullRoundText": "Losers Round 2", "completedAt": 1756673940, "winnerId": 21103454, "slots": [{"id": "93351247-0", "entrant": {"id": 21103454, "name": "Tilted", "participants": [{"id": 19411689, "gamerTag": "Tilted", "prefix": null, "user": {"location": {"city": "Norcross", "state": "GA", "country": "United States"}}, "player": {"id": 2377635, "gamerTag": "Tilted", "prefix": null, "user": {"location": {"city": "Norcross", "state": "GA", "country": "United States"}}}}]}, "standing": {"placement": 1, "stats": {"score": {"value": 2}}}}, {"id": "93351247-1", "entrant": {"id": 21005112, "name": "Reco", "participants": [{"id": 19322769, "gamerTag": "Reco", "prefix": null, "user": {"location": {"city": "Atlanta", "state": "GA", "country": "United States"}}, "player": {"id": 4343297, "gamerTag": "Reco", "prefix": null, "user": {"location": {"city": "Atlanta", "state": "GA", "country": "United States"}}}}]}, "standing": {"placement": 2, "stats": {"score": {"value": 0}}}}], "games": null}, {"id": 93337925, "state": 3, "round": -4, "fullRoundText": "Losers Round 2", "completedAt": 1756657770, "winnerId": 21050482, "slots": [{"id": "93337925-0", "entrant": {"id": 21125645, "name": "DTN | Jahzz0", "participants": [{"id": 19431401, "gamerTag": "Jahzz0", "prefix": "DTN", "user": {"location": {"city": null, "state": null, "country": "United States"}}, "player": {"id": 946548, "gamerTag": "Jahzz0", "prefix": "DTN", "user": {"location": {"city": null, "state": null, "country": "United States"}}}}]}, "standing": {"placement": 2, "stats": {"score": {"value": -1}}}}, {"id": "93337925-1", "entrant": {"id": 21050482, "name": "Vincenzo", "participants": [{"id": 19363924, "gamerTag": "Vincenzo", "prefix": "", "user": {"location": {"city": "Raleigh", "state": "NC", "country": "United States"}}, "player": {"id": 4381443, "gamerTag": "SirBacon", "prefix": null, "user": {"location": {"city": "Raleigh", "state": "NC", "country": "United States"}}}}]}, "standing": {"placement": 1, "stats": {"score": {"value": null}}}}], "games": null}, {"id": 93342900, "state": 3, "round": -4, "fullRoundText": "Losers Round 2", "completedAt": 1756665359, "winnerId": 21074825, "slots": [{"id": "93342900-0", "entrant": {"id": 21074825, "name": "LUNAR.", "participants": [{"id": 19385730, "gamerTag": "LUNAR.", "prefix": null, "user": {"location": {"city": "Nashville", "state": "TN", "country": "United States"}}, "player": {"id": 2708713, "gamerTag": "LUNAR.", "prefix": null, "user": {"location": {"city": "Nashville", "state": "TN", "country": "United States"}}}}]}, "standing": {"placement": 1, "stats": {"score": {"value": 2}}}}, {"id": "93342900-1", "entrant": {"id": 21028219, "name": "The_Editors", "participants": [{"id": 19343550, "gamerTag": "The_Editors", "prefix": null, "user": {"location": {"city": "Albertville", "state": "AL", "country": "United States"}}, "player": {"id": 3796522, "gamerTag": "The_Editors", "prefix": null, "user": {"location": {"city": "Albertville", "state": "AL", "country": "United States"}}}}]}, "standing": {"placement": 2, "stats": {"score": {"value": 0}}}}], "games": null}, {"id": 93362575, "state": 3, "round": -7, "fullRoundText": "Losers Round 4", "completedAt": 1756691515, "winnerId": 21098320, "slots": [{"id": "93362575-0", "entrant": {"id": 21098320, "name": "KRU | CarbonCopies", "participants": [{"id": 19406775, "gamerTag": "CarbonCopies", "prefix": "KRU", "user": {"location": {"city": "Denver", "state": "CO", "country": "United States"}}, "player": {"id": 521097, "gamerTag": "CarbonCopies", "prefix": "KRU", "user": {"location": {"city": "Denver", "state": "CO", "country": "United States"}}}}]}, "standing": {"placement": 1, "stats": {"score": {"value": 2}}}}, {"id": "93362575-1", "entrant": {"id": 21078191, "name": "Heart", "participants": [{"id": 19388853, "gamerTag": "Heart", "prefix": "", "user": {"location": {"city": "Atlanta", "state": "GA", "country": "United States"}}, "player": {"id": 4287822, "gamerTag": "Heart", "prefix": "", "user": {"location": {"city": "Atlanta", "state": "GA", "country": "United States"}}}}]}, "standing": {"placement": 2, "stats": {"score": {"value": 0}}}}], "games": null}, {"id": 93337919, "state": 3, "round": -3, "fullRoundText": "Losers Round 1", "completedAt": 1756657748, "winnerId": 21089141, "slots": [{"id": "93337919-0", "entrant": {"id": 21099056, "name": "shortguyjordan", "participants": [{"id": 19407503, "gamerTag": "shortguyjordan", "prefix": "", "user": {"location": {"city": "Anniston", "state": "AL", "country": "United States"}}, "player": {"id": 4944400, "gamerTag": "shortguyjordan", "prefix": "", "user": {"location": {"city": "Anniston", "state": "AL", "country": "United States"}}}}]}, "standing": {"placement": 2, "stats": {"score": {"value": -1}}}}, {"id": "93337919-1", "entrant": {"id": 21089141, "name": "sol.onion", "participants": [{"id": 19398634, "gamerTag": "sol.onion", "prefix": "", "user": {"location": {"city": "Stamford", "state": "CT", "country": "United States"}}, "player": {"id": 4943274, "gamerTag": "sol.onion", "prefix": "", "user": {"location": {"city": "Stamford", "state": "CT", "country": "United States"}}}}]}, "standing": {"placement": 1, "stats": {"score": {"value": null}}}}], "games": null}, {"id": 93351241, "state": 3, "round": -3, "fullRoundText": "Losers Round 1", "completedAt": 1756671122, "winnerId": 21127162, "slots": [{"id": "93351241-0", "entrant": {"id": 21127162, "name": "BeigeMage", "participants": [{"id": 19432878, "gamerTag": "BeigeMage", "prefix": "", "user": {"location": {"city": "Savannah", "state": "GA", "country": "United States"}}, "player": {"id": 4949517, "gamerTag": "BeigeMage", "prefix": "", "user": {"location": {"city": "Savannah", "state": "GA", "country": "United States"}}}}]}, "standing": {"placement": 1, "stats": {"score": {"value": null}}}}, {"id": "93351241-1", "entrant": {"id": 21057962, "name": "MAJOR | Goob", "participants": [{"id": 19370452, "gamerTag": "Goob", "prefix": "MAJOR", "user": {"location": {"city": "Redmond", "state": "WA", "country": "United States"}}, "player": {"id": 68099, "gamerTag": "Goob", "prefix": "MAJOR", "user": {"location": {"city": "Redmond", "state": "WA", "country": "United States"}}}}]}, "standing": {"placement": 2, "stats": {"score": {"value": -1}}}}], "games": null}]}}}