{"event": {"sets": {"pageInfo": {"totalPages": 6, "total": 81}, "nodes": [{"id": 93348704, "state": 3, "round": -8, "fullRoundText": "Losers Round 5", "completedAt": 1756674703, "winnerId": 21061138, "slots": [{"id": "93348704-0", "entrant": {"id": 21084803, "name": "kahdeh", "participants": [{"id": 19394775, "gamerTag": "kahdeh", "prefix": null, "user": {"location": {"city": null, "state": "GA", "country": "United States"}}, "player": {"id": 3730125, "gamerTag": "kahdeh", "prefix": null, "user": {"location": {"city": null, "state": "GA", "country": "United States"}}}}]}, "standing": {"placement": 2, "stats": {"score": {"value": 0}}}}, {"id": "93348704-1", "entrant": {"id": 21061138, "name": "CHEESE", "participants": [{"id": 19373326, "gamerTag": "CHEESE", "prefix": null, "user": {"location": {"city": "Buford", "state": "GA", "country": "United States"}}, "player": {"id": 3429754, "gamerTag": "CHEESE", "prefix": null, "user": {"location": {"city": "Buford", "state": "GA", "country": "United States"}}}}]}, "standing": {"placement": 1, "stats": {"score": {"value": 2}}}}], "games": null}, {"id": 93348705, "state": 3, "round": -8, "fullRoundText": "Losers Round 5", "completedAt": 1756673124, "winnerId": 21004193, "slots": [{"id": "93348705-0", "entrant": {"id": 21047567, "name": "red dot", "participants": [{"id": 19361293, "gamerTag": "red dot", "prefix": "", "user": {"location": {"city": "Milton", "state": "GA", "country": "United States"}}, "player": {"id": 1812177, "gamerTag": "red dot", "prefix": "", "user": {"location": {"city": "Milton", "state": "GA", "country": "United States"}}}}]}, "standing": {"placement": 2, "stats": {"score": {"value": 1}}}}, {"id": "93348705-1", "entrant": {"id": 21004193, "name": "GUMP2 | ToxiC", "participants": [{"id": 19321851, "gamerTag": "ToxiC", "prefix": "GUMP2", "user": {"location": {"city": "Marietta", "state": "GA", "country": "United States"}}, "player": {"id": 2585804, "gamerTag": "ToxiC", "prefix": "GUMP2", "user": {"location": {"city": "Marietta", "state": "GA", "country": "United States"}}}}]}, "standing": {"placement": 1, "stats": {"score": {"value": 2}}}}], "games": [{"id": 32289954, "orderNum": 1, "winnerId": 21047567, "entrant1Score": 0, "entrant2Score": 0, "stage": null, "selections": [{"id": 47593202, "selectionType": "CHARACTER", "selectionValue": 1313, "entrant": {"id": 21004193}, "character": {"id": 1313, "name": "Ness"}}, {"id": 47593203, "selectionType": "CHARACTER", "selectionValue": 1410, "entrant": {"id": 21047567}, "character": {"id": 1410, "name": "Ken"}}]}, {"id": 32289955, "orderNum": 2, "winnerId": 21004193, "entrant1Score": 0, "entrant2Score": null, "stage": null, "selections": [{"id": 47593204, "selectionType": "CHARACTER", "selectionValue": 1313, "entrant": {"id": 21004193}, "character": {"id": 1313, "name": "Ness"}}, {"id": 47593205, "selectionType": "CHARACTER", "selectionValue": 1410, "entrant": {"id": 21047567}, "character": {"id": 1410, "name": "Ken"}}]}, {"id": 32289956, "orderNum": 3, "winnerId": 21004193, "entrant1Score": 0, "entrant2Score": null, "stage": null, "selections": [{"id": 47593206, "selectionType": "CHARACTER", "selectionValue": 1313, "entrant": {"id": 21004193}, "character": {"id": 1313, "name": "Ness"}}, {"id": 47593207, "selectionType": "CHARACTER", "selectionValue": 1410, "entrant": {"id": 21047567}, "character": {"id": 1410, "name": "Ken"}}]}]}, {"id": 93348706, "state": 3, "round": -8, "fullRoundText": "Losers Round 5", "completedAt": 1756674760, "winnerId": 21040395, "slots": [{"id": "93348706-0", "entrant": {"id": 21040395, "name": "BlaZR", "participants": [{"id": 19354869, "gamerTag": "BlaZR", "prefix": "", "user": {"location": {"city": "ur mum", "state": null, "country": "United States"}}, "player": {"id": 1804122, "gamerTag": "BlaZR", "prefix": "", "user": {"location": {"city": "ur mum", "state": null, "country": "United States"}}}}]}, "standing": {"placement": 1, "stats": {"score": {"value": 2}}}}, {"id": "93348706-1", "entrant": {"id": 21040545, "name": "SaggyMilkJug", "participants": [{"id": 19355012, "gamerTag": "SaggyMilkJug", "prefix": "", "user": {"location": {"city": "Atlanta", "state": "GA", "country": "United States"}}, "player": {"id": 4651404, "gamerTag": "SaggyMilkJug", "prefix": "", "user": {"location": {"city": "Atlanta", "state": "GA", "country": "United States"}}}}]}, "standing": {"placement": 2, "stats": {"score": {"value": 1}}}}], "games": [{"id": 32290683, "orderNum": 1, "winnerId": 21040395, "entrant1Score": null, "entrant2Score": 0, "stage": null, "selections": [{"id": 47594380, "selectionType": "CHARACTER", "selectionValue": 1337, "entrant": {"id": 21040395}, "character": {"id": 1337, "name": "Wolf"}}, {"id": 47594381, "selectionType": "CHARACTER", "selectionValue": 1297, "entrant": {"id": 21040545}, "character": {"id": 1297, "name": "Little Mac"}}]}, {"id": 32290684, "orderNum": 2, "winnerId": 21040545, "entrant1Score": 0, "entrant2Score": null, "stage": null, "selections": [{"id": 47594382, "selectionType": "CHARACTER", "selectionValue": 1337, "entrant": {"id": 21040395}, "character": {"id": 1337, "name": "Wolf"}}, {"id": 47594383, "selectionType": "CHARACTER", "selectionValue": 1297, "entrant": {"id": 21040545}, "character": {"id": 1297, "name": "Little Mac"}}]}, {"id": 32290685, "orderNum": 3, "winnerId": 21040395, "entrant1Score": null, "entrant2Score": 0, "stage": null, "selections": [{"id": 47594384, "selectionType": "CHARACTER", "selectionValue": 1337, "entrant": {"id": 21040395}, "character": {"id": 1337, "name": "Wolf"}}, {"id": 47594385, "selectionType": "CHARACTER", "selectionValue": 1297, "entrant": {"id": 21040545}, "character": {"id": 1297, "name": "Little Mac"}}]}]}, {"id": 93348707, "state": 3, "round": -8, "fullRoundText": "Losers Round 5", "completedAt": 1756674584, "winnerId": 21119788, "slots": [{"id": "93348707-0", "entrant": {"id": 21119788, "name": "UTO|WhaLey | Kingwifi", "participants": [{"id": 19426202, "gamerTag": "Kingwifi", "prefix": "UTO|WhaLey", "user": {"location": {"city": "Stone Mountain", "state": "GA", "country": "United States"}}, "player": {"id": 2016149, "gamerTag": "Whaley", "prefix": "KSU|UTO|BLZE", "user": {"location": {"city": "Stone Mountain", "state": "GA", "country": "United States"}}}}]}, "standing": {"placement": 1, "stats": {"score": {"value": 2}}}}, {"id": "93348707-1", "entrant": {"id": 21004884, "name": "KSU | colorful\u029a\u025e", "participants": [{"id": 19322534, "gamerTag": "colorful\u029a\u025e", "prefix": "KSU", "user": {"location": {"city": "Kennesaw", "state": "GA", "country": "United States"}}, "player": {"id": 1783074, "gamerTag": "colorful\u029a\u025e", "prefix": "KSU | RM", "user": {"location": {"city": "Kennesaw", "state": "GA", "country": "United States"}}}}]}, "standing": {"placement": 2, "stats": {"score": {"value": 0}}}}], "games": [{"id": 32290609, "orderNum": 1, "winnerId": 21119788, "entrant1Score": null, "entrant2Score": 0, "stage": null, "selections": [{"id": 47594270, "selectionType": "CHARACTER", "selectionValue": 1275, "entrant": {"id": 21004884}, "character": {"id": 1275, "name": "Cloud"}}, {"id": 47594271, "selectionType": "CHARACTER", "selectionValue": 1777, "entrant": {"id": 21119788}, "character": {"id": 1777, "name": "Sephiroth"}}]}, {"id": 32290611, "orderNum": 2, "winnerId": 21119788, "entrant1Score": null, "entrant2Score": 0, "stage": null, "selections": [{"id": 47594274, "selectionType": "CHARACTER", "selectionValue": 1275, "entrant": {"id": 21004884}, "character": {"id": 1275, "name": "Cloud"}}, {"id": 47594275, "selectionType": "CHARACTER", "selectionValue": 1777, "entrant": {"id": 21119788}, "character": {"id": 1777, "name": "Sephiroth"}}]}]}, {"id": 93348700, "state": 3, "round": -7, "fullRoundText": "Losers Round 4", "completedAt": 1756674158, "winnerId": 21061138, "slots": [{"id": "93348700-0", "entrant": {"id": 21089045, "name": "KSU | Subzero", "participants": [{"id": 19398545, "gamerTag": "Subzero", "prefix": "KSU", "user": {"location": {"city": "Acworth", "state": "GA", "country": "United States"}}, "player": {"id": 1808159, "gamerTag": "Subzero", "prefix": "KSU", "user": {"location": {"city": "Acworth", "state": "GA", "country": "United States"}}}}]}, "standing": {"placement": 2, "stats": {"score": {"value": 0}}}}, {"id": "93348700-1", "entrant": {"id": 21061138, "name": "CHEESE", "participants": [{"id": 19373326, "gamerTag": "CHEESE", "prefix": null, "user": {"location": {"city": "Buford", "state": "GA", "country": "United States"}}, "player": {"id": 3429754, "gamerTag": "CHEESE", "prefix": null, "user": {"location": {"city": "Buford", "state": "GA", "country": "United States"}}}}]}, "standing": {"placement": 1, "stats": {"score": {"value": 2}}}}], "games": null}, {"id": 93348701, "state": 3, "round": -7, "fullRoundText": "Losers Round 4", "completedAt": 1756672592, "winnerId": 21004193, "slots": [{"id": "93348701-0", "entrant": {"id": 21031217, "name": "promamamia", "participants": [{"id": 19346365, "gamerTag": "promamamia", "prefix": "", "user": {"location": {"city": "Alpharetta", "state": "GA", "country": "United States"}}, "player": {"id": 3548468, "gamerTag": "promamamia", "prefix": "", "user": {"location": {"city": "Alpharetta", "state": "GA", "country": "United States"}}}}]}, "standing": {"placement": 2, "stats": {"score": {"value": 0}}}}, {"id": "93348701-1", "entrant": {"id": 21004193, "name": "GUMP2 | ToxiC", "participants": [{"id": 19321851, "gamerTag": "ToxiC", "prefix": "GUMP2", "user": {"location": {"city": "Marietta", "state": "GA", "country": "United States"}}, "player": {"id": 2585804, "gamerTag": "ToxiC", "prefix": "GUMP2", "user": {"location": {"city": "Marietta", "state": "GA", "country": "United States"}}}}]}, "standing": {"placement": 1, "stats": {"score": {"value": 2}}}}], "games": [{"id": 32289832, "orderNum": 1, "winnerId": 21004193, "entrant1Score": 0, "entrant2Score": null, "stage": null, "selections": [{"id": 47593017, "selectionType": "CHARACTER", "selectionValue": 1313, "entrant": {"id": 21004193}, "character": {"id": 1313, "name": "Ness"}}, {"id": 47593018, "selectionType": "CHARACTER", "selectionValue": 1326, "entrant": {"id": 21031217}, "character": {"id": 1326, "name": "Roy"}}]}, {"id": 32289833, "orderNum": 2, "winnerId": 21004193, "entrant1Score": 0, "entrant2Score": null, "stage": null, "selections": [{"id": 47593019, "selectionType": "CHARACTER", "selectionValue": 1313, "entrant": {"id": 21004193}, "character": {"id": 1313, "name": "Ness"}}, {"id": 47593020, "selectionType": "CHARACTER", "selectionValue": 1326, "entrant": {"id": 21031217}, "character": {"id": 1326, "name": "Roy"}}]}]}, {"id": 93348702, "state": 3, "round": -7, "fullRoundText": "Losers Round 4", "completedAt": 1756674732, "winnerId": 21040545, "slots": [{"id": "93348702-0", "entrant": {"id": 21040401, "name": "RM | PrincePeach", "participants": [{"id": 19354876, "gamerTag": "PrincePeach", "prefix": "RM", "user": {"location": {"city": "Stone Mountain", "state": "GA", "country": "United States"}}, "player": {"id": 3003562, "gamerTag": "Prince Peach", "prefix": "RM", "user": {"location": {"city": "Stone Mountain", "state": "GA", "country": "United States"}}}}]}, "standing": {"placement": 2, "stats": {"score": {"value": 0}}}}, {"id": "93348702-1", "entrant": {"id": 21040545, "name": "SaggyMilkJug", "participants": [{"id": 19355012, "gamerTag": "SaggyMilkJug", "prefix": "", "user": {"location": {"city": "Atlanta", "state": "GA", "country": "United States"}}, "player": {"id": 4651404, "gamerTag": "SaggyMilkJug", "prefix": "", "user": {"location": {"city": "Atlanta", "state": "GA", "country": "United States"}}}}]}, "standing": {"placement": 1, "stats": {"score": {"value": 2}}}}], "games": [{"id": 32290675, "orderNum": 1, "winnerId": 21040545, "entrant1Score": 0, "entrant2Score": null, "stage": null, "selections": [{"id": 47594364, "selectionType": "CHARACTER", "selectionValue": 1317, "entrant": {"id": 21040401}, "character": {"id": 1317, "name": "Peach"}}, {"id": 47594365, "selectionType": "CHARACTER", "selectionValue": 1297, "entrant": {"id": 21040545}, "character": {"id": 1297, "name": "Little Mac"}}]}, {"id": 32290676, "orderNum": 2, "winnerId": 21040545, "entrant1Score": 0, "entrant2Score": null, "stage": null, "selections": [{"id": 47594366, "selectionType": "CHARACTER", "selectionValue": 1317, "entrant": {"id": 21040401}, "character": {"id": 1317, "name": "Peach"}}, {"id": 47594367, "selectionType": "CHARACTER", "selectionValue": 1297, "entrant": {"id": 21040545}, "character": {"id": 1297, "name": "Little Mac"}}]}]}, {"id": 93348703, "state": 3, "round": -7, "fullRoundText": "Losers Round 4", "completedAt": 1756673951, "winnerId": 21004884, "slots": [{"id": "93348703-0", "entrant": {"id": 21004884, "name": "KSU | colorful\u029a\u025e", "participants": [{"id": 19322534, "gamerTag": "colorful\u029a\u025e", "prefix": "KSU", "user": {"location": {"city": "Kennesaw", "state": "GA", "country": "United States"}}, "player": {"id": 1783074, "gamerTag": "colorful\u029a\u025e", "prefix": "KSU | RM", "user": {"location": {"city": "Kennesaw", "state": "GA", "country": "United States"}}}}]}, "standing": {"placement": 1, "stats": {"score": {"value": 2}}}}, {"id": "93348703-1", "entrant": {"id": 21125670, "name": "Omar", "participants": [{"id": 19431429, "gamerTag": "Omar", "prefix": "", "user": {"location": {"city": null, "state": "GA", "country": "United States"}}, "player": {"id": 4300029, "gamerTag": "Omar", "prefix": "", "user": {"location": {"city": null, "state": "GA", "country": "United States"}}}}]}, "standing": {"placement": 2, "stats": {"score": {"value": 0}}}}], "games": [{"id": 32290381, "orderNum": 1, "winnerId": 21004884, "entrant1Score": null, "entrant2Score": 0, "stage": null, "selections": [{"id": 47593906, "selectionType": "CHARACTER", "selectionValue": 1275, "entrant": {"id": 21004884}, "character": {"id": 1275, "name": "Cloud"}}, {"id": 47593907, "selectionType": "CHARACTER", "selectionValue": 1316, "entrant": {"id": 21125670}, "character": {"id": 1316, "name": "Palutena"}}]}, {"id": 32290382, "orderNum": 2, "winnerId": 21004884, "entrant1Score": null, "entrant2Score": 0, "stage": null, "selections": [{"id": 47593908, "selectionType": "CHARACTER", "selectionValue": 1275, "entrant": {"id": 21004884}, "character": {"id": 1275, "name": "Cloud"}}, {"id": 47593909, "selectionType": "CHARACTER", "selectionValue": 1316, "entrant": {"id": 21125670}, "character": {"id": 1316, "name": "Palutena"}}]}]}, {"id": 93348572, "state": 3, "round": 3, "fullRoundText": "Winners Round 3", "completedAt": 1756670691, "winnerId": 21040395, "slots": [{"id": "93348572-0", "entrant": {"id": 21040395, "name": "BlaZR", "participants": [{"id": 19354869, "gamerTag": "BlaZR", "prefix": "", "user": {"location": {"city": "ur mum", "state": null, "country": "United States"}}, "player": {"id": 1804122, "gamerTag": "BlaZR", "prefix": "", "user": {"location": {"city": "ur mum", "state": null, "country": "United States"}}}}]}, "standing": {"placement": 1, "stats": {"score": {"value": 2}}}}, {"id": "93348572-1", "entrant": {"id": 21128843, "name": "MONEY | ImNoPro", "participants": [{"id": 19434629, "gamerTag": "ImNoPro", "prefix": "MONEY", "user": {"location": {"city": "Calhoun", "state": "GA", "country": "United States"}}, "player": {"id": 2149803, "gamerTag": "ImNoPro", "prefix": "MONEY", "user": {"location": {"city": "Calhoun", "state": "GA", "country": "United States"}}}}]}, "standing": {"placement": 2, "stats": {"score": {"value": 1}}}}], "games": [{"id": 32288943, "orderNum": 1, "winnerId": 21128843, "entrant1Score": 0, "entrant2Score": null, "stage": null, "selections": [{"id": 47591671, "selectionType": "CHARACTER", "selectionValue": 1337, "entrant": {"id": 21040395}, "character": {"id": 1337, "name": "Wolf"}}, {"id": 47591672, "selectionType": "CHARACTER", "selectionValue": 1275, "entrant": {"id": 21128843}, "character": {"id": 1275, "name": "Cloud"}}]}, {"id": 32288944, "orderNum": 2, "winnerId": 21040395, "entrant1Score": null, "entrant2Score": 0, "stage": null, "selections": [{"id": 47591673, "selectionType": "CHARACTER", "selectionValue": 1337, "entrant": {"id": 21040395}, "character": {"id": 1337, "name": "Wolf"}}, {"id": 47591674, "selectionType": "CHARACTER", "selectionValue": 1275, "entrant": {"id": 21128843}, "character": {"id": 1275, "name": "Cloud"}}]}, {"id": 32288945, "orderNum": 3, "winnerId": 21040395, "entrant1Score": null, "entrant2Score": 0, "stage": null, "selections": [{"id": 47591675, "selectionType": "CHARACTER", "selectionValue": 1337, "entrant": {"id": 21040395}, "character": {"id": 1337, "name": "Wolf"}}, {"id": 47591676, "selectionType": "CHARACTER", "selectionValue": 1275, "entrant": {"id": 21128843}, "character": {"id": 1275, "name": "Cloud"}}]}]}, {"id": 93348573, "state": 3, "round": 3, "fullRoundText": "Winners Round 3", "completedAt": 1756671517, "winnerId": 21129404, "slots": [{"id": "93348573-0", "entrant": {"id": 21129404, "name": "RM | Twist!?", "participants": [{"id": 19435158, "gamerTag": "Twist!?", "prefix": "RM", "user": {"location": {"city": "Marietta", "state": "GA", "country": "United States"}}, "player": {"id": 1764076, "gamerTag": "Twist!?", "prefix": "RM", "user": {"location": {"city": "Marietta", "state": "GA", "country": "United States"}}}}]}, "standing": {"placement": 1, "stats": {"score": {"value": 2}}}}, {"id": "93348573-1", "entrant": {"id": 21061138, "name": "CHEESE", "participants": [{"id": 19373326, "gamerTag": "CHEESE", "prefix": null, "user": {"location": {"city": "Buford", "state": "GA", "country": "United States"}}, "player": {"id": 3429754, "gamerTag": "CHEESE", "prefix": null, "user": {"location": {"city": "Buford", "state": "GA", "country": "United States"}}}}]}, "standing": {"placement": 2, "stats": {"score": {"value": 0}}}}], "games": null}, {"id": 93348574, "state": 3, "round": 3, "fullRoundText": "Winners Round 3", "completedAt": 1756670556, "winnerId": 21119788, "slots": [{"id": "93348574-0", "entrant": {"id": 21119788, "name": "UTO|WhaLey | Kingwifi", "participants": [{"id": 19426202, "gamerTag": "Kingwifi", "prefix": "UTO|WhaLey", "user": {"location": {"city": "Stone Mountain", "state": "GA", "country": "United States"}}, "player": {"id": 2016149, "gamerTag": "Whaley", "prefix": "KSU|UTO|BLZE", "user": {"location": {"city": "Stone Mountain", "state": "GA", "country": "United States"}}}}]}, "standing": {"placement": 1, "stats": {"score": {"value": 2}}}}, {"id": "93348574-1", "entrant": {"id": 21089045, "name": "KSU | Subzero", "participants": [{"id": 19398545, "gamerTag": "Subzero", "prefix": "KSU", "user": {"location": {"city": "Acworth", "state": "GA", "country": "United States"}}, "player": {"id": 1808159, "gamerTag": "Subzero", "prefix": "KSU", "user": {"location": {"city": "Acworth", "state": "GA", "country": "United States"}}}}]}, "standing": {"placement": 2, "stats": {"score": {"value": 0}}}}], "games": [{"id": 32288863, "orderNum": 1, "winnerId": 21119788, "entrant1Score": null, "entrant2Score": 0, "stage": null, "selections": [{"id": 47591532, "selectionType": "CHARACTER", "selectionValue": 1453, "entrant": {"id": 21089045}, "character": {"id": 1453, "name": "Joker"}}, {"id": 47591533, "selectionType": "CHARACTER", "selectionValue": 1294, "entrant": {"id": 21119788}, "character": {"id": 1294, "name": "King Dedede"}}]}, {"id": 32288864, "orderNum": 2, "winnerId": 21119788, "entrant1Score": null, "entrant2Score": 0, "stage": null, "selections": [{"id": 47591534, "selectionType": "CHARACTER", "selectionValue": 1539, "entrant": {"id": 21089045}, "character": {"id": 1539, "name": "Byleth"}}, {"id": 47591535, "selectionType": "CHARACTER", "selectionValue": 1777, "entrant": {"id": 21119788}, "character": {"id": 1777, "name": "Sephiroth"}}]}]}, {"id": 93348575, "state": 3, "round": 3, "fullRoundText": "Winners Round 3", "completedAt": 1756671014, "winnerId": 21121102, "slots": [{"id": "93348575-0", "entrant": {"id": 21121102, "name": "carlop", "participants": [{"id": 19427347, "gamerTag": "carlop", "prefix": null, "user": {"location": {"city": "Johns Creek", "state": "GA", "country": "United States"}}, "player": {"id": 3431919, "gamerTag": "carlop", "prefix": null, "user": {"location": {"city": "Johns Creek", "state": "GA", "country": "United States"}}}}]}, "standing": {"placement": 1, "stats": {"score": {"value": 2}}}}, {"id": "93348575-1", "entrant": {"id": 21125670, "name": "Omar", "participants": [{"id": 19431429, "gamerTag": "Omar", "prefix": "", "user": {"location": {"city": null, "state": "GA", "country": "United States"}}, "player": {"id": 4300029, "gamerTag": "Omar", "prefix": "", "user": {"location": {"city": null, "state": "GA", "country": "United States"}}}}]}, "standing": {"placement": 2, "stats": {"score": {"value": 0}}}}], "games": [{"id": 32289140, "orderNum": 1, "winnerId": 21121102, "entrant1Score": null, "entrant2Score": 0, "stage": null, "selections": [{"id": 47591973, "selectionType": "CHARACTER", "selectionValue": 1286, "entrant": {"id": 21121102}, "character": {"id": 1286, "name": "Fox"}}, {"id": 47591974, "selectionType": "CHARACTER", "selectionValue": 1316, "entrant": {"id": 21125670}, "character": {"id": 1316, "name": "Palutena"}}]}, {"id": 32289141, "orderNum": 2, "winnerId": 21121102, "entrant1Score": null, "entrant2Score": 0, "stage": null, "selections": [{"id": 47591975, "selectionType": "CHARACTER", "selectionValue": 1286, "entrant": {"id": 21121102}, "character": {"id": 1286, "name": "Fox"}}, {"id": 47591976, "selectionType": "CHARACTER", "selectionValue": 1316, "entrant": {"id": 21125670}, "character": {"id": 1316, "name": "Palutena"}}]}]}, {"id": 93348576, "state": 3, "round": 3, "fullRoundText": "Winners Round 3", "completedAt": 1756670441, "winnerId": 21084803, "slots": [{"id": "93348576-0", "entrant": {"id": 21004884, "name": "KSU | colorful\u029a\u025e", "participants": [{"id": 19322534, "gamerTag": "colorful\u029a\u025e", "prefix": "KSU", "user": {"location": {"city": "Kennesaw", "state": "GA", "country": "United States"}}, "player": {"id": 1783074, "gamerTag": "colorful\u029a\u025e", "prefix": "KSU | RM", "user": {"location": {"city": "Kennesaw", "state": "GA", "country": "United States"}}}}]}, "standing": {"placement": 2, "stats": {"score": {"value": 1}}}}, {"id": "93348576-1", "entrant": {"id": 21084803, "name": "kahdeh", "participants": [{"id": 19394775, "gamerTag": "kahdeh", "prefix": null, "user": {"location": {"city": null, "state": "GA", "country": "United States"}}, "player": {"id": 3730125, "gamerTag": "kahdeh", "prefix": null, "user": {"location": {"city": null, "state": "GA", "country": "United States"}}}}]}, "standing": {"placement": 1, "stats": {"score": {"value": 2}}}}], "games": [{"id": 32288800, "orderNum": 1, "winnerId": 21004884, "entrant1Score": null, "entrant2Score": 0, "stage": null, "selections": [{"id": 47591432, "selectionType": "CHARACTER", "selectionValue": 1275, "entrant": {"id": 21004884}, "character": {"id": 1275, "name": "Cloud"}}, {"id": 47591433, "selectionType": "CHARACTER", "selectionValue": 1846, "entrant": {"id": 21084803}, "character": {"id": 1846, "name": "Kazuya"}}]}, {"id": 32288801, "orderNum": 2, "winnerId": 21084803, "entrant1Score": 0, "entrant2Score": null, "stage": null, "selections": [{"id": 47591434, "selectionType": "CHARACTER", "selectionValue": 1275, "entrant": {"id": 21004884}, "character": {"id": 1275, "name": "Cloud"}}, {"id": 47591435, "selectionType": "CHARACTER", "selectionValue": 1532, "entrant": {"id": 21084803}, "character": {"id": 1532, "name": "Terry"}}]}, {"id": 32288802, "orderNum": 3, "winnerId": 21084803, "entrant1Score": 0, "entrant2Score": null, "stage": null, "selections": [{"id": 47591436, "selectionType": "CHARACTER", "selectionValue": 1275, "entrant": {"id": 21004884}, "character": {"id": 1275, "name": "Cloud"}}, {"id": 47591468, "selectionType": "CHARACTER", "selectionValue": 1532, "entrant": {"id": 21084803}, "character": {"id": 1532, "name": "Terry"}}]}]}, {"id": 93348577, "state": 3, "round": 3, "fullRoundText": "Winners Round 3", "completedAt": 1756670580, "winnerId": 21047567, "slots": [{"id": "93348577-0", "entrant": {"id": 21047567, "name": "red dot", "participants": [{"id": 19361293, "gamerTag": "red dot", "prefix": "", "user": {"location": {"city": "Milton", "state": "GA", "country": "United States"}}, "player": {"id": 1812177, "gamerTag": "red dot", "prefix": "", "user": {"location": {"city": "Milton", "state": "GA", "country": "United States"}}}}]}, "standing": {"placement": 1, "stats": {"score": {"value": 2}}}}, {"id": "93348577-1", "entrant": {"id": 21040545, "name": "SaggyMilkJug", "participants": [{"id": 19355012, "gamerTag": "SaggyMilkJug", "prefix": "", "user": {"location": {"city": "Atlanta", "state": "GA", "country": "United States"}}, "player": {"id": 4651404, "gamerTag": "SaggyMilkJug", "prefix": "", "user": {"location": {"city": "Atlanta", "state": "GA", "country": "United States"}}}}]}, "standing": {"placement": 2, "stats": {"score": {"value": 1}}}}], "games": [{"id": 32288878, "orderNum": 1, "winnerId": 21040545, "entrant1Score": 0, "entrant2Score": null, "stage": null, "selections": [{"id": 47591560, "selectionType": "CHARACTER", "selectionValue": 1297, "entrant": {"id": 21040545}, "character": {"id": 1297, "name": "Little Mac"}}, {"id": 47591561, "selectionType": "CHARACTER", "selectionValue": 1410, "entrant": {"id": 21047567}, "character": {"id": 1410, "name": "Ken"}}]}, {"id": 32288879, "orderNum": 2, "winnerId": 21047567, "entrant1Score": null, "entrant2Score": 0, "stage": null, "selections": [{"id": 47591562, "selectionType": "CHARACTER", "selectionValue": 1297, "entrant": {"id": 21040545}, "character": {"id": 1297, "name": "Little Mac"}}, {"id": 47591563, "selectionType": "CHARACTER", "selectionValue": 1410, "entrant": {"id": 21047567}, "character": {"id": 1410, "name": "Ken"}}]}, {"id": 32288880, "orderNum": 3, "winnerId": 21047567, "entrant1Score": null, "entrant2Score": 0, "stage": null, "selections": [{"id": 47591564, "selectionType": "CHARACTER", "selectionValue": 1297, "entrant": {"id": 21040545}, "character": {"id": 1297, "name": "Little Mac"}}, {"id": 47591565, "selectionType": "CHARACTER", "selectionValue": 1410, "entrant": {"id": 21047567}, "character": {"id": 1410, "name": "Ken"}}]}]}, {"id": 93348578, "state": 3, "round": 3, "fullRoundText": "Winners Round 3", "completedAt": 1756670600, "winnerId": 21068917, "slots": [{"id": "93348578-0", "entrant": {"id": 21068917, "name": "Scouteka", "participants": [{"id": 19380430, "gamerTag": "Scouteka", "prefix": "", "user": {"location": {"city": "Marietta", "state": "GA", "country": "United States"}}, "player": {"id": 2055957, "gamerTag": "Scouteka", "prefix": "", "user": {"location": {"city": "Marietta", "state": "GA", "country": "United States"}}}}]}, "standing": {"placement": 1, "stats": {"score": {"value": 2}}}}, {"id": "93348578-1", "entrant": {"id": 21040401, "name": "RM | PrincePeach", "participants": [{"id": 19354876, "gamerTag": "PrincePeach", "prefix": "RM", "user": {"location": {"city": "Stone Mountain", "state": "GA", "country": "United States"}}, "player": {"id": 3003562, "gamerTag": "Prince Peach", "prefix": "RM", "user": {"location": {"city": "Stone Mountain", "state": "GA", "country": "United States"}}}}]}, "standing": {"placement": 2, "stats": {"score": {"value": 0}}}}], "games": [{"id": 32288889, "orderNum": 1, "winnerId": 21068917, "entrant1Score": null, "entrant2Score": 0, "stage": null, "selections": [{"id": 47591578, "selectionType": "CHARACTER", "selectionValue": 1317, "entrant": {"id": 21040401}, "character": {"id": 1317, "name": "Peach"}}, {"id": 47591579, "selectionType": "CHARACTER", "selectionValue": 1302, "entrant": {"id": 21068917}, "character": {"id": 1302, "name": "Mario"}}]}, {"id": 32288890, "orderNum": 2, "winnerId": 21068917, "entrant1Score": null, "entrant2Score": 0, "stage": null, "selections": [{"id": 47591580, "selectionType": "CHARACTER", "selectionValue": 1317, "entrant": {"id": 21040401}, "character": {"id": 1317, "name": "Peach"}}, {"id": 47591581, "selectionType": "CHARACTER", "selectionValue": 1302, "entrant": {"id": 21068917}, "character": {"id": 1302, "name": "Mario"}}]}]}]}}}