{"event": {"sets": {"pageInfo": {"totalPages": 2, "total": 23}, "nodes": [{"id": 92744047, "state": 3, "round": -4, "fullRoundText": "Losers Round 1", "completedAt": 1755377451, "winnerId": 20988633, "slots": [{"id": "92744047-0", "entrant": {"id": 20988633, "name": "Luff", "participants": [{"id": 19288626, "gamerTag": "Luff", "prefix": null, "user": {"location": {"city": "Savannah", "state": "GA", "country": "United States"}}, "player": {"id": 4102348, "gamerTag": "Luff", "prefix": "SQ1", "user": {"location": {"city": "Savannah", "state": "GA", "country": "United States"}}}}]}, "standing": {"placement": 1, "stats": {"score": {"value": 2}}}}, {"id": "92744047-1", "entrant": {"id": 20978859, "name": "LOL!", "participants": [{"id": 19281775, "gamerTag": "LOL!", "prefix": null, "user": {"location": {"city": "Byron", "state": "GA", "country": "United States"}}, "player": {"id": 730420, "gamerTag": "LOL!", "prefix": "HJE", "user": {"location": {"city": "Byron", "state": "GA", "country": "United States"}}}}]}, "standing": {"placement": 2, "stats": {"score": {"value": 0}}}}], "games": [{"id": 31948731, "orderNum": 1, "winnerId": 20988633, "entrant1Score": null, "entrant2Score": null, "stage": null, "selections": null}, {"id": 31948798, "orderNum": 2, "winnerId": 20988633, "entrant1Score": null, "entrant2Score": null, "stage": null, "selections": null}]}, {"id": 92744048, "state": 3, "round": -4, "fullRoundText": "Losers Round 1", "completedAt": 1755376570, "winnerId": 20987360, "slots": [{"id": "92744048-0", "entrant": {"id": 20987360, "name": "Chato", "participants": [{"id": 19306623, "gamerTag": "Chato", "prefix": null, "user": {"location": {"city": null, "state": null, "country": null}}, "player": {"id": 657291, "gamerTag": "Chato", "prefix": null, "user": {"location": {"city": null, "state": null, "country": null}}}}]}, "standing": {"placement": 1, "stats": {"score": {"value": 2}}}}, {"id": "92744048-1", "entrant": {"id": 20913585, "name": "TAC | ChovySalts", "participants": [{"id": 19242338, "gamerTag": "ChovySalts", "prefix": "TAC", "user": {"location": {"city": "Atlanta", "state": "GA", "country": "United States"}}, "player": {"id": 2693940, "gamerTag": "ChovySalts", "prefix": "TAC", "user": {"location": {"city": "Atlanta", "state": "GA", "country": "United States"}}}}]}, "standing": {"placement": 2, "stats": {"score": {"value": 0}}}}], "games": null}, {"id": 92744049, "state": 3, "round": -4, "fullRoundText": "Losers Round 1", "completedAt": 1755377851, "winnerId": 20947551, "slots": [{"id": "92744049-0", "entrant": {"id": 20947551, "name": "Foam Root", "participants": [{"id": 19272375, "gamerTag": "Foam Root", "prefix": "", "user": {"location": {"city": "Covington", "state": "GA", "country": "United States"}}, "player": {"id": 541222, "gamerTag": "Foam Root", "prefix": "", "user": {"location": {"city": "Covington", "state": "GA", "country": "United States"}}}}]}, "standing": {"placement": 1, "stats": {"score": {"value": 2}}}}, {"id": "92744049-1", "entrant": {"id": 20985538, "name": "visc", "participants": [{"id": 19305078, "gamerTag": "visc", "prefix": null, "user": {"location": {"city": "Macon", "state": "GA", "country": "United States"}}, "player": {"id": 3662491, "gamerTag": "visc", "prefix": null, "user": {"location": {"city": "Macon", "state": "GA", "country": "United States"}}}}]}, "standing": {"placement": 2, "stats": {"score": {"value": 0}}}}], "games": null}, {"id": 92744050, "state": 3, "round": -4, "fullRoundText": "Losers Round 1", "completedAt": 1755376690, "winnerId": 20958471, "slots": [{"id": "92744050-0", "entrant": {"id": 20958471, "name": "DuckiePlz", "participants": [{"id": 19281681, "gamerTag": "DuckiePlz", "prefix": null, "user": {"location": {"city": "Macon", "state": "GA", "country": "United States"}}, "player": {"id": 1236717, "gamerTag": "DuckiePlz", "prefix": null, "user": {"location": {"city": "Macon", "state": "GA", "country": "United States"}}}}]}, "standing": {"placement": 1, "stats": {"score": {"value": 2}}}}, {"id": "92744050-1", "entrant": {"id": 20961735, "name": "MGA | Hoodlum1012", "participants": [{"id": 19284478, "gamerTag": "Hoodlum1012", "prefix": "MGA", "user": {"location": {"city": "Macon", "state": "GA", "country": "United States"}}, "player": {"id": 855502, "gamerTag": "Hoodlum1012", "prefix": "MGA", "user": {"location": {"city": "Macon", "state": "GA", "country": "United States"}}}}]}, "standing": {"placement": 2, "stats": {"score": {"value": 0}}}}], "games": null}, {"id": 92744011, "state": 3, "round": 1, "fullRoundText": "Winners Round 1", "completedAt": 1755375427, "winnerId": 20958471, "slots": [{"id": "92744011-0", "entrant": {"id": 20958471, "name": "DuckiePlz", "participants": [{"id": 19281681, "gamerTag": "DuckiePlz", "prefix": null, "user": {"location": {"city": "Macon", "state": "GA", "country": "United States"}}, "player": {"id": 1236717, "gamerTag": "DuckiePlz", "prefix": null, "user": {"location": {"city": "Macon", "state": "GA", "country": "United States"}}}}]}, "standing": {"placement": 1, "stats": {"score": {"value": 2}}}}, {"id": "92744011-1", "entrant": {"id": 20978859, "name": "LOL!", "participants": [{"id": 19281775, "gamerTag": "LOL!", "prefix": null, "user": {"location": {"city": "Byron", "state": "GA", "country": "United States"}}, "player": {"id": 730420, "gamerTag": "LOL!", "prefix": "HJE", "user": {"location": {"city": "Byron", "state": "GA", "country": "United States"}}}}]}, "standing": {"placement": 2, "stats": {"score": {"value": 0}}}}], "games": null}, {"id": 92744013, "state": 3, "round": 1, "fullRoundText": "Winners Round 1", "completedAt": 1755375628, "winnerId": 20947551, "slots": [{"id": "92744013-0", "entrant": {"id": 20913585, "name": "TAC | ChovySalts", "participants": [{"id": 19242338, "gamerTag": "ChovySalts", "prefix": "TAC", "user": {"location": {"city": "Atlanta", "state": "GA", "country": "United States"}}, "player": {"id": 2693940, "gamerTag": "ChovySalts", "prefix": "TAC", "user": {"location": {"city": "Atlanta", "state": "GA", "country": "United States"}}}}]}, "standing": {"placement": 2, "stats": {"score": {"value": 1}}}}, {"id": "92744013-1", "entrant": {"id": 20947551, "name": "Foam Root", "participants": [{"id": 19272375, "gamerTag": "Foam Root", "prefix": "", "user": {"location": {"city": "Covington", "state": "GA", "country": "United States"}}, "player": {"id": 541222, "gamerTag": "Foam Root", "prefix": "", "user": {"location": {"city": "Covington", "state": "GA", "country": "United States"}}}}]}, "standing": {"placement": 1, "stats": {"score": {"value": 2}}}}], "games": null}, {"id": 92744015, "state": 3, "round": 1, "fullRoundText": "Winners Round 1", "completedAt": 1755375643, "winnerId": 20987360, "slots": [{"id": "92744015-0", "entrant": {"id": 20985538, "name": "visc", "participants": [{"id": 19305078, "gamerTag": "visc", "prefix": null, "user": {"location": {"city": "Macon", "state": "GA", "country": "United States"}}, "player": {"id": 3662491, "gamerTag": "visc", "prefix": null, "user": {"location": {"city": "Macon", "state": "GA", "country": "United States"}}}}]}, "standing": {"placement": 2, "stats": {"score": {"value": 1}}}}, {"id": "92744015-1", "entrant": {"id": 20987360, "name": "Chato", "participants": [{"id": 19306623, "gamerTag": "Chato", "prefix": null, "user": {"location": {"city": null, "state": null, "country": null}}, "player": {"id": 657291, "gamerTag": "Chato", "prefix": null, "user": {"location": {"city": null, "state": null, "country": null}}}}]}, "standing": {"placement": 1, "stats": {"score": {"value": 2}}}}], "games": null}, {"id": 92744017, "state": 3, "round": 1, "fullRoundText": "Winners Round 1", "completedAt": 1755376116, "winnerId": 20988633, "slots": [{"id": "92744017-0", "entrant": {"id": 20988633, "name": "Luff", "participants": [{"id": 19288626, "gamerTag": "Luff", "prefix": null, "user": {"location": {"city": "Savannah", "state": "GA", "country": "United States"}}, "player": {"id": 4102348, "gamerTag": "Luff", "prefix": "SQ1", "user": {"location": {"city": "Savannah", "state": "GA", "country": "United States"}}}}]}, "standing": {"placement": 1, "stats": {"score": {"value": null}}}}, {"id": "92744017-1", "entrant": {"id": 20961735, "name": "MGA | Hoodlum1012", "participants": [{"id": 19284478, "gamerTag": "Hoodlum1012", "prefix": "MGA", "user": {"location": {"city": "Macon", "state": "GA", "country": "United States"}}, "player": {"id": 855502, "gamerTag": "Hoodlum1012", "prefix": "MGA", "user": {"location": {"city": "Macon", "state": "GA", "country": "United States"}}}}]}, "standing": {"placement": 2, "stats": {"score": {"value": -1}}}}], "games": null}]}}}