{"phase": {"seeds": {"pageInfo": {"totalPages": 1, "total": 24}, "nodes": [{"id": 36148251, "seedNum": 3, "entrant": {"id": 20962730, "name": "Rel", "participants": [{"id": 19285341, "gamerTag": "Rel", "prefix": "", "user": {"location": {"city": "Atlanta", "state": null, "country": "United States"}}, "player": {"id": 2774889, "gamerTag": "Rel", "prefix": "", "user": {"location": {"city": "Atlanta", "state": null, "country": "United States"}}}}]}}, {"id": 36147466, "seedNum": 4, "entrant": {"id": 20962055, "name": "duetosideeffects", "participants": [{"id": 19284743, "gamerTag": "duetosideeffects", "prefix": "", "user": {"location": {"city": "Atlanta", "state": "GA", "country": "United States"}}, "player": {"id": 924041, "gamerTag": "duetosideeffects", "prefix": "", "user": {"location": {"city": "Atlanta", "state": "GA", "country": "United States"}}}}]}}, {"id": 36138219, "seedNum": 18, "entrant": {"id": 20955330, "name": "UHH | longlivnando", "participants": [{"id": 19278983, "gamerTag": "longlivnando", "prefix": "UHH", "user": {"location": {"city": "Warrenville", "state": "SC", "country": "United States"}}, "player": {"id": 3746165, "gamerTag": "longlivnando", "prefix": "UHH", "user": {"location": {"city": "Warrenville", "state": "SC", "country": "United States"}}}}]}}, {"id": 36143107, "seedNum": 7, "entrant": {"id": 20959000, "name": "InIt2WynneIt", "participants": [{"id": 19282155, "gamerTag": "InIt2WynneIt", "prefix": "", "user": {"location": {"city": "LAWRENCEVILLE", "state": "GA", "country": "United States"}}, "player": {"id": 260407, "gamerTag": "InIt2WynneIt", "prefix": "", "user": {"location": {"city": "LAWRENCEVILLE", "state": "GA", "country": "United States"}}}}]}}, {"id": 36145800, "seedNum": 2, "entrant": {"id": 20960827, "name": "Armanisaint", "participants": [{"id": 19283669, "gamerTag": "Armanisaint", "prefix": null, "user": {"location": {"city": "Roswell", "state": "GA", "country": "United States"}}, "player": {"id": 3943806, "gamerTag": "Armanisaint", "prefix": null, "user": {"location": {"city": "Roswell", "state": "GA", "country": "United States"}}}}]}}, {"id": 36148526, "seedNum": 9, "entrant": {"id": 20962902, "name": "GCH | slaughterwall", "participants": [{"id": 19285490, "gamerTag": "slaughterwall", "prefix": "GCH", "user": {"location": {"city": "Atlanta", "state": "GA", "country": "United States"}}, "player": {"id": 1104452, "gamerTag": "slaughterwall", "prefix": "GCH", "user": {"location": {"city": "Atlanta", "state": "GA", "country": "United States"}}}}]}}, {"id": 36142820, "seedNum": 5, "entrant": {"id": 20958726, "name": "Iso.Dgaf", "participants": [{"id": 19281912, "gamerTag": "Iso.Dgaf", "prefix": null, "user": {"location": {"city": "Acworth", "state": "GA", "country": "United States"}}, "player": {"id": 4285541, "gamerTag": "Iso.Dgaf", "prefix": null, "user": {"location": {"city": "Acworth", "state": "GA", "country": "United States"}}}}]}}, {"id": 36146961, "seedNum": 6, "entrant": {"id": 20961576, "name": "100% | juice", "participants": [{"id": 19284335, "gamerTag": "juice", "prefix": "100%", "user": {"location": {"city": "atlanta", "state": "GA", "country": "United States"}}, "player": {"id": 146905, "gamerTag": "juice", "prefix": "100%", "user": {"location": {"city": "atlanta", "state": "GA", "country": "United States"}}}}]}}, {"id": 36143143, "seedNum": 1, "entrant": {"id": 20959036, "name": "4o4 | KhalRhaego", "participants": [{"id": 19282185, "gamerTag": "KhalRhaego", "prefix": "4o4", "user": {"location": {"city": "Jonesboro", "state": "GA", "country": "United States"}}, "player": {"id": 4076327, "gamerTag": "KhalRhaego", "prefix": "BOLT", "user": {"location": {"city": "Jonesboro", "state": "GA", "country": "United States"}}}}]}}, {"id": 36147828, "seedNum": 8, "entrant": {"id": 20962318, "name": "TPC | TrayTrizzy", "participants": [{"id": 19284981, "gamerTag": "TrayTrizzy", "prefix": "TPC", "user": {"location": {"city": "NYC", "state": "NY", "country": "United States"}}, "player": {"id": 646096, "gamerTag": "TrayTrizzy", "prefix": "TPC", "user": {"location": {"city": "NYC", "state": "NY", "country": "United States"}}}}]}}, {"id": 36149159, "seedNum": 12, "entrant": {"id": 20963147, "name": "Greed", "participants": [{"id": 19285714, "gamerTag": "Greed", "prefix": "", "user": {"location": {"city": "Atlanta", "state": "GA", "country": "United States"}}, "player": {"id": 907329, "gamerTag": "Greed", "prefix": "", "user": {"location": {"city": "Atlanta", "state": "GA", "country": "United States"}}}}]}}, {"id": 36147492, "seedNum": 14, "entrant": {"id": 20962081, "name": "Jet Midder", "participants": [{"id": 19284765, "gamerTag": "Jet Midder", "prefix": null, "user": {"location": {"city": null, "state": null, "country": null}}, "player": {"id": 2363656, "gamerTag": "Jet Dayo", "prefix": null, "user": {"location": {"city": null, "state": null, "country": null}}}}]}}, {"id": 36147653, "seedNum": 11, "entrant": {"id": 20962175, "name": "HEAVENER", "participants": [{"id": 19284853, "gamerTag": "HEAVENER", "prefix": "", "user": {"location": {"city": "Marietta", "state": "GA", "country": "United States"}}, "player": {"id": 1829744, "gamerTag": "HEAVENER", "prefix": "", "user": {"location": {"city": "Marietta", "state": "GA", "country": "United States"}}}}]}}, {"id": 36147704, "seedNum": 16, "entrant": {"id": 20962218, "name": "Momokins", "participants": [{"id": 19284893, "gamerTag": "Momokins", "prefix": "", "user": {"location": {"city": "Atlanta", "state": "GA", "country": "United States"}}, "player": {"id": 612216, "gamerTag": "Momokins", "prefix": "", "user": {"location": {"city": "Atlanta", "state": "GA", "country": "United States"}}}}]}}, {"id": 36147469, "seedNum": 20, "entrant": {"id": 20962058, "name": "Hipster Lion", "participants": [{"id": 19284746, "gamerTag": "Hipster Lion", "prefix": "", "user": {"location": {"city": "College Park", "state": "GA", "country": "United States"}}, "player": {"id": 897409, "gamerTag": "Hipster Lion", "prefix": "", "user": {"location": {"city": "College Park", "state": "GA", "country": "United States"}}}}]}}, {"id": 36149535, "seedNum": 23, "entrant": {"id": 20963365, "name": "Buddy3k", "participants": [{"id": 19285886, "gamerTag": "Buddy3k", "prefix": "", "user": {"location": {"city": "Atlanta", "state": "GA", "country": "United States"}}, "player": {"id": 4443794, "gamerTag": "Buddy3k", "prefix": "", "user": {"location": {"city": "Atlanta", "state": "GA", "country": "United States"}}}}]}}, {"id": 36126663, "seedNum": 10, "entrant": {"id": 20947363, "name": "Myk_JUMP", "participants": [{"id": 19272206, "gamerTag": "Myk_JUMP", "prefix": "", "user": {"location": {"city": "Atlanta", "state": "GA", "country": "United States"}}, "player": {"id": 469002, "gamerTag": "Myk_JUMP", "prefix": "", "user": {"location": {"city": "Atlanta", "state": "GA", "country": "United States"}}}}]}}, {"id": 36145447, "seedNum": 13, "entrant": {"id": 20960616, "name": "Fiji | 100 Latinas", "participants": [{"id": 19283502, "gamerTag": "100 Latinas", "prefix": "Fiji", "user": {"location": {"city": "Lithonia", "state": "GA", "country": "United States"}}, "player": {"id": 1890427, "gamerTag": "100 Latinas", "prefix": "Fiji", "user": {"location": {"city": "Lithonia", "state": "GA", "country": "United States"}}}}]}}, {"id": 36143051, "seedNum": 15, "entrant": {"id": 20958946, "name": "EliBrad123", "participants": [{"id": 19282105, "gamerTag": "EliBrad123", "prefix": "", "user": {"location": {"city": null, "state": null, "country": "United States"}}, "player": {"id": 4922110, "gamerTag": "EliBrad123", "prefix": "", "user": {"location": {"city": null, "state": null, "country": "United States"}}}}]}}, {"id": 36147681, "seedNum": 17, "entrant": {"id": 20962194, "name": "Nox", "participants": [{"id": 19284872, "gamerTag": "Nox", "prefix": "", "user": null, "player": {"id": 4922491, "gamerTag": "Nox", "prefix": "", "user": null}}]}}, {"id": 36147683, "seedNum": 19, "entrant": {"id": 20962196, "name": "brandon", "participants": [{"id": 19284873, "gamerTag": "brandon", "prefix": "", "user": null, "player": {"id": 4922492, "gamerTag": "brandon", "prefix": "", "user": null}}]}}, {"id": 36148237, "seedNum": 21, "entrant": {"id": 20962717, "name": "StephDaddy", "participants": [{"id": 19285330, "gamerTag": "StephDaddy", "prefix": "", "user": null, "player": {"id": 4922527, "gamerTag": "StephDaddy", "prefix": "", "user": null}}]}}, {"id": 36149008, "seedNum": 22, "entrant": {"id": 20963103, "name": "MrFreshleys", "participants": [{"id": 19285671, "gamerTag": "MrFreshleys", "prefix": "", "user": {"location": {"city": null, "state": null, "country": "United States"}}, "player": {"id": 4922557, "gamerTag": "MrFreshleys", "prefix": "", "user": {"location": {"city": null, "state": null, "country": "United States"}}}}]}}, {"id": 36149703, "seedNum": 24, "entrant": {"id": 20963424, "name": "Soku", "participants": [{"id": 19285926, "gamerTag": "Soku", "prefix": null, "user": {"location": {"city": "Suwanee", "state": "GA", "country": "United States"}}, "player": {"id": 4314131, "gamerTag": "Soku", "prefix": null, "user": {"location": {"city": "Suwanee", "state": "GA", "country": "United States"}}}}]}}]}}}