{"event": {"sets": {"pageInfo": {"totalPages": 2, "total": 20}, "nodes": [{"id": 93048875, "state": 3, "round": -4, "fullRoundText": "Losers Round 1", "completedAt": 1756058748, "winnerId": 20944023, "slots": [{"id": "93048875-0", "entrant": {"id": 20944023, "name": "Gorduri Cap", "participants": [{"id": 19269365, "gamerTag": "Gorduri Cap", "prefix": "", "user": {"location": {"city": "", "state": "AK", "country": "United States"}}, "player": {"id": 2068683, "gamerTag": "Spauldo", "prefix": "", "user": {"location": {"city": "", "state": "AK", "country": "United States"}}}}]}, "standing": {"placement": 1, "stats": {"score": {"value": 2}}}}, {"id": "93048875-1", "entrant": {"id": 21050015, "name": "flappavelli", "participants": [{"id": 19363431, "gamerTag": "flappavelli", "prefix": "", "user": {"location": {"city": null, "state": "GA", "country": "United States"}}, "player": {"id": 4936761, "gamerTag": "flappavelli", "prefix": "", "user": {"location": {"city": null, "state": "GA", "country": "United States"}}}}]}, "standing": {"placement": 2, "stats": {"score": {"value": 1}}}}], "games": null}, {"id": 93048876, "state": 3, "round": -4, "fullRoundText": "Losers Round 1", "completedAt": 1756059921, "winnerId": 20941843, "slots": [{"id": "93048876-0", "entrant": {"id": 20941843, "name": "Yamcha157", "participants": [{"id": 19267400, "gamerTag": "Yamcha157", "prefix": null, "user": {"location": {"city": null, "state": null, "country": null}}, "player": {"id": 3440866, "gamerTag": "Yamcha157", "prefix": null, "user": {"location": {"city": null, "state": null, "country": null}}}}]}, "standing": {"placement": 1, "stats": {"score": {"value": 2}}}}, {"id": "93048876-1", "entrant": {"id": 21057109, "name": "Lads | JWow", "participants": [{"id": 19369685, "gamerTag": "JWow", "prefix": "Lads", "user": {"location": {"city": "AUGUSTA", "state": "GA", "country": "United States"}}, "player": {"id": 4937147, "gamerTag": "JWow", "prefix": null, "user": {"location": {"city": "AUGUSTA", "state": "GA", "country": "United States"}}}}]}, "standing": {"placement": 2, "stats": {"score": {"value": 0}}}}], "games": null}, {"id": 93048837, "state": 3, "round": 1, "fullRoundText": "Winners Round 1", "completedAt": 1756058736, "winnerId": 20941843, "slots": [{"id": "93048837-0", "entrant": {"id": 20998866, "name": "CV | NiNE", "participants": [{"id": 19316676, "gamerTag": "NiNE", "prefix": "CV", "user": {"location": {"city": "Augusta", "state": "GA", "country": "United States"}}, "player": {"id": 25337, "gamerTag": "NiNE", "prefix": "CV", "user": {"location": {"city": "Augusta", "state": "GA", "country": "United States"}}}}]}, "standing": {"placement": 2, "stats": {"score": {"value": 0}}}}, {"id": "93048837-1", "entrant": {"id": 20941843, "name": "Yamcha157", "participants": [{"id": 19267400, "gamerTag": "Yamcha157", "prefix": null, "user": {"location": {"city": null, "state": null, "country": null}}, "player": {"id": 3440866, "gamerTag": "Yamcha157", "prefix": null, "user": {"location": {"city": null, "state": null, "country": null}}}}]}, "standing": {"placement": 1, "stats": {"score": {"value": 2}}}}], "games": null}, {"id": 93048841, "state": 3, "round": 1, "fullRoundText": "Winners Round 1", "completedAt": 1756057413, "winnerId": 21050079, "slots": [{"id": "93048841-0", "entrant": {"id": 21050079, "name": "Greenbean", "participants": [{"id": 19363503, "gamerTag": "Greenbean", "prefix": null, "user": {"location": {"city": "Augusta", "state": "GA", "country": "United States"}}, "player": {"id": 2249747, "gamerTag": "Greenbean", "prefix": null, "user": {"location": {"city": "Augusta", "state": "GA", "country": "United States"}}}}]}, "standing": {"placement": 1, "stats": {"score": {"value": 2}}}}, {"id": "93048841-1", "entrant": {"id": 21050015, "name": "flappavelli", "participants": [{"id": 19363431, "gamerTag": "flappavelli", "prefix": "", "user": {"location": {"city": null, "state": "GA", "country": "United States"}}, "player": {"id": 4936761, "gamerTag": "flappavelli", "prefix": "", "user": {"location": {"city": null, "state": "GA", "country": "United States"}}}}]}, "standing": {"placement": 2, "stats": {"score": {"value": 1}}}}], "games": null}, {"id": 93048843, "state": 3, "round": 1, "fullRoundText": "Winners Round 1", "completedAt": 1756057161, "winnerId": 21055750, "slots": [{"id": "93048843-0", "entrant": {"id": 21055750, "name": "cheddarcola", "participants": [{"id": 19368588, "gamerTag": "cheddarcola", "prefix": null, "user": {"location": {"city": null, "state": null, "country": "United States"}}, "player": {"id": 4724537, "gamerTag": "cheddarcola", "prefix": null, "user": {"location": {"city": null, "state": null, "country": "United States"}}}}]}, "standing": {"placement": 1, "stats": {"score": {"value": 2}}}}, {"id": "93048843-1", "entrant": {"id": 21057109, "name": "Lads | JWow", "participants": [{"id": 19369685, "gamerTag": "JWow", "prefix": "Lads", "user": {"location": {"city": "AUGUSTA", "state": "GA", "country": "United States"}}, "player": {"id": 4937147, "gamerTag": "JWow", "prefix": null, "user": {"location": {"city": "AUGUSTA", "state": "GA", "country": "United States"}}}}]}, "standing": {"placement": 2, "stats": {"score": {"value": 0}}}}], "games": null}]}}}