{"event": {"sets": {"pageInfo": {"totalPages": 2, "total": 28}, "nodes": [{"id": 92883341, "state": 3, "round": -4, "fullRoundText": "Losers Round 2", "completedAt": 1755739516, "winnerId": 21022405, "slots": [{"id": "92883341-0", "entrant": {"id": 21022405, "name": "JFCA | Abstract", "participants": [{"id": 19338325, "gamerTag": "Abstract", "prefix": "JFCA", "user": {"location": {"city": "Atlanta", "state": "GA", "country": "United States"}}, "player": {"id": 36643, "gamerTag": "Abstract", "prefix": "JFCA", "user": {"location": {"city": "Atlanta", "state": "GA", "country": "United States"}}}}]}, "standing": {"placement": 1, "stats": {"score": {"value": 2}}}}, {"id": "92883341-1", "entrant": {"id": 21024413, "name": "Bronzjo", "participants": [{"id": 19340204, "gamerTag": "Bronzjo", "prefix": null, "user": {"location": {"city": "Lula", "state": "GA", "country": "United States"}}, "player": {"id": 4622459, "gamerTag": "Bronzjo", "prefix": null, "user": {"location": {"city": "Lula", "state": "GA", "country": "United States"}}}}]}, "standing": {"placement": 2, "stats": {"score": {"value": 0}}}}], "games": null}, {"id": 92883342, "state": 3, "round": -4, "fullRoundText": "Losers Round 2", "completedAt": 1755739007, "winnerId": 21019656, "slots": [{"id": "92883342-0", "entrant": {"id": 21019656, "name": "InIt2WynneIt", "participants": [{"id": 19335771, "gamerTag": "InIt2WynneIt", "prefix": "", "user": {"location": {"city": "LAWRENCEVILLE", "state": "GA", "country": "United States"}}, "player": {"id": 260407, "gamerTag": "InIt2WynneIt", "prefix": "", "user": {"location": {"city": "LAWRENCEVILLE", "state": "GA", "country": "United States"}}}}]}, "standing": {"placement": 1, "stats": {"score": {"value": 2}}}}, {"id": "92883342-1", "entrant": {"id": 21025006, "name": "Beasker", "participants": [{"id": 19340793, "gamerTag": "Beasker", "prefix": null, "user": {"location": {"city": "marietta", "state": "GA", "country": "United States"}}, "player": {"id": 4167883, "gamerTag": "Beasker", "prefix": null, "user": {"location": {"city": "marietta", "state": "GA", "country": "United States"}}}}]}, "standing": {"placement": 2, "stats": {"score": {"value": 0}}}}], "games": null}, {"id": 92883343, "state": 3, "round": -4, "fullRoundText": "Losers Round 2", "completedAt": 1755738651, "winnerId": 21025115, "slots": [{"id": "92883343-0", "entrant": {"id": 21025115, "name": "JJBREEZE", "participants": [{"id": 19340883, "gamerTag": "JJBREEZE", "prefix": "", "user": {"location": {"city": "Atlanta", "state": "GA", "country": "United States"}}, "player": {"id": 688460, "gamerTag": "JJBREEZE", "prefix": "", "user": {"location": {"city": "Atlanta", "state": "GA", "country": "United States"}}}}]}, "standing": {"placement": 1, "stats": {"score": {"value": 2}}}}, {"id": "92883343-1", "entrant": {"id": 21023424, "name": "SomeLikeItRedHot", "participants": [{"id": 19339295, "gamerTag": "SomeLikeItRedHot", "prefix": "", "user": {"location": {"city": "Atlanta", "state": "GA", "country": "United States"}}, "player": {"id": 223776, "gamerTag": "REMY", "prefix": "", "user": {"location": {"city": "Atlanta", "state": "GA", "country": "United States"}}}}]}, "standing": {"placement": 2, "stats": {"score": {"value": 0}}}}], "games": null}, {"id": 92883337, "state": 3, "round": -3, "fullRoundText": "Losers Round 1", "completedAt": 1755737829, "winnerId": 21024413, "slots": [{"id": "92883337-0", "entrant": {"id": 21022679, "name": "OTC-Sessions", "participants": [{"id": 19338580, "gamerTag": "OTC-Sessions", "prefix": "", "user": {"location": {"city": null, "state": null, "country": "United States"}}, "player": {"id": 4932289, "gamerTag": "OTC-Sessions", "prefix": "", "user": {"location": {"city": null, "state": null, "country": "United States"}}}}]}, "standing": {"placement": 2, "stats": {"score": {"value": 0}}}}, {"id": "92883337-1", "entrant": {"id": 21024413, "name": "Bronzjo", "participants": [{"id": 19340204, "gamerTag": "Bronzjo", "prefix": null, "user": {"location": {"city": "Lula", "state": "GA", "country": "United States"}}, "player": {"id": 4622459, "gamerTag": "Bronzjo", "prefix": null, "user": {"location": {"city": "Lula", "state": "GA", "country": "United States"}}}}]}, "standing": {"placement": 1, "stats": {"score": {"value": 2}}}}], "games": null}, {"id": 92883338, "state": 3, "round": -3, "fullRoundText": "Losers Round 1", "completedAt": 1755737912, "winnerId": 21025006, "slots": [{"id": "92883338-0", "entrant": {"id": 21025006, "name": "Beasker", "participants": [{"id": 19340793, "gamerTag": "Beasker", "prefix": null, "user": {"location": {"city": "marietta", "state": "GA", "country": "United States"}}, "player": {"id": 4167883, "gamerTag": "Beasker", "prefix": null, "user": {"location": {"city": "marietta", "state": "GA", "country": "United States"}}}}]}, "standing": {"placement": 1, "stats": {"score": {"value": 2}}}}, {"id": "92883338-1", "entrant": {"id": 21024792, "name": "YoungTaco", "participants": [{"id": 19340591, "gamerTag": "YoungTaco", "prefix": "", "user": {"location": {"city": null, "state": "GA", "country": "United States"}}, "player": {"id": 1239045, "gamerTag": "YoungTaco", "prefix": "", "user": {"location": {"city": null, "state": "GA", "country": "United States"}}}}]}, "standing": {"placement": 2, "stats": {"score": {"value": 0}}}}], "games": null}, {"id": 92883339, "state": 3, "round": -3, "fullRoundText": "Losers Round 1", "completedAt": 1755738533, "winnerId": 21023424, "slots": [{"id": "92883339-0", "entrant": {"id": 21023424, "name": "SomeLikeItRedHot", "participants": [{"id": 19339295, "gamerTag": "SomeLikeItRedHot", "prefix": "", "user": {"location": {"city": "Atlanta", "state": "GA", "country": "United States"}}, "player": {"id": 223776, "gamerTag": "REMY", "prefix": "", "user": {"location": {"city": "Atlanta", "state": "GA", "country": "United States"}}}}]}, "standing": {"placement": 1, "stats": {"score": {"value": 2}}}}, {"id": "92883339-1", "entrant": {"id": 21023342, "name": "Macho_Franchise", "participants": [{"id": 19339216, "gamerTag": "Macho_Franchise", "prefix": null, "user": {"location": {"city": "Marietta", "state": "GA", "country": "United States"}}, "player": {"id": 874463, "gamerTag": "Macho_Franchise", "prefix": null, "user": {"location": {"city": "Marietta", "state": "GA", "country": "United States"}}}}]}, "standing": {"placement": 2, "stats": {"score": {"value": 0}}}}], "games": null}, {"id": 92883304, "state": 3, "round": 1, "fullRoundText": "Winners Round 1", "completedAt": 1755737004, "winnerId": 21021478, "slots": [{"id": "92883304-0", "entrant": {"id": 21024849, "name": "Myk_JUMP", "participants": [{"id": 19340652, "gamerTag": "Myk_JUMP", "prefix": "", "user": {"location": {"city": "Atlanta", "state": "GA", "country": "United States"}}, "player": {"id": 469002, "gamerTag": "Myk_JUMP", "prefix": "", "user": {"location": {"city": "Atlanta", "state": "GA", "country": "United States"}}}}]}, "standing": {"placement": 2, "stats": {"score": {"value": 0}}}}, {"id": "92883304-1", "entrant": {"id": 21021478, "name": "CB | crispybiscuit", "participants": [{"id": 19337443, "gamerTag": "crispybiscuit", "prefix": "CB", "user": {"location": {"city": "Atlanta", "state": null, "country": "Georgia"}}, "player": {"id": 1920466, "gamerTag": "crispybiscuit", "prefix": "CB", "user": {"location": {"city": "Atlanta", "state": null, "country": "Georgia"}}}}]}, "standing": {"placement": 1, "stats": {"score": {"value": 2}}}}], "games": null}, {"id": 92883305, "state": 3, "round": 1, "fullRoundText": "Winners Round 1", "completedAt": 1755737068, "winnerId": 21022562, "slots": [{"id": "92883305-0", "entrant": {"id": 21022562, "name": "4o4 | KhalRhaego", "participants": [{"id": 19338464, "gamerTag": "KhalRhaego", "prefix": "4o4", "user": {"location": {"city": "Jonesboro", "state": "GA", "country": "United States"}}, "player": {"id": 4076327, "gamerTag": "KhalRhaego", "prefix": "BOLT", "user": {"location": {"city": "Jonesboro", "state": "GA", "country": "United States"}}}}]}, "standing": {"placement": 1, "stats": {"score": {"value": 2}}}}, {"id": "92883305-1", "entrant": {"id": 21022679, "name": "OTC-Sessions", "participants": [{"id": 19338580, "gamerTag": "OTC-Sessions", "prefix": "", "user": {"location": {"city": null, "state": null, "country": "United States"}}, "player": {"id": 4932289, "gamerTag": "OTC-Sessions", "prefix": "", "user": {"location": {"city": null, "state": null, "country": "United States"}}}}]}, "standing": {"placement": 2, "stats": {"score": {"value": 0}}}}], "games": null}, {"id": 92883306, "state": 3, "round": 1, "fullRoundText": "Winners Round 1", "completedAt": 1755736930, "winnerId": 21019656, "slots": [{"id": "92883306-0", "entrant": {"id": 21019656, "name": "InIt2WynneIt", "participants": [{"id": 19335771, "gamerTag": "InIt2WynneIt", "prefix": "", "user": {"location": {"city": "LAWRENCEVILLE", "state": "GA", "country": "United States"}}, "player": {"id": 260407, "gamerTag": "InIt2WynneIt", "prefix": "", "user": {"location": {"city": "LAWRENCEVILLE", "state": "GA", "country": "United States"}}}}]}, "standing": {"placement": 1, "stats": {"score": {"value": 2}}}}, {"id": "92883306-1", "entrant": {"id": 21024413, "name": "Bronzjo", "participants": [{"id": 19340204, "gamerTag": "Bronzjo", "prefix": null, "user": {"location": {"city": "Lula", "state": "GA", "country": "United States"}}, "player": {"id": 4622459, "gamerTag": "Bronzjo", "prefix": null, "user": {"location": {"city": "Lula", "state": "GA", "country": "United States"}}}}]}, "standing": {"placement": 2, "stats": {"score": {"value": 0}}}}], "games": null}, {"id": 92883307, "state": 3, "round": 1, "fullRoundText": "Winners Round 1", "completedAt": 1755737339, "winnerId": 21025724, "slots": [{"id": "92883307-0", "entrant": {"id": 21025724, "name": "Genghis D0n", "participants": [{"id": 19341430, "gamerTag": "Genghis D0n", "prefix": "", "user": {"location": {"city": "Atlanta", "state": "GA", "country": "United States"}}, "player": {"id": 724224, "gamerTag": "Genghis D0n", "prefix": "", "user": {"location": {"city": "Atlanta", "state": "GA", "country": "United States"}}}}]}, "standing": {"placement": 1, "stats": {"score": {"value": 2}}}}, {"id": "92883307-1", "entrant": {"id": 21025006, "name": "Beasker", "participants": [{"id": 19340793, "gamerTag": "Beasker", "prefix": null, "user": {"location": {"city": "marietta", "state": "GA", "country": "United States"}}, "player": {"id": 4167883, "gamerTag": "Beasker", "prefix": null, "user": {"location": {"city": "marietta", "state": "GA", "country": "United States"}}}}]}, "standing": {"placement": 2, "stats": {"score": {"value": 0}}}}], "games": null}, {"id": 92883308, "state": 3, "round": 1, "fullRoundText": "Winners Round 1", "completedAt": 1755737130, "winnerId": 21022405, "slots": [{"id": "92883308-0", "entrant": {"id": 21022405, "name": "JFCA | Abstract", "participants": [{"id": 19338325, "gamerTag": "Abstract", "prefix": "JFCA", "user": {"location": {"city": "Atlanta", "state": "GA", "country": "United States"}}, "player": {"id": 36643, "gamerTag": "Abstract", "prefix": "JFCA", "user": {"location": {"city": "Atlanta", "state": "GA", "country": "United States"}}}}]}, "standing": {"placement": 1, "stats": {"score": {"value": 2}}}}, {"id": "92883308-1", "entrant": {"id": 21024792, "name": "YoungTaco", "participants": [{"id": 19340591, "gamerTag": "YoungTaco", "prefix": "", "user": {"location": {"city": null, "state": "GA", "country": "United States"}}, "player": {"id": 1239045, "gamerTag": "YoungTaco", "prefix": "", "user": {"location": {"city": null, "state": "GA", "country": "United States"}}}}]}, "standing": {"placement": 2, "stats": {"score": {"value": 0}}}}], "games": null}, {"id": 92883309, "state": 3, "round": 1, "fullRoundText": "Winners Round 1", "completedAt": 1755736988, "winnerId": 21024697, "slots": [{"id": "92883309-0", "entrant": {"id": 21024697, "name": "Armanisaint", "participants": [{"id": 19340499, "gamerTag": "Armanisaint", "prefix": null, "user": {"location": {"city": "Roswell", "state": "GA", "country": "United States"}}, "player": {"id": 3943806, "gamerTag": "Armanisaint", "prefix": null, "user": {"location": {"city": "Roswell", "state": "GA", "country": "United States"}}}}]}, "standing": {"placement": 1, "stats": {"score": {"value": 2}}}}, {"id": "92883309-1", "entrant": {"id": 21023424, "name": "SomeLikeItRedHot", "participants": [{"id": 19339295, "gamerTag": "SomeLikeItRedHot", "prefix": "", "user": {"location": {"city": "Atlanta", "state": "GA", "country": "United States"}}, "player": {"id": 223776, "gamerTag": "REMY", "prefix": "", "user": {"location": {"city": "Atlanta", "state": "GA", "country": "United States"}}}}]}, "standing": {"placement": 2, "stats": {"score": {"value": 0}}}}], "games": null}, {"id": 92883310, "state": 3, "round": 1, "fullRoundText": "Winners Round 1", "completedAt": 1755737748, "winnerId": 21025568, "slots": [{"id": "92883310-0", "entrant": {"id": 21025568, "name": "Iso.Dgaf", "participants": [{"id": 19341287, "gamerTag": "Iso.Dgaf", "prefix": null, "user": {"location": {"city": "Acworth", "state": "GA", "country": "United States"}}, "player": {"id": 4285541, "gamerTag": "Iso.Dgaf", "prefix": null, "user": {"location": {"city": "Acworth", "state": "GA", "country": "United States"}}}}]}, "standing": {"placement": 1, "stats": {"score": {"value": 2}}}}, {"id": "92883310-1", "entrant": {"id": 21023342, "name": "Macho_Franchise", "participants": [{"id": 19339216, "gamerTag": "Macho_Franchise", "prefix": null, "user": {"location": {"city": "Marietta", "state": "GA", "country": "United States"}}, "player": {"id": 874463, "gamerTag": "Macho_Franchise", "prefix": null, "user": {"location": {"city": "Marietta", "state": "GA", "country": "United States"}}}}]}, "standing": {"placement": 2, "stats": {"score": {"value": 0}}}}], "games": null}]}}}