{"phase": {"seeds": {"pageInfo": {"totalPages": 1, "total": 16}, "nodes": [{"id": 36038338, "seedNum": 1, "entrant": {"id": 20890928, "name": "4o4 | MessatsuIM", "participants": [{"id": 19222271, "gamerTag": "MessatsuIM", "prefix": "4o4", "user": {"location": {"city": "Kennesaw", "state": "GA", "country": "United States"}}, "player": {"id": 3564235, "gamerTag": "MessatsuIM", "prefix": "4o4", "user": {"location": {"city": "Kennesaw", "state": "GA", "country": "United States"}}}}]}}, {"id": 36037765, "seedNum": 2, "entrant": {"id": 20890558, "name": "4o4 | Musa", "participants": [{"id": 19221929, "gamerTag": "Musa", "prefix": "4o4", "user": {"location": {"city": null, "state": null, "country": "United States"}}, "player": {"id": 131537, "gamerTag": "Musa", "prefix": "4o4", "user": {"location": {"city": null, "state": null, "country": "United States"}}}}]}}, {"id": 36038510, "seedNum": 4, "entrant": {"id": 20891058, "name": "Burboovas", "participants": [{"id": 19222386, "gamerTag": "Burboovas", "prefix": null, "user": {"location": {"city": null, "state": null, "country": null}}, "player": {"id": 3927191, "gamerTag": "Burboovas", "prefix": null, "user": {"location": {"city": null, "state": null, "country": null}}}}]}}, {"id": 36038229, "seedNum": 5, "entrant": {"id": 20890829, "name": "Noodle", "participants": [{"id": 19222184, "gamerTag": "Noodle", "prefix": null, "user": {"location": {"city": "McDonough", "state": "GA", "country": "United States"}}, "player": {"id": 3029288, "gamerTag": "Noodle", "prefix": "", "user": {"location": {"city": "McDonough", "state": "GA", "country": "United States"}}}}]}}, {"id": 36023421, "seedNum": 3, "entrant": {"id": 20879401, "name": "Buddylikefriend", "participants": [{"id": 19212206, "gamerTag": "Buddylikefriend", "prefix": null, "user": {"location": {"city": "Atlanta", "state": "GA", "country": "United States"}}, "player": {"id": 785557, "gamerTag": "Buddylikefriend", "prefix": null, "user": {"location": {"city": "Atlanta", "state": "GA", "country": "United States"}}}}]}}, {"id": 36034206, "seedNum": 6, "entrant": {"id": 20887685, "name": "4o4 | Yugo", "participants": [{"id": 19219509, "gamerTag": "Yugo", "prefix": "4o4", "user": {"location": {"city": "Sandy springs", "state": "GA", "country": "United States"}}, "player": {"id": 338020, "gamerTag": "Yugo", "prefix": "4o4", "user": {"location": {"city": "Sandy springs", "state": "GA", "country": "United States"}}}}]}}, {"id": 36039053, "seedNum": 11, "entrant": {"id": 20891471, "name": "Air | Airplanes", "participants": [{"id": 19222749, "gamerTag": "Airplanes", "prefix": "Air", "user": {"location": {"city": "Dacula", "state": "GA", "country": "United States"}}, "player": {"id": 3872614, "gamerTag": "Airplanes", "prefix": "Air", "user": {"location": {"city": "Dacula", "state": "GA", "country": "United States"}}}}]}}, {"id": 36039343, "seedNum": 13, "entrant": {"id": 20891661, "name": "LukeWarm", "participants": [{"id": 19222913, "gamerTag": "LukeWarm", "prefix": "", "user": {"location": {"city": "Alpharetta", "state": "GA", "country": "United States"}}, "player": {"id": 1348903, "gamerTag": "LukeWarm", "prefix": "", "user": {"location": {"city": "Alpharetta", "state": "GA", "country": "United States"}}}}]}}, {"id": 36039263, "seedNum": 7, "entrant": {"id": 20891583, "name": "Enn Vee", "participants": [{"id": 19222838, "gamerTag": "Enn Vee", "prefix": null, "user": {"location": {"city": "111 Glenridge Point Parkway", "state": "GA", "country": "United States"}}, "player": {"id": 4725571, "gamerTag": "Enn Vee", "prefix": null, "user": {"location": {"city": "111 Glenridge Point Parkway", "state": "GA", "country": "United States"}}}}]}}, {"id": 36038536, "seedNum": 8, "entrant": {"id": 20891083, "name": "MBossProductions", "participants": [{"id": 19222407, "gamerTag": "MBossProductions", "prefix": "", "user": {"location": {"city": "Norcross", "state": "GA", "country": "United States"}}, "player": {"id": 1997490, "gamerTag": "MBossProductions", "prefix": "", "user": {"location": {"city": "Norcross", "state": "GA", "country": "United States"}}}}]}}, {"id": 36037235, "seedNum": 15, "entrant": {"id": 20890101, "name": "Nightjar Ninja", "participants": [{"id": 19221512, "gamerTag": "Nightjar Ninja", "prefix": null, "user": {"location": {"city": "Atlanta", "state": "GA", "country": "United States"}}, "player": {"id": 3694663, "gamerTag": "Nightjar Ninja", "prefix": null, "user": {"location": {"city": "Atlanta", "state": "GA", "country": "United States"}}}}]}}, {"id": 36039425, "seedNum": 16, "entrant": {"id": 20891736, "name": "Leon Nights", "participants": [{"id": 19222981, "gamerTag": "Leon Nights", "prefix": null, "user": {"location": {"city": "Atlanta", "state": "GA", "country": "United States"}}, "player": {"id": 4752335, "gamerTag": "Leon Nights", "prefix": null, "user": {"location": {"city": "Atlanta", "state": "GA", "country": "United States"}}}}]}}, {"id": 36037888, "seedNum": 9, "entrant": {"id": 20890622, "name": "Archway", "participants": [{"id": 19221981, "gamerTag": "Archway", "prefix": "", "user": {"location": {"city": "Sandy Springs", "state": "GA", "country": "United States"}}, "player": {"id": 1435251, "gamerTag": "Archway", "prefix": "", "user": {"location": {"city": "Sandy Springs", "state": "GA", "country": "United States"}}}}]}}, {"id": 36036574, "seedNum": 10, "entrant": {"id": 20889729, "name": "4o4 | CoNavySeal", "participants": [{"id": 19221176, "gamerTag": "CoNavySeal", "prefix": "4o4", "user": {"location": {"city": "Alpharetta", "state": "GA", "country": "United States"}}, "player": {"id": 3818891, "gamerTag": "CoNavySeal", "prefix": "4o4", "user": {"location": {"city": "Alpharetta", "state": "GA", "country": "United States"}}}}]}}, {"id": 36039027, "seedNum": 12, "entrant": {"id": 20891440, "name": "Xangief", "participants": [{"id": 19222732, "gamerTag": "Xangief", "prefix": null, "user": {"location": {"city": "Atlanta", "state": "GA", "country": "United States"}}, "player": {"id": 135082, "gamerTag": "Xangief", "prefix": null, "user": {"location": {"city": "Atlanta", "state": "GA", "country": "United States"}}}}]}}, {"id": 36036012, "seedNum": 14, "entrant": {"id": 20889253, "name": "Pazure", "participants": [{"id": 19220773, "gamerTag": "Pazure", "prefix": null, "user": {"location": {"city": null, "state": null, "country": "United States"}}, "player": {"id": 72218, "gamerTag": "Pazure", "prefix": null, "user": {"location": {"city": null, "state": null, "country": "United States"}}}}]}}]}}}