{"event": {"sets": {"pageInfo": {"totalPages": 4, "total": 57}, "nodes": [{"id": 94802767, "state": 3, "round": -6, "fullRoundText": "Losers Round 4", "completedAt": 1759973778, "winnerId": 21499693, "slots": [{"id": "94802767-0", "entrant": {"id": 21499693, "name": "GCH | slaughterwall", "participants": [{"id": 19757247, "gamerTag": "slaughterwall", "prefix": "GCH", "user": {"location": {"city": "Atlanta", "state": "GA", "country": "United States"}}, "player": {"id": 1104452, "gamerTag": "slaughterwall", "prefix": "GCH", "user": {"location": {"city": "Atlanta", "state": "GA", "country": "United States"}}}}]}, "standing": {"placement": 1, "stats": {"score": {"value": 2}}}}, {"id": "94802767-1", "entrant": {"id": 21500020, "name": "TOG | HiroATL", "participants": [{"id": 19757537, "gamerTag": "HiroATL", "prefix": "TOG", "user": {"location": {"city": "Decatur", "state": "GA", "country": "United States"}}, "player": {"id": 1384726, "gamerTag": "HiroATL", "prefix": "TOG", "user": {"location": {"city": "Decatur", "state": "GA", "country": "United States"}}}}]}, "standing": {"placement": 2, "stats": {"score": {"value": 1}}}}], "games": null}, {"id": 94802768, "state": 3, "round": -6, "fullRoundText": "Losers Round 4", "completedAt": 1759973887, "winnerId": 21500894, "slots": [{"id": "94802768-0", "entrant": {"id": 21500388, "name": "Armanisaint", "participants": [{"id": 19757903, "gamerTag": "Armanisaint", "prefix": null, "user": {"location": {"city": "Roswell", "state": "GA", "country": "United States"}}, "player": {"id": 3943806, "gamerTag": "Armanisaint", "prefix": null, "user": {"location": {"city": "Roswell", "state": "GA", "country": "United States"}}}}]}, "standing": {"placement": 2, "stats": {"score": {"value": 1}}}}, {"id": "94802768-1", "entrant": {"id": 21500894, "name": "Jet Dayo", "participants": [{"id": 19758357, "gamerTag": "Jet Dayo", "prefix": null, "user": {"location": {"city": null, "state": null, "country": null}}, "player": {"id": 2363656, "gamerTag": "Jet Dayo", "prefix": null, "user": {"location": {"city": null, "state": null, "country": null}}}}]}, "standing": {"placement": 1, "stats": {"score": {"value": 2}}}}], "games": null}, {"id": 94802769, "state": 3, "round": -6, "fullRoundText": "Losers Round 4", "completedAt": 1759973073, "winnerId": 21492059, "slots": [{"id": "94802769-0", "entrant": {"id": 21492059, "name": "BOLT | KhalRhaego", "participants": [{"id": 19750558, "gamerTag": "KhalRhaego", "prefix": "BOLT", "user": {"location": {"city": "Jonesboro", "state": "GA", "country": "United States"}}, "player": {"id": 4076327, "gamerTag": "KhalRhaego", "prefix": "BOLT", "user": {"location": {"city": "Jonesboro", "state": "GA", "country": "United States"}}}}]}, "standing": {"placement": 1, "stats": {"score": {"value": 2}}}}, {"id": "94802769-1", "entrant": {"id": 21499506, "name": "100% | juice", "participants": [{"id": 19757078, "gamerTag": "juice", "prefix": "100%", "user": {"location": {"city": "atlanta", "state": "GA", "country": "United States"}}, "player": {"id": 146905, "gamerTag": "juice", "prefix": "100%", "user": {"location": {"city": "atlanta", "state": "GA", "country": "United States"}}}}]}, "standing": {"placement": 2, "stats": {"score": {"value": 0}}}}], "games": null}, {"id": 94802770, "state": 3, "round": -6, "fullRoundText": "Losers Round 4", "completedAt": 1759973126, "winnerId": 21471142, "slots": [{"id": "94802770-0", "entrant": {"id": 21471142, "name": "InIt2WynneIt", "participants": [{"id": 19731738, "gamerTag": "InIt2WynneIt", "prefix": "", "user": {"location": {"city": "LAWRENCEVILLE", "state": "GA", "country": "United States"}}, "player": {"id": 260407, "gamerTag": "InIt2WynneIt", "prefix": "", "user": {"location": {"city": "LAWRENCEVILLE", "state": "GA", "country": "United States"}}}}]}, "standing": {"placement": 1, "stats": {"score": {"value": 2}}}}, {"id": "94802770-1", "entrant": {"id": 21501562, "name": "StrataJay", "participants": [{"id": 19758967, "gamerTag": "StrataJay", "prefix": "", "user": {"location": {"city": "Grayson", "state": "GA", "country": "United States"}}, "player": {"id": 1112189, "gamerTag": "StrataJay", "prefix": "", "user": {"location": {"city": "Grayson", "state": "GA", "country": "United States"}}}}]}, "standing": {"placement": 2, "stats": {"score": {"value": 0}}}}], "games": null}, {"id": 94802763, "state": 3, "round": -5, "fullRoundText": "Losers Round 3", "completedAt": 1759972488, "winnerId": 21500020, "slots": [{"id": "94802763-0", "entrant": {"id": 21500020, "name": "TOG | HiroATL", "participants": [{"id": 19757537, "gamerTag": "HiroATL", "prefix": "TOG", "user": {"location": {"city": "Decatur", "state": "GA", "country": "United States"}}, "player": {"id": 1384726, "gamerTag": "HiroATL", "prefix": "TOG", "user": {"location": {"city": "Decatur", "state": "GA", "country": "United States"}}}}]}, "standing": {"placement": 1, "stats": {"score": {"value": 2}}}}, {"id": "94802763-1", "entrant": {"id": 21493580, "name": "Momokins", "participants": [{"id": 19751759, "gamerTag": "Momokins", "prefix": "", "user": {"location": {"city": "Atlanta", "state": "GA", "country": "United States"}}, "player": {"id": 612216, "gamerTag": "Momokins", "prefix": "", "user": {"location": {"city": "Atlanta", "state": "GA", "country": "United States"}}}}]}, "standing": {"placement": 2, "stats": {"score": {"value": 1}}}}], "games": null}, {"id": 94802764, "state": 3, "round": -5, "fullRoundText": "Losers Round 3", "completedAt": 1759973642, "winnerId": 21500894, "slots": [{"id": "94802764-0", "entrant": {"id": 21500206, "name": "Myk_JUMP", "participants": [{"id": 19757714, "gamerTag": "Myk_JUMP", "prefix": "", "user": {"location": {"city": "Atlanta", "state": "GA", "country": "United States"}}, "player": {"id": 469002, "gamerTag": "Myk_JUMP", "prefix": "", "user": {"location": {"city": "Atlanta", "state": "GA", "country": "United States"}}}}]}, "standing": {"placement": 2, "stats": {"score": {"value": 0}}}}, {"id": "94802764-1", "entrant": {"id": 21500894, "name": "Jet Dayo", "participants": [{"id": 19758357, "gamerTag": "Jet Dayo", "prefix": null, "user": {"location": {"city": null, "state": null, "country": null}}, "player": {"id": 2363656, "gamerTag": "Jet Dayo", "prefix": null, "user": {"location": {"city": null, "state": null, "country": null}}}}]}, "standing": {"placement": 1, "stats": {"score": {"value": 2}}}}], "games": null}, {"id": 94802765, "state": 3, "round": -5, "fullRoundText": "Losers Round 3", "completedAt": 1759972201, "winnerId": 21499506, "slots": [{"id": "94802765-0", "entrant": {"id": 21499506, "name": "100% | juice", "participants": [{"id": 19757078, "gamerTag": "juice", "prefix": "100%", "user": {"location": {"city": "atlanta", "state": "GA", "country": "United States"}}, "player": {"id": 146905, "gamerTag": "juice", "prefix": "100%", "user": {"location": {"city": "atlanta", "state": "GA", "country": "United States"}}}}]}, "standing": {"placement": 1, "stats": {"score": {"value": 2}}}}, {"id": "94802765-1", "entrant": {"id": 21500856, "name": "Aneubys", "participants": [{"id": 19758323, "gamerTag": "Aneubys", "prefix": "", "user": {"location": {"city": "Smyrna", "state": "GA", "country": "United States"}}, "player": {"id": 3901259, "gamerTag": "Aneubys", "prefix": "", "user": {"location": {"city": "Smyrna", "state": "GA", "country": "United States"}}}}]}, "standing": {"placement": 2, "stats": {"score": {"value": 0}}}}], "games": null}, {"id": 94802766, "state": 3, "round": -5, "fullRoundText": "Losers Round 3", "completedAt": 1759972462, "winnerId": 21501562, "slots": [{"id": "94802766-0", "entrant": {"id": 21498524, "name": "Iso.Dgaf", "participants": [{"id": 19756196, "gamerTag": "Iso.Dgaf", "prefix": null, "user": {"location": {"city": "Acworth", "state": "GA", "country": "United States"}}, "player": {"id": 4285541, "gamerTag": "Iso.Dgaf", "prefix": null, "user": {"location": {"city": "Acworth", "state": "GA", "country": "United States"}}}}]}, "standing": {"placement": 2, "stats": {"score": {"value": 1}}}}, {"id": "94802766-1", "entrant": {"id": 21501562, "name": "StrataJay", "participants": [{"id": 19758967, "gamerTag": "StrataJay", "prefix": "", "user": {"location": {"city": "Grayson", "state": "GA", "country": "United States"}}, "player": {"id": 1112189, "gamerTag": "StrataJay", "prefix": "", "user": {"location": {"city": "Grayson", "state": "GA", "country": "United States"}}}}]}, "standing": {"placement": 1, "stats": {"score": {"value": 2}}}}], "games": null}, {"id": 94802698, "state": 3, "round": 2, "fullRoundText": "Winners Round 2", "completedAt": 1759970730, "winnerId": 21501477, "slots": [{"id": "94802698-0", "entrant": {"id": 21501477, "name": "JJBREEZE", "participants": [{"id": 19758883, "gamerTag": "JJBREEZE", "prefix": "", "user": {"location": {"city": "Atlanta", "state": "GA", "country": "United States"}}, "player": {"id": 688460, "gamerTag": "JJBREEZE", "prefix": "", "user": {"location": {"city": "Atlanta", "state": "GA", "country": "United States"}}}}]}, "standing": {"placement": 1, "stats": {"score": {"value": 2}}}}, {"id": "94802698-1", "entrant": {"id": 21501562, "name": "StrataJay", "participants": [{"id": 19758967, "gamerTag": "StrataJay", "prefix": "", "user": {"location": {"city": "Grayson", "state": "GA", "country": "United States"}}, "player": {"id": 1112189, "gamerTag": "StrataJay", "prefix": "", "user": {"location": {"city": "Grayson", "state": "GA", "country": "United States"}}}}]}, "standing": {"placement": 2, "stats": {"score": {"value": 0}}}}], "games": null}, {"id": 94802699, "state": 3, "round": 2, "fullRoundText": "Winners Round 2", "completedAt": 1759970521, "winnerId": 21500388, "slots": [{"id": "94802699-0", "entrant": {"id": 21500388, "name": "Armanisaint", "participants": [{"id": 19757903, "gamerTag": "Armanisaint", "prefix": null, "user": {"location": {"city": "Roswell", "state": "GA", "country": "United States"}}, "player": {"id": 3943806, "gamerTag": "Armanisaint", "prefix": null, "user": {"location": {"city": "Roswell", "state": "GA", "country": "United States"}}}}]}, "standing": {"placement": 1, "stats": {"score": {"value": 2}}}}, {"id": "94802699-1", "entrant": {"id": 21498524, "name": "Iso.Dgaf", "participants": [{"id": 19756196, "gamerTag": "Iso.Dgaf", "prefix": null, "user": {"location": {"city": "Acworth", "state": "GA", "country": "United States"}}, "player": {"id": 4285541, "gamerTag": "Iso.Dgaf", "prefix": null, "user": {"location": {"city": "Acworth", "state": "GA", "country": "United States"}}}}]}, "standing": {"placement": 2, "stats": {"score": {"value": 1}}}}], "games": null}, {"id": 94802700, "state": 3, "round": 2, "fullRoundText": "Winners Round 2", "completedAt": 1759971177, "winnerId": 21499693, "slots": [{"id": "94802700-0", "entrant": {"id": 21500856, "name": "Aneubys", "participants": [{"id": 19758323, "gamerTag": "Aneubys", "prefix": "", "user": {"location": {"city": "Smyrna", "state": "GA", "country": "United States"}}, "player": {"id": 3901259, "gamerTag": "Aneubys", "prefix": "", "user": {"location": {"city": "Smyrna", "state": "GA", "country": "United States"}}}}]}, "standing": {"placement": 2, "stats": {"score": {"value": 1}}}}, {"id": "94802700-1", "entrant": {"id": 21499693, "name": "GCH | slaughterwall", "participants": [{"id": 19757247, "gamerTag": "slaughterwall", "prefix": "GCH", "user": {"location": {"city": "Atlanta", "state": "GA", "country": "United States"}}, "player": {"id": 1104452, "gamerTag": "slaughterwall", "prefix": "GCH", "user": {"location": {"city": "Atlanta", "state": "GA", "country": "United States"}}}}]}, "standing": {"placement": 1, "stats": {"score": {"value": 2}}}}], "games": null}, {"id": 94802701, "state": 3, "round": 2, "fullRoundText": "Winners Round 2", "completedAt": 1759970406, "winnerId": 21499143, "slots": [{"id": "94802701-0", "entrant": {"id": 21499143, "name": "Pokchop", "participants": [{"id": 19756738, "gamerTag": "Pokchop", "prefix": "", "user": {"location": {"city": "Atlanta", "state": "GA", "country": "United States"}}, "player": {"id": 150402, "gamerTag": "Pokchop", "prefix": "", "user": {"location": {"city": "Atlanta", "state": "GA", "country": "United States"}}}}]}, "standing": {"placement": 1, "stats": {"score": {"value": 2}}}}, {"id": "94802701-1", "entrant": {"id": 21498508, "name": "Greed", "participants": [{"id": 19756184, "gamerTag": "Greed", "prefix": "", "user": {"location": {"city": "Atlanta", "state": "GA", "country": "United States"}}, "player": {"id": 907329, "gamerTag": "Greed", "prefix": "", "user": {"location": {"city": "Atlanta", "state": "GA", "country": "United States"}}}}]}, "standing": {"placement": 2, "stats": {"score": {"value": 1}}}}], "games": null}, {"id": 94802702, "state": 3, "round": 2, "fullRoundText": "Winners Round 2", "completedAt": 1759971025, "winnerId": 21501761, "slots": [{"id": "94802702-0", "entrant": {"id": 21501761, "name": "Ghost | NOMAR", "participants": [{"id": 19759121, "gamerTag": "NOMAR", "prefix": "Ghost", "user": {"location": {"city": "Jonesboro", "state": "GA", "country": "United States"}}, "player": {"id": 427989, "gamerTag": "NOMAR", "prefix": "Ghost", "user": {"location": {"city": "Jonesboro", "state": "GA", "country": "United States"}}}}]}, "standing": {"placement": 1, "stats": {"score": {"value": 2}}}}, {"id": "94802702-1", "entrant": {"id": 21499985, "name": "HEAVANER", "participants": [{"id": 19757502, "gamerTag": "HEAVANER", "prefix": "", "user": null, "player": {"id": 4912576, "gamerTag": "HEAVANER", "prefix": "", "user": null}}]}, "standing": {"placement": 2, "stats": {"score": {"value": 0}}}}], "games": null}, {"id": 94802703, "state": 3, "round": 2, "fullRoundText": "Winners Round 2", "completedAt": 1759971735, "winnerId": 21471142, "slots": [{"id": "94802703-0", "entrant": {"id": 21500206, "name": "Myk_JUMP", "participants": [{"id": 19757714, "gamerTag": "Myk_JUMP", "prefix": "", "user": {"location": {"city": "Atlanta", "state": "GA", "country": "United States"}}, "player": {"id": 469002, "gamerTag": "Myk_JUMP", "prefix": "", "user": {"location": {"city": "Atlanta", "state": "GA", "country": "United States"}}}}]}, "standing": {"placement": 2, "stats": {"score": {"value": 0}}}}, {"id": "94802703-1", "entrant": {"id": 21471142, "name": "InIt2WynneIt", "participants": [{"id": 19731738, "gamerTag": "InIt2WynneIt", "prefix": "", "user": {"location": {"city": "LAWRENCEVILLE", "state": "GA", "country": "United States"}}, "player": {"id": 260407, "gamerTag": "InIt2WynneIt", "prefix": "", "user": {"location": {"city": "LAWRENCEVILLE", "state": "GA", "country": "United States"}}}}]}, "standing": {"placement": 1, "stats": {"score": {"value": 2}}}}], "games": null}, {"id": 94802704, "state": 3, "round": 2, "fullRoundText": "Winners Round 2", "completedAt": 1759970363, "winnerId": 21492059, "slots": [{"id": "94802704-0", "entrant": {"id": 21492059, "name": "BOLT | KhalRhaego", "participants": [{"id": 19750558, "gamerTag": "KhalRhaego", "prefix": "BOLT", "user": {"location": {"city": "Jonesboro", "state": "GA", "country": "United States"}}, "player": {"id": 4076327, "gamerTag": "KhalRhaego", "prefix": "BOLT", "user": {"location": {"city": "Jonesboro", "state": "GA", "country": "United States"}}}}]}, "standing": {"placement": 1, "stats": {"score": {"value": 2}}}}, {"id": "94802704-1", "entrant": {"id": 21501179, "name": "REHOO", "participants": [{"id": 19758608, "gamerTag": "REHOO", "prefix": null, "user": {"location": {"city": "jonesboro", "state": "GA", "country": "United States"}}, "player": {"id": 427983, "gamerTag": "REHOO", "prefix": null, "user": {"location": {"city": "jonesboro", "state": "GA", "country": "United States"}}}}]}, "standing": {"placement": 2, "stats": {"score": {"value": 0}}}}], "games": null}]}}}