{"phase": {"seeds": {"pageInfo": {"totalPages": 1, "total": 9}, "nodes": [{"id": 35778833, "seedNum": 1, "entrant": {"id": 20734727, "name": "Ave~", "participants": [{"id": 19081749, "gamerTag": "Ave~", "prefix": null, "user": {"location": {"city": null, "state": null, "country": null}}, "player": {"id": 38830, "gamerTag": "Ave~", "prefix": "", "user": {"location": {"city": null, "state": null, "country": null}}}}]}}, {"id": 35786021, "seedNum": 2, "entrant": {"id": 20740253, "name": "Dynamo", "participants": [{"id": 19086267, "gamerTag": "Dynamo", "prefix": "", "user": {"location": {"city": "Atlanta", "state": "GA", "country": "United States"}}, "player": {"id": 3417019, "gamerTag": "Dynamo", "prefix": "", "user": {"location": {"city": "Atlanta", "state": "GA", "country": "United States"}}}}]}}, {"id": 36105818, "seedNum": 3, "entrant": {"id": 20933266, "name": "PhoenixLeft", "participants": [{"id": 19259583, "gamerTag": "PhoenixLeft", "prefix": "", "user": {"location": {"city": "Richmond", "state": "VA", "country": "United States"}}, "player": {"id": 3561776, "gamerTag": "PhoenixLeft", "prefix": "", "user": {"location": {"city": "Richmond", "state": "VA", "country": "United States"}}}}]}}, {"id": 36343038, "seedNum": 4, "entrant": {"id": 21084442, "name": "Spikeynay", "participants": [{"id": 19394546, "gamerTag": "Spikeynay", "prefix": "", "user": {"location": {"city": "Marietta", "state": "GA", "country": "United States"}}, "player": {"id": 4942651, "gamerTag": "Spikeynay", "prefix": "", "user": {"location": {"city": "Marietta", "state": "GA", "country": "United States"}}}}]}}, {"id": 36344838, "seedNum": 5, "entrant": {"id": 21085985, "name": "Adrian Lynn", "participants": [{"id": 19395782, "gamerTag": "Adrian Lynn", "prefix": "", "user": {"location": {"city": "Dallas", "state": "GA", "country": "United States"}}, "player": {"id": 4942795, "gamerTag": "Adrian Lynn", "prefix": "", "user": {"location": {"city": "Dallas", "state": "GA", "country": "United States"}}}}]}}, {"id": 36354053, "seedNum": 6, "entrant": {"id": 21089142, "name": "sol.onion", "participants": [{"id": 19398634, "gamerTag": "sol.onion", "prefix": "", "user": {"location": {"city": "Stamford", "state": "CT", "country": "United States"}}, "player": {"id": 4943274, "gamerTag": "sol.onion", "prefix": "", "user": {"location": {"city": "Stamford", "state": "CT", "country": "United States"}}}}]}}, {"id": 36370883, "seedNum": 7, "entrant": {"id": 21099539, "name": "JJ Hardy", "participants": [{"id": 19408044, "gamerTag": "JJ Hardy", "prefix": null, "user": {"location": {"city": "Windsor", "state": "CT", "country": "United States"}}, "player": {"id": 1825931, "gamerTag": "JJ Hardy", "prefix": "", "user": {"location": {"city": "Windsor", "state": "CT", "country": "United States"}}}}]}}, {"id": 36385713, "seedNum": 8, "entrant": {"id": 21110128, "name": "Seegs", "participants": [{"id": 19417708, "gamerTag": "Seegs", "prefix": null, "user": {"location": {"city": "Dalton", "state": "GA", "country": "United States"}}, "player": {"id": 4945921, "gamerTag": "Seegs", "prefix": null, "user": {"location": {"city": "Dalton", "state": "GA", "country": "United States"}}}}]}}, {"id": 36388380, "seedNum": 9, "entrant": {"id": 21112364, "name": "Axis", "participants": [{"id": 19419713, "gamerTag": "Axis", "prefix": "", "user": {"location": {"city": "Arvada", "state": "CO", "country": "United States"}}, "player": {"id": 4946553, "gamerTag": "Axis", "prefix": "", "user": {"location": {"city": "Arvada", "state": "CO", "country": "United States"}}}}]}}]}}}