{"phase": {"seeds": {"pageInfo": {"totalPages": 1, "total": 22}, "nodes": [{"id": 36394418, "seedNum": 1, "entrant": {"id": 21116791, "name": "vivesthesia", "participants": [{"id": 19423506, "gamerTag": "vivesthesia", "prefix": null, "user": {"location": {"city": "Atlanta", "state": "GA", "country": "United States"}}, "player": {"id": 4395171, "gamerTag": "vivesthesia", "prefix": null, "user": {"location": {"city": "Atlanta", "state": "GA", "country": "United States"}}}}]}}, {"id": 36431712, "seedNum": 4, "entrant": {"id": 21141853, "name": "skyguy | Chris Danger", "participants": [{"id": 19446345, "gamerTag": "Chris Danger", "prefix": "skyguy", "user": {"location": {"city": "Atlanta", "state": "GA", "country": "United States"}}, "player": {"id": 2808268, "gamerTag": "Chris Danger", "prefix": "skyguy", "user": {"location": {"city": "Atlanta", "state": "GA", "country": "United States"}}}}]}}, {"id": 36394058, "seedNum": 2, "entrant": {"id": 21116518, "name": "audrey", "participants": [{"id": 19423267, "gamerTag": "audrey", "prefix": null, "user": {"location": {"city": "Dunwoody", "state": "GA", "country": "United States"}}, "player": {"id": 1335864, "gamerTag": "audrey", "prefix": null, "user": {"location": {"city": "Dunwoody", "state": "GA", "country": "United States"}}}}]}}, {"id": 36433054, "seedNum": 8, "entrant": {"id": 21142962, "name": "GCB | fries", "participants": [{"id": 19447307, "gamerTag": "fries", "prefix": "GCB", "user": {"location": {"city": "Greer", "state": "SC", "country": "United States"}}, "player": {"id": 1120136, "gamerTag": "fries", "prefix": "GCB", "user": {"location": {"city": "Greer", "state": "SC", "country": "United States"}}}}]}}, {"id": 36432818, "seedNum": 3, "entrant": {"id": 21142773, "name": "cardd", "participants": [{"id": 19447143, "gamerTag": "cardd", "prefix": "", "user": {"location": {"city": "ATL", "state": "GA", "country": "United States"}}, "player": {"id": 34781, "gamerTag": "cardd", "prefix": "", "user": {"location": {"city": "ATL", "state": "GA", "country": "United States"}}}}]}}, {"id": 36386845, "seedNum": 6, "entrant": {"id": 21111032, "name": "N/a | C$", "participants": [{"id": 19418516, "gamerTag": "C$", "prefix": "N/a", "user": {"location": null}, "player": {"id": 228175, "gamerTag": "C$", "prefix": "N/a", "user": {"location": null}}}]}}, {"id": 36432730, "seedNum": 5, "entrant": {"id": 21142701, "name": "Erika Bonchiko", "participants": [{"id": 19447084, "gamerTag": "Erika Bonchiko", "prefix": null, "user": {"location": {"city": "Atlanta", "state": "GA", "country": "United States"}}, "player": {"id": 16360, "gamerTag": "Erika Bonchiko", "prefix": null, "user": {"location": {"city": "Atlanta", "state": "GA", "country": "United States"}}}}]}}, {"id": 36432991, "seedNum": 9, "entrant": {"id": 21142908, "name": "JDeems", "participants": [{"id": 19447264, "gamerTag": "JDeems", "prefix": "", "user": null, "player": {"id": 4953679, "gamerTag": "JDeems", "prefix": "", "user": null}}]}}, {"id": 36432033, "seedNum": 7, "entrant": {"id": 21142178, "name": "tomguy", "participants": [{"id": 19446642, "gamerTag": "tomguy", "prefix": "", "user": {"location": {"city": "Atlanta", "state": "GA", "country": "United States"}}, "player": {"id": 147458, "gamerTag": "tomguy", "prefix": "", "user": {"location": {"city": "Atlanta", "state": "GA", "country": "United States"}}}}]}}, {"id": 36387220, "seedNum": 10, "entrant": {"id": 21111355, "name": "Wolven", "participants": [{"id": 19418759, "gamerTag": "Wolven", "prefix": null, "user": {"location": {"city": "Atlanta", "state": "GA", "country": "United States"}}, "player": {"id": 126978, "gamerTag": "Wolven", "prefix": null, "user": {"location": {"city": "Atlanta", "state": "GA", "country": "United States"}}}}]}}, {"id": 36432596, "seedNum": 11, "entrant": {"id": 21142573, "name": "OGC | bune", "participants": [{"id": 19446979, "gamerTag": "bune", "prefix": "OGC", "user": {"location": {"city": "Macon", "state": "GA", "country": "United States"}}, "player": {"id": 3054829, "gamerTag": "bune", "prefix": "OGC", "user": {"location": {"city": "Macon", "state": "GA", "country": "United States"}}}}]}}, {"id": 36426288, "seedNum": 15, "entrant": {"id": 21137706, "name": "Juan J. Steven's", "participants": [{"id": 19442545, "gamerTag": "Juan J. Steven's", "prefix": null, "user": {"location": {"city": "atlanta", "state": "GA", "country": "United States"}}, "player": {"id": 3318064, "gamerTag": "Guts", "prefix": "\u72a0\u7272\u306e\u70d9\u5370", "user": {"location": {"city": "atlanta", "state": "GA", "country": "United States"}}}}]}}, {"id": 36412934, "seedNum": 13, "entrant": {"id": 21130373, "name": "citizendog", "participants": [{"id": 19435974, "gamerTag": "citizendog", "prefix": "", "user": {"location": {"city": "Monroe", "state": "GA", "country": "United States"}}, "player": {"id": 176325, "gamerTag": "citizendog", "prefix": "", "user": {"location": {"city": "Monroe", "state": "GA", "country": "United States"}}}}]}}, {"id": 36431585, "seedNum": 14, "entrant": {"id": 21141728, "name": "Tyme", "participants": [{"id": 19446237, "gamerTag": "Tyme", "prefix": null, "user": {"location": {"city": null, "state": null, "country": null}}, "player": {"id": 325589, "gamerTag": "Tyme", "prefix": null, "user": {"location": {"city": null, "state": null, "country": null}}}}]}}, {"id": 36428325, "seedNum": 17, "entrant": {"id": 21139259, "name": "Deign", "participants": [{"id": 19444014, "gamerTag": "Deign", "prefix": "", "user": {"location": {"city": null, "state": null, "country": "United States"}}, "player": {"id": 325595, "gamerTag": "Deign", "prefix": "", "user": {"location": {"city": null, "state": null, "country": "United States"}}}}]}}, {"id": 36426593, "seedNum": 18, "entrant": {"id": 21137941, "name": "ATL | Mid", "participants": [{"id": 19442764, "gamerTag": "Mid", "prefix": "ATL", "user": {"location": {"city": "Atlanta", "state": "GA", "country": "United States"}}, "player": {"id": 1122267, "gamerTag": "Mid", "prefix": "ATL", "user": {"location": {"city": "Atlanta", "state": "GA", "country": "United States"}}}}]}}, {"id": 36397745, "seedNum": 12, "entrant": {"id": 21118902, "name": "blaise", "participants": [{"id": 19425491, "gamerTag": "blaise", "prefix": "", "user": {"location": {"city": "douglasville", "state": "GA", "country": "United States"}}, "player": {"id": 1326121, "gamerTag": "blaise", "prefix": "", "user": {"location": {"city": "douglasville", "state": "GA", "country": "United States"}}}}]}}, {"id": 36431567, "seedNum": 16, "entrant": {"id": 21141710, "name": "KHW | Frumps", "participants": [{"id": 19446222, "gamerTag": "Frumps", "prefix": "KHW", "user": {"location": {"city": "Greenville", "state": "SC", "country": "United States"}}, "player": {"id": 2844590, "gamerTag": "Frumps", "prefix": "KHW", "user": {"location": {"city": "Greenville", "state": "SC", "country": "United States"}}}}]}}, {"id": 36412092, "seedNum": 19, "entrant": {"id": 21129663, "name": "Permafrost", "participants": [{"id": 19435318, "gamerTag": "Permafrost", "prefix": null, "user": {"location": {"city": "Atlanta", "state": "GA", "country": "United States"}}, "player": {"id": 1256898, "gamerTag": "Permafrost", "prefix": "", "user": {"location": {"city": "Atlanta", "state": "GA", "country": "United States"}}}}]}}, {"id": 36391467, "seedNum": 20, "entrant": {"id": 21114690, "name": "iamxenongas", "participants": [{"id": 19421776, "gamerTag": "iamxenongas", "prefix": null, "user": {"location": {"city": null, "state": "GA", "country": "United States"}}, "player": {"id": 4722621, "gamerTag": "iamxenongas", "prefix": null, "user": {"location": {"city": null, "state": "GA", "country": "United States"}}}}]}}, {"id": 36427332, "seedNum": 21, "entrant": {"id": 21138415, "name": "FtR | Sneak", "participants": [{"id": 19443223, "gamerTag": "Sneak", "prefix": "FtR", "user": {"location": {"city": "Villa Rica", "state": "GA", "country": "United States"}}, "player": {"id": 1902931, "gamerTag": "Sneak", "prefix": null, "user": {"location": {"city": "Villa Rica", "state": "GA", "country": "United States"}}}}]}}, {"id": 36430235, "seedNum": 22, "entrant": {"id": 21140749, "name": "CrimsonChinchilla", "participants": [{"id": 19445348, "gamerTag": "CrimsonChinchilla", "prefix": "", "user": {"location": {"city": null, "state": null, "country": "United States"}}, "player": {"id": 4953534, "gamerTag": "CrimsonChinchilla", "prefix": "", "user": {"location": {"city": null, "state": null, "country": "United States"}}}}]}}]}}}