{"phase": {"seeds": {"pageInfo": {"totalPages": 1, "total": 9}, "nodes": [{"id": 36454563, "seedNum": 2, "entrant": {"id": 21158679, "name": "Vitamin C", "participants": [{"id": 19460856, "gamerTag": "Vitamin C", "prefix": null, "user": {"location": {"city": "Lawrenceville", "state": "GA", "country": "United States"}}, "player": {"id": 4943785, "gamerTag": "Vitamin C", "prefix": null, "user": {"location": {"city": "Lawrenceville", "state": "GA", "country": "United States"}}}}]}}, {"id": 36544924, "seedNum": 1, "entrant": {"id": 21215884, "name": "AshNoJoy", "participants": [{"id": 19509426, "gamerTag": "AshNoJoy", "prefix": null, "user": {"location": {"city": "Phenix City", "state": "AL", "country": "United States"}}, "player": {"id": 3141674, "gamerTag": "AshNoJoy", "prefix": "", "user": {"location": {"city": "Phenix City", "state": "AL", "country": "United States"}}}}]}}, {"id": 36544871, "seedNum": 3, "entrant": {"id": 21215840, "name": "MossyCharger", "participants": [{"id": 19511122, "gamerTag": "MossyCharger", "prefix": null, "user": {"location": {"city": "Atlanta", "state": "GA", "country": "United States"}}, "player": {"id": 4945351, "gamerTag": "MossyCharger", "prefix": null, "user": {"location": {"city": "Atlanta", "state": "GA", "country": "United States"}}}}]}}, {"id": 36527398, "seedNum": 5, "entrant": {"id": 21205913, "name": "Khang", "participants": [{"id": 19502406, "gamerTag": "Khang", "prefix": "", "user": {"location": {"city": null, "state": null, "country": "United States"}}, "player": {"id": 4964744, "gamerTag": "Khang", "prefix": "", "user": {"location": {"city": null, "state": null, "country": "United States"}}}}]}}, {"id": 36453210, "seedNum": 4, "entrant": {"id": 21157647, "name": "SD | Delta", "participants": [{"id": 19459877, "gamerTag": "Delta", "prefix": "SD", "user": {"location": {"city": "Atlanta", "state": "GA", "country": "United States"}}, "player": {"id": 4944609, "gamerTag": "Delta", "prefix": "SD", "user": {"location": {"city": "Atlanta", "state": "GA", "country": "United States"}}}}]}}, {"id": 36528038, "seedNum": 6, "entrant": {"id": 21206444, "name": "Astrum", "participants": [{"id": 19502926, "gamerTag": "Astrum", "prefix": null, "user": {"location": {"city": null, "state": "GA", "country": "United States"}}, "player": {"id": 4943691, "gamerTag": "Astrum", "prefix": null, "user": {"location": {"city": null, "state": "GA", "country": "United States"}}}}]}}, {"id": 36541084, "seedNum": 7, "entrant": {"id": 21213164, "name": "AceT", "participants": [{"id": 19464424, "gamerTag": "AceT", "prefix": null, "user": {"location": {"city": "Atlanta", "state": "GA", "country": "United States"}}, "player": {"id": 4956503, "gamerTag": "AceT", "prefix": "", "user": {"location": {"city": "Atlanta", "state": "GA", "country": "United States"}}}}]}}, {"id": 36484347, "seedNum": 9, "entrant": {"id": 21177254, "name": "FF | Milex", "participants": [{"id": 19477171, "gamerTag": "Milex", "prefix": "FF", "user": {"location": {"city": null, "state": "FL", "country": "United States"}}, "player": {"id": 4945217, "gamerTag": "Milex", "prefix": "FF", "user": {"location": {"city": null, "state": "FL", "country": "United States"}}}}]}}, {"id": 36539678, "seedNum": 8, "entrant": {"id": 21211994, "name": "LoudyKing101", "participants": [{"id": 19507801, "gamerTag": "LoudyKing101", "prefix": "", "user": {"location": {"city": null, "state": null, "country": "United States"}}, "player": {"id": 4965563, "gamerTag": "LoudyKing101", "prefix": "", "user": {"location": {"city": null, "state": null, "country": "United States"}}}}]}}]}}}