{"phase": {"seeds": {"pageInfo": {"totalPages": 1, "total": 13}, "nodes": [{"id": 36255158, "seedNum": 2, "entrant": {"id": 21022971, "name": "audrey", "participants": [{"id": 19338872, "gamerTag": "audrey", "prefix": null, "user": {"location": {"city": "Dunwoody", "state": "GA", "country": "United States"}}, "player": {"id": 1335864, "gamerTag": "audrey", "prefix": null, "user": {"location": {"city": "Dunwoody", "state": "GA", "country": "United States"}}}}]}}, {"id": 36253364, "seedNum": 1, "entrant": {"id": 21021661, "name": "vivesthesia", "participants": [{"id": 19337609, "gamerTag": "vivesthesia", "prefix": null, "user": {"location": {"city": "Atlanta", "state": "GA", "country": "United States"}}, "player": {"id": 4395171, "gamerTag": "vivesthesia", "prefix": null, "user": {"location": {"city": "Atlanta", "state": "GA", "country": "United States"}}}}]}}, {"id": 36255597, "seedNum": 3, "entrant": {"id": 21023316, "name": "Taza", "participants": [{"id": 19339188, "gamerTag": "Taza", "prefix": null, "user": {"location": {"city": "Roswell", "state": "GA", "country": "United States"}}, "player": {"id": 278724, "gamerTag": "Taza", "prefix": null, "user": {"location": {"city": "Roswell", "state": "GA", "country": "United States"}}}}]}}, {"id": 36268019, "seedNum": 4, "entrant": {"id": 21031265, "name": "sanrio enjoyer", "participants": [{"id": 19346417, "gamerTag": "sanrio enjoyer", "prefix": null, "user": {"location": {"city": "Atlanta", "state": "GA", "country": "United States"}}, "player": {"id": 4933308, "gamerTag": "sanrio enjoyer", "prefix": null, "user": {"location": {"city": "Atlanta", "state": "GA", "country": "United States"}}}}]}}, {"id": 36266489, "seedNum": 5, "entrant": {"id": 21030144, "name": "tomguy", "participants": [{"id": 19345359, "gamerTag": "tomguy", "prefix": "", "user": {"location": {"city": "Atlanta", "state": "GA", "country": "United States"}}, "player": {"id": 147458, "gamerTag": "tomguy", "prefix": "", "user": {"location": {"city": "Atlanta", "state": "GA", "country": "United States"}}}}]}}, {"id": 36271123, "seedNum": 6, "entrant": {"id": 21034002, "name": "Blank", "participants": [{"id": 19349066, "gamerTag": "Blank", "prefix": null, "user": {"location": {"city": "Snellville", "state": "GA", "country": "United States"}}, "player": {"id": 216554, "gamerTag": "Blank", "prefix": null, "user": {"location": {"city": "Snellville", "state": "GA", "country": "United States"}}}}]}}, {"id": 36234117, "seedNum": 7, "entrant": {"id": 21010459, "name": "DD | Kingpoyothefirst", "participants": [{"id": 19327842, "gamerTag": "Kingpoyothefirst", "prefix": "DD", "user": {"location": {"city": null, "state": null, "country": null}}, "player": {"id": 2934299, "gamerTag": "Kingpoyothefirst", "prefix": "DD", "user": {"location": {"city": null, "state": null, "country": null}}}}]}}, {"id": 36233974, "seedNum": 8, "entrant": {"id": 21010361, "name": "Tech Chase | braxton", "participants": [{"id": 19327750, "gamerTag": "braxton", "prefix": "Tech Chase", "user": {"location": {"city": "Atlanta", "state": "GA", "country": "United States"}}, "player": {"id": 1037821, "gamerTag": "braxton", "prefix": "The Hive", "user": {"location": {"city": "Atlanta", "state": "GA", "country": "United States"}}}}]}}, {"id": 36261212, "seedNum": 9, "entrant": {"id": 21027221, "name": "blaise", "participants": [{"id": 19342663, "gamerTag": "blaise", "prefix": "", "user": {"location": {"city": "douglasville", "state": "GA", "country": "United States"}}, "player": {"id": 1326121, "gamerTag": "blaise", "prefix": "", "user": {"location": {"city": "douglasville", "state": "GA", "country": "United States"}}}}]}}, {"id": 36268929, "seedNum": 10, "entrant": {"id": 21032050, "name": "Juan J. Steven's", "participants": [{"id": 19347166, "gamerTag": "Juan J. Steven's", "prefix": null, "user": {"location": {"city": "atlanta", "state": "GA", "country": "United States"}}, "player": {"id": 3318064, "gamerTag": "Guts", "prefix": "\u72a0\u7272\u306e\u70d9\u5370", "user": {"location": {"city": "atlanta", "state": "GA", "country": "United States"}}}}]}}, {"id": 36242393, "seedNum": 11, "entrant": {"id": 21015958, "name": "soup time", "participants": [{"id": 19332596, "gamerTag": "soup time", "prefix": null, "user": {"location": {"city": "Auburn", "state": "AL", "country": "United States"}}, "player": {"id": 2363610, "gamerTag": "soup time", "prefix": null, "user": {"location": {"city": "Auburn", "state": "AL", "country": "United States"}}}}]}}, {"id": 36235165, "seedNum": 12, "entrant": {"id": 21011350, "name": "Lalaballs", "participants": [{"id": 19328630, "gamerTag": "Lalaballs", "prefix": "", "user": {"location": {"city": "Atlanta", "state": "GA", "country": "United States"}}, "player": {"id": 2300786, "gamerTag": "Lalaballs", "prefix": "", "user": {"location": {"city": "Atlanta", "state": "GA", "country": "United States"}}}}]}}, {"id": 36255238, "seedNum": 13, "entrant": {"id": 21022994, "name": "kablooey", "participants": [{"id": 19338890, "gamerTag": "kablooey", "prefix": "", "user": {"location": {"city": "Peachtree City", "state": "GA", "country": "United States"}}, "player": {"id": 220299, "gamerTag": "kablooey", "prefix": "milk", "user": {"location": {"city": "Peachtree City", "state": "GA", "country": "United States"}}}}]}}]}}}