{"phase": {"seeds": {"pageInfo": {"totalPages": 1, "total": 5}, "nodes": [{"id": 36266254, "seedNum": 1, "entrant": {"id": 21030025, "name": "Ave~", "participants": [{"id": 19345273, "gamerTag": "Ave~", "prefix": "", "user": {"location": {"city": null, "state": null, "country": null}}, "player": {"id": 38830, "gamerTag": "Ave~", "prefix": "", "user": {"location": {"city": null, "state": null, "country": null}}}}]}}, {"id": 36193610, "seedNum": 2, "entrant": {"id": 20984154, "name": "Hell Mode | ROB Slayer", "participants": [{"id": 19304076, "gamerTag": "ROB Slayer", "prefix": "Hell Mode", "user": {"location": {"city": "Atlanta", "state": "GA", "country": "United States"}}, "player": {"id": 2414381, "gamerTag": "ROB Slayer", "prefix": "Hell Mode", "user": {"location": {"city": "Atlanta", "state": "GA", "country": "United States"}}}}]}}, {"id": 36269595, "seedNum": 3, "entrant": {"id": 21032611, "name": "punk2 | tape", "participants": [{"id": 19347719, "gamerTag": "tape", "prefix": "punk2", "user": {"location": {"city": "Douglasville", "state": "GA", "country": "United States"}}, "player": {"id": 2493488, "gamerTag": "tape", "prefix": "punk2", "user": {"location": {"city": "Douglasville", "state": "GA", "country": "United States"}}}}]}}, {"id": 36268202, "seedNum": 5, "entrant": {"id": 21031382, "name": "Shusui", "participants": [{"id": 19346530, "gamerTag": "Shusui", "prefix": null, "user": {"location": {"city": "Suwanee", "state": "GA", "country": "United States"}}, "player": {"id": 3465710, "gamerTag": "Shusui", "prefix": "", "user": {"location": {"city": "Suwanee", "state": "GA", "country": "United States"}}}}]}}, {"id": 36267180, "seedNum": 4, "entrant": {"id": 21030696, "name": "LvL? | Yharon", "participants": [{"id": 19345875, "gamerTag": "Yharon", "prefix": "LvL?", "user": {"location": {"city": "Carrollton", "state": "GA", "country": "United States"}}, "player": {"id": 3862975, "gamerTag": "Yharon", "prefix": "LvL?", "user": {"location": {"city": "Carrollton", "state": "GA", "country": "United States"}}}}]}}]}}}