{"event": {"sets": {"pageInfo": {"totalPages": 4, "total": 60}, "nodes": [{"id": 91667457, "state": 3, "round": -4, "fullRoundText": "Losers Round 2", "completedAt": 1753061527, "winnerId": 20751869, "slots": [{"id": "91667457-0", "entrant": {"id": 20751869, "name": "RM | lawl", "participants": [{"id": 19097328, "gamerTag": "lawl", "prefix": "RM", "user": {"location": {"city": "Dacula", "state": "GA", "country": "United States"}}, "player": {"id": 2116990, "gamerTag": "lawl", "prefix": "RM", "user": {"location": {"city": "Dacula", "state": "GA", "country": "United States"}}}}]}, "standing": {"placement": 1, "stats": {"score": {"value": 2}}}}, {"id": "91667457-1", "entrant": {"id": 20751799, "name": "Toasty", "participants": [{"id": 19097256, "gamerTag": "Toasty", "prefix": "", "user": {"location": {"city": "Atlanta", "state": "GA", "country": "United States"}}, "player": {"id": 1632443, "gamerTag": "Toasty", "prefix": "", "user": {"location": {"city": "Atlanta", "state": "GA", "country": "United States"}}}}]}, "standing": {"placement": 2, "stats": {"score": {"value": 0}}}}], "games": null}, {"id": 91667678, "state": 3, "round": -5, "fullRoundText": "Losers Semi-Final", "completedAt": 1753067747, "winnerId": 20750542, "slots": [{"id": "91667678-0", "entrant": {"id": 20751713, "name": "TFT | Juug$tarr", "participants": [{"id": 19097176, "gamerTag": "Juug$tarr", "prefix": "TFT", "user": {"location": {"city": "Atlanta", "state": "GA", "country": "United States"}}, "player": {"id": 3621035, "gamerTag": "Juug$tarr", "prefix": "TFT", "user": {"location": {"city": "Atlanta", "state": "GA", "country": "United States"}}}}]}, "standing": {"placement": 2, "stats": {"score": {"value": 0}}}}, {"id": "91667678-1", "entrant": {"id": 20750542, "name": "WFF | Happy", "participants": [{"id": 19096033, "gamerTag": "Happy", "prefix": "WFF", "user": {"location": {"city": "Peachtree CIty", "state": "GA", "country": "United States"}}, "player": {"id": 1383907, "gamerTag": "Happy", "prefix": "WFF", "user": {"location": {"city": "Peachtree CIty", "state": "GA", "country": "United States"}}}}]}, "standing": {"placement": 1, "stats": {"score": {"value": 3}}}}], "games": null}, {"id": 91667334, "state": 3, "round": -3, "fullRoundText": "Losers Round 1", "completedAt": 1753059775, "winnerId": 20751531, "slots": [{"id": "91667334-0", "entrant": {"id": 20751717, "name": "Kev", "participants": [{"id": 19097180, "gamerTag": "Kev", "prefix": "", "user": {"location": {"city": "Manhattan", "state": null, "country": "United States"}}, "player": {"id": 3824468, "gamerTag": "Kev", "prefix": "", "user": {"location": {"city": "Manhattan", "state": null, "country": "United States"}}}}]}, "standing": {"placement": 2, "stats": {"score": {"value": 1}}}}, {"id": "91667334-1", "entrant": {"id": 20751531, "name": "assclapFGC", "participants": [{"id": 19096998, "gamerTag": "assclapFGC", "prefix": "", "user": {"location": {"city": "Scottdale", "state": "GA", "country": "United States"}}, "player": {"id": 3481864, "gamerTag": "assclapFGC", "prefix": "", "user": {"location": {"city": "Scottdale", "state": "GA", "country": "United States"}}}}]}, "standing": {"placement": 1, "stats": {"score": {"value": 2}}}}], "games": null}, {"id": 91667450, "state": 3, "round": -3, "fullRoundText": "Losers Round 1", "completedAt": 1753058728, "winnerId": 20749897, "slots": [{"id": "91667450-0", "entrant": {"id": 20751908, "name": "buffer2", "participants": [{"id": 19097366, "gamerTag": "buffer2", "prefix": "", "user": null, "player": {"id": 4042083, "gamerTag": "buffer2", "prefix": "", "user": null}}]}, "standing": {"placement": 2, "stats": {"score": {"value": -1}}}}, {"id": "91667450-1", "entrant": {"id": 20749897, "name": "TFT | yxngcyborg", "participants": [{"id": 19095457, "gamerTag": "yxngcyborg", "prefix": "TFT", "user": {"location": {"city": "Atlanta", "state": "GA", "country": "United States"}}, "player": {"id": 1751817, "gamerTag": "Ricky Rudd", "prefix": "TFT", "user": {"location": {"city": "Atlanta", "state": "GA", "country": "United States"}}}}]}, "standing": {"placement": 1, "stats": {"score": {"value": 0}}}}], "games": null}, {"id": 91667335, "state": 3, "round": -3, "fullRoundText": "Losers Round 1", "completedAt": 1753058286, "winnerId": 20750860, "slots": [{"id": "91667335-0", "entrant": {"id": 20750860, "name": "Cash", "participants": [{"id": 19096330, "gamerTag": "Cash", "prefix": "", "user": {"location": {"city": "Atlanta", "state": "GA", "country": "United States"}}, "player": {"id": 4879701, "gamerTag": "Cash", "prefix": "", "user": {"location": {"city": "Atlanta", "state": "GA", "country": "United States"}}}}]}, "standing": {"placement": 1, "stats": {"score": {"value": 0}}}}, {"id": "91667335-1", "entrant": {"id": 20751757, "name": "MTM | Bob Weiner", "participants": [{"id": 19097213, "gamerTag": "Bob Weiner", "prefix": "MTM", "user": {"location": {"city": "Kennesaw", "state": "GA", "country": "United States"}}, "player": {"id": 2142601, "gamerTag": "Bob Weiner", "prefix": "MTM", "user": {"location": {"city": "Kennesaw", "state": "GA", "country": "United States"}}}}]}, "standing": {"placement": 2, "stats": {"score": {"value": -1}}}}], "games": null}, {"id": 91667451, "state": 3, "round": -3, "fullRoundText": "Losers Round 1", "completedAt": 1753060238, "winnerId": 20750239, "slots": [{"id": "91667451-0", "entrant": {"id": 20751486, "name": "Blaine-O", "participants": [{"id": 19096954, "gamerTag": "Blaine-O", "prefix": null, "user": {"location": {"city": "Atlanta", "state": "GA", "country": "United States"}}, "player": {"id": 2235020, "gamerTag": "Blaine-O", "prefix": null, "user": {"location": {"city": "Atlanta", "state": "GA", "country": "United States"}}}}]}, "standing": {"placement": 2, "stats": {"score": {"value": 0}}}}, {"id": "91667451-1", "entrant": {"id": 20750239, "name": "RM | WFF | Sakruoi", "participants": [{"id": 19095762, "gamerTag": "Sakruoi", "prefix": "RM | WFF", "user": {"location": {"city": "atlanta", "state": "GA", "country": "United States"}}, "player": {"id": 1230555, "gamerTag": "Sakruoi", "prefix": "RM | WFF", "user": {"location": {"city": "atlanta", "state": "GA", "country": "United States"}}}}]}, "standing": {"placement": 1, "stats": {"score": {"value": 2}}}}], "games": null}, {"id": 91667336, "state": 3, "round": -3, "fullRoundText": "Losers Round 1", "completedAt": 1753060325, "winnerId": 20750744, "slots": [{"id": "91667336-0", "entrant": {"id": 20751751, "name": "Dazey", "participants": [{"id": 19097209, "gamerTag": "Dazey", "prefix": "", "user": {"location": {"city": "Atlanta", "state": "GA", "country": "United States"}}, "player": {"id": 4879983, "gamerTag": "Dazey", "prefix": "", "user": {"location": {"city": "Atlanta", "state": "GA", "country": "United States"}}}}]}, "standing": {"placement": 2, "stats": {"score": {"value": 0}}}}, {"id": "91667336-1", "entrant": {"id": 20750744, "name": "Mickeydeez", "participants": [{"id": 19096230, "gamerTag": "Mickeydeez", "prefix": "", "user": {"location": {"city": "Atlanta", "state": "GA", "country": "United States"}}, "player": {"id": 4825580, "gamerTag": "Mickeydeez", "prefix": "", "user": {"location": {"city": "Atlanta", "state": "GA", "country": "United States"}}}}]}, "standing": {"placement": 1, "stats": {"score": {"value": 2}}}}], "games": null}, {"id": 91667452, "state": 3, "round": -3, "fullRoundText": "Losers Round 1", "completedAt": 1753058362, "winnerId": 20751870, "slots": [{"id": "91667452-0", "entrant": {"id": 20751907, "name": "buffer1", "participants": [{"id": 19097364, "gamerTag": "buffer1", "prefix": "", "user": null, "player": {"id": 4042082, "gamerTag": "buffer1", "prefix": "", "user": null}}]}, "standing": {"placement": 2, "stats": {"score": {"value": -1}}}}, {"id": "91667452-1", "entrant": {"id": 20751870, "name": "mahdi", "participants": [{"id": 19097329, "gamerTag": "mahdi", "prefix": "", "user": {"location": {"city": "Stone Mountain", "state": "GA", "country": "United States"}}, "player": {"id": 1885270, "gamerTag": "mahdi", "prefix": "", "user": {"location": {"city": "Stone Mountain", "state": "GA", "country": "United States"}}}}]}, "standing": {"placement": 1, "stats": {"score": {"value": 0}}}}], "games": null}, {"id": 91667453, "state": 3, "round": -3, "fullRoundText": "Losers Round 1", "completedAt": 1753058291, "winnerId": 20751799, "slots": [{"id": "91667453-0", "entrant": {"id": 20751759, "name": "Hollybot", "participants": [{"id": 19097214, "gamerTag": "Hollybot", "prefix": null, "user": {"location": {"city": "Atlanta", "state": "GA", "country": "United States"}}, "player": {"id": 4431125, "gamerTag": "Hollybot", "prefix": null, "user": {"location": {"city": "Atlanta", "state": "GA", "country": "United States"}}}}]}, "standing": {"placement": 2, "stats": {"score": {"value": -1}}}}, {"id": "91667453-1", "entrant": {"id": 20751799, "name": "Toasty", "participants": [{"id": 19097256, "gamerTag": "Toasty", "prefix": "", "user": {"location": {"city": "Atlanta", "state": "GA", "country": "United States"}}, "player": {"id": 1632443, "gamerTag": "Toasty", "prefix": "", "user": {"location": {"city": "Atlanta", "state": "GA", "country": "United States"}}}}]}, "standing": {"placement": 1, "stats": {"score": {"value": 0}}}}], "games": null}, {"id": 91667417, "state": 3, "round": 1, "fullRoundText": "Winners Round 1", "completedAt": 1753058331, "winnerId": 20751841, "slots": [{"id": "91667417-0", "entrant": {"id": 20751841, "name": "GUMP2 | RoKu", "participants": [{"id": 19097300, "gamerTag": "RoKu", "prefix": "GUMP2", "user": {"location": {"city": "Peachtree Corners", "state": "GA", "country": "United States"}}, "player": {"id": 1107285, "gamerTag": "RoKu", "prefix": "TFT", "user": {"location": {"city": "Peachtree Corners", "state": "GA", "country": "United States"}}}}]}, "standing": {"placement": 1, "stats": {"score": {"value": 0}}}}, {"id": "91667417-1", "entrant": {"id": 20751908, "name": "buffer2", "participants": [{"id": 19097366, "gamerTag": "buffer2", "prefix": "", "user": null, "player": {"id": 4042083, "gamerTag": "buffer2", "prefix": "", "user": null}}]}, "standing": {"placement": 2, "stats": {"score": {"value": -1}}}}], "games": null}, {"id": 91667301, "state": 3, "round": 1, "fullRoundText": "Winners Round 1", "completedAt": 1753058440, "winnerId": 20751644, "slots": [{"id": "91667301-0", "entrant": {"id": 20751644, "name": "Nurikami", "participants": [{"id": 19097110, "gamerTag": "Nurikami", "prefix": null, "user": {"location": {"city": "Sandy Springs", "state": "GA", "country": "United States"}}, "player": {"id": 2894467, "gamerTag": "Nurikami", "prefix": null, "user": {"location": {"city": "Sandy Springs", "state": "GA", "country": "United States"}}}}]}, "standing": {"placement": 1, "stats": {"score": {"value": 2}}}}, {"id": "91667301-1", "entrant": {"id": 20721072, "name": "WHOLE MILK", "participants": [{"id": 19070125, "gamerTag": "WHOLE MILK", "prefix": "", "user": {"location": {"city": "New York", "state": null, "country": "United States"}}, "player": {"id": 2981252, "gamerTag": "WHOLE MILK", "prefix": "", "user": {"location": {"city": "New York", "state": null, "country": "United States"}}}}]}, "standing": {"placement": 2, "stats": {"score": {"value": 1}}}}], "games": [{"id": 31409045, "orderNum": 1, "winnerId": 20751644, "entrant1Score": null, "entrant2Score": 0, "stage": null, "selections": [{"id": 46238792, "selectionType": "CHARACTER", "selectionValue": 1287, "entrant": {"id": 20721072}, "character": {"id": 1287, "name": "Ganondorf"}}, {"id": 46238793, "selectionType": "CHARACTER", "selectionValue": 1280, "entrant": {"id": 20751644}, "character": {"id": 1280, "name": "Donkey Kong"}}]}, {"id": 31409046, "orderNum": 2, "winnerId": 20721072, "entrant1Score": 0, "entrant2Score": null, "stage": null, "selections": [{"id": 46238794, "selectionType": "CHARACTER", "selectionValue": 1287, "entrant": {"id": 20721072}, "character": {"id": 1287, "name": "Ganondorf"}}, {"id": 46238795, "selectionType": "CHARACTER", "selectionValue": 1280, "entrant": {"id": 20751644}, "character": {"id": 1280, "name": "Donkey Kong"}}]}, {"id": 31409047, "orderNum": 3, "winnerId": 20751644, "entrant1Score": null, "entrant2Score": 0, "stage": null, "selections": [{"id": 46238796, "selectionType": "CHARACTER", "selectionValue": 1287, "entrant": {"id": 20721072}, "character": {"id": 1287, "name": "Ganondorf"}}, {"id": 46238797, "selectionType": "CHARACTER", "selectionValue": 1280, "entrant": {"id": 20751644}, "character": {"id": 1280, "name": "Donkey Kong"}}]}]}, {"id": 91667661, "state": 3, "round": 1, "fullRoundText": "Winners Semi-Final", "completedAt": 1753065432, "winnerId": 20749834, "slots": [{"id": "91667661-0", "entrant": {"id": 20749834, "name": "Penguin", "participants": [{"id": 19095390, "gamerTag": "Penguin", "prefix": "", "user": {"location": {"city": "Atlanta", "state": "GA", "country": "United States"}}, "player": {"id": 4287822, "gamerTag": "Heart", "prefix": "", "user": {"location": {"city": "Atlanta", "state": "GA", "country": "United States"}}}}]}, "standing": {"placement": 1, "stats": {"score": {"value": 3}}}}, {"id": "91667661-1", "entrant": {"id": 20751567, "name": "TnT | Sid", "participants": [{"id": 19097030, "gamerTag": "Sid", "prefix": "TnT", "user": {"location": {"city": "Powder Springs", "state": "GA", "country": "United States"}}, "player": {"id": 1229067, "gamerTag": "Sid", "prefix": "TnT", "user": {"location": {"city": "Powder Springs", "state": "GA", "country": "United States"}}}}]}, "standing": {"placement": 2, "stats": {"score": {"value": 2}}}}], "games": null}, {"id": 91667662, "state": 3, "round": 1, "fullRoundText": "Winners Semi-Final", "completedAt": 1753064102, "winnerId": 20749313, "slots": [{"id": "91667662-0", "entrant": {"id": 20749313, "name": "TFT | ALLEYCAT", "participants": [{"id": 19094879, "gamerTag": "ALLEYCAT", "prefix": "TFT", "user": {"location": {"city": "Atlanta", "state": "GA", "country": "United States"}}, "player": {"id": 1940654, "gamerTag": "ALLEYCAT", "prefix": "TFT", "user": {"location": {"city": "Atlanta", "state": "GA", "country": "United States"}}}}]}, "standing": {"placement": 1, "stats": {"score": {"value": 3}}}}, {"id": "91667662-1", "entrant": {"id": 20751713, "name": "TFT | Juug$tarr", "participants": [{"id": 19097176, "gamerTag": "Juug$tarr", "prefix": "TFT", "user": {"location": {"city": "Atlanta", "state": "GA", "country": "United States"}}, "player": {"id": 3621035, "gamerTag": "Juug$tarr", "prefix": "TFT", "user": {"location": {"city": "Atlanta", "state": "GA", "country": "United States"}}}}]}, "standing": {"placement": 2, "stats": {"score": {"value": 1}}}}], "games": null}, {"id": 91667302, "state": 3, "round": 1, "fullRoundText": "Winners Round 1", "completedAt": 1753058348, "winnerId": 20749834, "slots": [{"id": "91667302-0", "entrant": {"id": 20749834, "name": "Penguin", "participants": [{"id": 19095390, "gamerTag": "Penguin", "prefix": "", "user": {"location": {"city": "Atlanta", "state": "GA", "country": "United States"}}, "player": {"id": 4287822, "gamerTag": "Heart", "prefix": "", "user": {"location": {"city": "Atlanta", "state": "GA", "country": "United States"}}}}]}, "standing": {"placement": 1, "stats": {"score": {"value": 2}}}}, {"id": "91667302-1", "entrant": {"id": 20751717, "name": "Kev", "participants": [{"id": 19097180, "gamerTag": "Kev", "prefix": "", "user": {"location": {"city": "Manhattan", "state": null, "country": "United States"}}, "player": {"id": 3824468, "gamerTag": "Kev", "prefix": "", "user": {"location": {"city": "Manhattan", "state": null, "country": "United States"}}}}]}, "standing": {"placement": 2, "stats": {"score": {"value": 0}}}}], "games": null}, {"id": 91667418, "state": 3, "round": 1, "fullRoundText": "Winners Round 1", "completedAt": 1753058585, "winnerId": 20751869, "slots": [{"id": "91667418-0", "entrant": {"id": 20751869, "name": "RM | lawl", "participants": [{"id": 19097328, "gamerTag": "lawl", "prefix": "RM", "user": {"location": {"city": "Dacula", "state": "GA", "country": "United States"}}, "player": {"id": 2116990, "gamerTag": "lawl", "prefix": "RM", "user": {"location": {"city": "Dacula", "state": "GA", "country": "United States"}}}}]}, "standing": {"placement": 1, "stats": {"score": {"value": 2}}}}, {"id": "91667418-1", "entrant": {"id": 20749897, "name": "TFT | yxngcyborg", "participants": [{"id": 19095457, "gamerTag": "yxngcyborg", "prefix": "TFT", "user": {"location": {"city": "Atlanta", "state": "GA", "country": "United States"}}, "player": {"id": 1751817, "gamerTag": "Ricky Rudd", "prefix": "TFT", "user": {"location": {"city": "Atlanta", "state": "GA", "country": "United States"}}}}]}, "standing": {"placement": 2, "stats": {"score": {"value": 0}}}}], "games": [{"id": 31409122, "orderNum": 1, "winnerId": 20751869, "entrant1Score": null, "entrant2Score": 0, "stage": null, "selections": [{"id": 46238922, "selectionType": "CHARACTER", "selectionValue": 1286, "entrant": {"id": 20749897}, "character": {"id": 1286, "name": "Fox"}}, {"id": 46238923, "selectionType": "CHARACTER", "selectionValue": 1405, "entrant": {"id": 20751869}, "character": {"id": 1405, "name": "Mr. Game & Watch"}}]}, {"id": 31409123, "orderNum": 2, "winnerId": 20751869, "entrant1Score": null, "entrant2Score": 0, "stage": null, "selections": [{"id": 46238924, "selectionType": "CHARACTER", "selectionValue": 1286, "entrant": {"id": 20749897}, "character": {"id": 1286, "name": "Fox"}}, {"id": 46238925, "selectionType": "CHARACTER", "selectionValue": 1405, "entrant": {"id": 20751869}, "character": {"id": 1405, "name": "Mr. Game & Watch"}}]}]}]}}}