{"event": {"sets": {"pageInfo": {"totalPages": 2, "total": 20}, "nodes": [{"id": 94461306, "state": 3, "round": -4, "fullRoundText": "Losers Round 1", "completedAt": 1759081193, "winnerId": 21406535, "slots": [{"id": "94461306-0", "entrant": {"id": 21406535, "name": "417 | Impluvio", "participants": [{"id": 19676171, "gamerTag": "Impluvio", "prefix": "417", "user": {"location": {"city": null, "state": null, "country": null}}, "player": {"id": 2175953, "gamerTag": "Impluvio", "prefix": "417", "user": {"location": {"city": null, "state": null, "country": null}}}}]}, "standing": {"placement": 1, "stats": {"score": {"value": 2}}}}, {"id": "94461306-1", "entrant": {"id": 21406375, "name": "UGA | | samtwo", "participants": [{"id": 19652839, "gamerTag": "samtwo", "prefix": "UGA |", "user": {"location": {"city": "Athens", "state": "GA", "country": "United States"}}, "player": {"id": 1246662, "gamerTag": "samtwo", "prefix": "UGA |", "user": {"location": {"city": "Athens", "state": "GA", "country": "United States"}}}}]}, "standing": {"placement": 2, "stats": {"score": {"value": 0}}}}], "games": null}, {"id": 94461307, "state": 3, "round": -4, "fullRoundText": "Losers Round 1", "completedAt": 1759081548, "winnerId": 21405747, "slots": [{"id": "94461307-0", "entrant": {"id": 21405747, "name": "SweatOnly", "participants": [{"id": 19675447, "gamerTag": "SweatOnly", "prefix": "", "user": {"location": {"city": "Lilburn", "state": "GA", "country": "United States"}}, "player": {"id": 1406711, "gamerTag": "SweatOnly", "prefix": "", "user": {"location": {"city": "Lilburn", "state": "GA", "country": "United States"}}}}]}, "standing": {"placement": 1, "stats": {"score": {"value": 2}}}}, {"id": "94461307-1", "entrant": {"id": 21401624, "name": "CC | Vertebrae", "participants": [{"id": 19671808, "gamerTag": "Vertebrae", "prefix": "CC", "user": {"location": {"city": "Athens", "state": "GA", "country": "United States"}}, "player": {"id": 1583946, "gamerTag": "Vertebrae", "prefix": "CC", "user": {"location": {"city": "Athens", "state": "GA", "country": "United States"}}}}]}, "standing": {"placement": 2, "stats": {"score": {"value": 1}}}}], "games": null}, {"id": 94461268, "state": 3, "round": 1, "fullRoundText": "Winners Round 1", "completedAt": 1759080178, "winnerId": 21405747, "slots": [{"id": "94461268-0", "entrant": {"id": 21405747, "name": "SweatOnly", "participants": [{"id": 19675447, "gamerTag": "SweatOnly", "prefix": "", "user": {"location": {"city": "Lilburn", "state": "GA", "country": "United States"}}, "player": {"id": 1406711, "gamerTag": "SweatOnly", "prefix": "", "user": {"location": {"city": "Lilburn", "state": "GA", "country": "United States"}}}}]}, "standing": {"placement": 1, "stats": {"score": {"value": 2}}}}, {"id": "94461268-1", "entrant": {"id": 21382222, "name": "UGA | LaJohn", "participants": [{"id": 19655429, "gamerTag": "LaJohn", "prefix": "UGA", "user": {"location": {"city": "Suwanee", "state": "GA", "country": "United States"}}, "player": {"id": 1742867, "gamerTag": "LaJohn", "prefix": "UGA", "user": {"location": {"city": "Suwanee", "state": "GA", "country": "United States"}}}}]}, "standing": {"placement": 2, "stats": {"score": {"value": 0}}}}], "games": null}, {"id": 94461272, "state": 3, "round": 1, "fullRoundText": "Winners Round 1", "completedAt": 1759080521, "winnerId": 21378959, "slots": [{"id": "94461272-0", "entrant": {"id": 21378959, "name": "Sol | Spruce", "participants": [{"id": 19652554, "gamerTag": "Spruce", "prefix": "Sol", "user": {"location": {"city": null, "state": null, "country": "United States"}}, "player": {"id": 1100077, "gamerTag": "Spruce", "prefix": "Sol", "user": {"location": {"city": null, "state": null, "country": "United States"}}}}]}, "standing": {"placement": 1, "stats": {"score": {"value": 2}}}}, {"id": "94461272-1", "entrant": {"id": 21406375, "name": "UGA | | samtwo", "participants": [{"id": 19652839, "gamerTag": "samtwo", "prefix": "UGA |", "user": {"location": {"city": "Athens", "state": "GA", "country": "United States"}}, "player": {"id": 1246662, "gamerTag": "samtwo", "prefix": "UGA |", "user": {"location": {"city": "Athens", "state": "GA", "country": "United States"}}}}]}, "standing": {"placement": 2, "stats": {"score": {"value": 0}}}}], "games": null}, {"id": 94461274, "state": 3, "round": 1, "fullRoundText": "Winners Round 1", "completedAt": 1759080325, "winnerId": 21403223, "slots": [{"id": "94461274-0", "entrant": {"id": 21403223, "name": "PitchingAce33", "participants": [{"id": 19673166, "gamerTag": "PitchingAce33", "prefix": "", "user": {"location": {"city": null, "state": "GA", "country": "United States"}}, "player": {"id": 1198327, "gamerTag": "PitchingAce33", "prefix": "", "user": {"location": {"city": null, "state": "GA", "country": "United States"}}}}]}, "standing": {"placement": 1, "stats": {"score": {"value": 2}}}}, {"id": "94461274-1", "entrant": {"id": 21401624, "name": "CC | Vertebrae", "participants": [{"id": 19671808, "gamerTag": "Vertebrae", "prefix": "CC", "user": {"location": {"city": "Athens", "state": "GA", "country": "United States"}}, "player": {"id": 1583946, "gamerTag": "Vertebrae", "prefix": "CC", "user": {"location": {"city": "Athens", "state": "GA", "country": "United States"}}}}]}, "standing": {"placement": 2, "stats": {"score": {"value": 0}}}}], "games": null}]}}}