{"phase": {"seeds": {"pageInfo": {"totalPages": 1, "total": 28}, "nodes": [{"id": 36469751, "seedNum": 1, "entrant": {"id": 21168865, "name": "DGS | spickles", "participants": [{"id": 19469757, "gamerTag": "spickles", "prefix": "DGS", "user": {"location": {"city": null, "state": null, "country": "United States"}}, "player": {"id": 1154793, "gamerTag": "spickles", "prefix": "DGS", "user": {"location": {"city": null, "state": null, "country": "United States"}}}}]}}, {"id": 36472291, "seedNum": 3, "entrant": {"id": 21170560, "name": "GUMP2 | Spider", "participants": [{"id": 19471309, "gamerTag": "Spider", "prefix": "GUMP2", "user": {"location": {"city": "Atlanta", "state": "GA", "country": "United States"}}, "player": {"id": 691176, "gamerTag": "Spider", "prefix": "GUMP2", "user": {"location": {"city": "Atlanta", "state": "GA", "country": "United States"}}}}]}}, {"id": 36472073, "seedNum": 2, "entrant": {"id": 21170406, "name": "everyone else", "participants": [{"id": 19471156, "gamerTag": "everyone else", "prefix": "", "user": {"location": {"city": "Alpharetta", "state": "GA", "country": "United States"}}, "player": {"id": 1253838, "gamerTag": "everyone else", "prefix": "", "user": {"location": {"city": "Alpharetta", "state": "GA", "country": "United States"}}}}]}}, {"id": 36473555, "seedNum": 7, "entrant": {"id": 21171599, "name": "MilesisBae", "participants": [{"id": 19472263, "gamerTag": "MilesisBae", "prefix": "", "user": {"location": {"city": "Richmond", "state": "VA", "country": "United States"}}, "player": {"id": 1218383, "gamerTag": "MilesisBae", "prefix": "", "user": {"location": {"city": "Richmond", "state": "VA", "country": "United States"}}}}]}}, {"id": 36472971, "seedNum": 5, "entrant": {"id": 21171162, "name": "Barbashop", "participants": [{"id": 19471856, "gamerTag": "Barbashop", "prefix": "", "user": {"location": {"city": null, "state": null, "country": null}}, "player": {"id": 2537853, "gamerTag": "Barbashop", "prefix": "", "user": {"location": {"city": null, "state": null, "country": null}}}}]}}, {"id": 36473707, "seedNum": 9, "entrant": {"id": 21171734, "name": "tristories", "participants": [{"id": 19472385, "gamerTag": "tristories", "prefix": null, "user": {"location": {"city": "ATLANTA", "state": "GA", "country": "United States"}}, "player": {"id": 1406480, "gamerTag": "tristories", "prefix": "\u03b5\u03b2", "user": {"location": {"city": "ATLANTA", "state": "GA", "country": "United States"}}}}]}}, {"id": 36462943, "seedNum": 6, "entrant": {"id": 21164962, "name": "GUMP2 | STiCK", "participants": [{"id": 19466214, "gamerTag": "STiCK", "prefix": "GUMP2", "user": {"location": {"city": "Woodstock", "state": "GA", "country": "United States"}}, "player": {"id": 282674, "gamerTag": "STiCK", "prefix": "GUMP2", "user": {"location": {"city": "Woodstock", "state": "GA", "country": "United States"}}}}]}}, {"id": 36474642, "seedNum": 14, "entrant": {"id": 21172340, "name": "red dot", "participants": [{"id": 19472923, "gamerTag": "red dot", "prefix": "", "user": {"location": {"city": "Milton", "state": "GA", "country": "United States"}}, "player": {"id": 1812177, "gamerTag": "red dot", "prefix": "", "user": {"location": {"city": "Milton", "state": "GA", "country": "United States"}}}}]}}, {"id": 36467609, "seedNum": 4, "entrant": {"id": 21167433, "name": "GUMP2 | ToxiC", "participants": [{"id": 19468412, "gamerTag": "ToxiC", "prefix": "GUMP2", "user": {"location": {"city": "Marietta", "state": "GA", "country": "United States"}}, "player": {"id": 2585804, "gamerTag": "ToxiC", "prefix": "GUMP2", "user": {"location": {"city": "Marietta", "state": "GA", "country": "United States"}}}}]}}, {"id": 36472950, "seedNum": 8, "entrant": {"id": 21171141, "name": "PH | Nimbus", "participants": [{"id": 19471840, "gamerTag": "Nimbus", "prefix": "PH", "user": {"location": {"city": "Roswell", "state": "GA", "country": "United States"}}, "player": {"id": 36462, "gamerTag": "Nimbus", "prefix": "PH", "user": {"location": {"city": "Roswell", "state": "GA", "country": "United States"}}}}]}}, {"id": 36472967, "seedNum": 10, "entrant": {"id": 21171158, "name": "EVC | N8borsclub", "participants": [{"id": 19471852, "gamerTag": "N8borsclub", "prefix": "EVC", "user": {"location": {"city": "Smyrna", "state": "GA", "country": "United States"}}, "player": {"id": 1137803, "gamerTag": "N8borsclub", "prefix": "EVC", "user": {"location": {"city": "Smyrna", "state": "GA", "country": "United States"}}}}]}}, {"id": 36470556, "seedNum": 15, "entrant": {"id": 21169426, "name": "Rain~", "participants": [{"id": 19470252, "gamerTag": "Rain~", "prefix": null, "user": {"location": {"city": "Atlanta", "state": "GA", "country": "United States"}}, "player": {"id": 4240164, "gamerTag": "Rain~", "prefix": null, "user": {"location": {"city": "Atlanta", "state": "GA", "country": "United States"}}}}]}}, {"id": 36466219, "seedNum": 13, "entrant": {"id": 21166703, "name": "Daiyan", "participants": [{"id": 19467755, "gamerTag": "Daiyan", "prefix": "", "user": {"location": {"city": "Lawrenceville", "state": "GA", "country": "United States"}}, "player": {"id": 1059715, "gamerTag": "Daiyan", "prefix": "", "user": {"location": {"city": "Lawrenceville", "state": "GA", "country": "United States"}}}}]}}, {"id": 36470850, "seedNum": 16, "entrant": {"id": 21169614, "name": "UTO|WhaLey | Kingwifi", "participants": [{"id": 19470411, "gamerTag": "Kingwifi", "prefix": "UTO|WhaLey", "user": {"location": {"city": "Stone Mountain", "state": "GA", "country": "United States"}}, "player": {"id": 2016149, "gamerTag": "Whaley", "prefix": "KSU|UTO|BLZE", "user": {"location": {"city": "Stone Mountain", "state": "GA", "country": "United States"}}}}]}}, {"id": 36473626, "seedNum": 17, "entrant": {"id": 21171661, "name": "carlop", "participants": [{"id": 19472319, "gamerTag": "carlop", "prefix": null, "user": {"location": {"city": "Johns Creek", "state": "GA", "country": "United States"}}, "player": {"id": 3431919, "gamerTag": "carlop", "prefix": null, "user": {"location": {"city": "Johns Creek", "state": "GA", "country": "United States"}}}}]}}, {"id": 36471893, "seedNum": 18, "entrant": {"id": 21170235, "name": "KSU | colorful\u029a\u025e", "participants": [{"id": 19470997, "gamerTag": "colorful\u029a\u025e", "prefix": "KSU", "user": {"location": {"city": "Kennesaw", "state": "GA", "country": "United States"}}, "player": {"id": 1783074, "gamerTag": "colorful\u029a\u025e", "prefix": "KSU | RM", "user": {"location": {"city": "Kennesaw", "state": "GA", "country": "United States"}}}}]}}, {"id": 36473570, "seedNum": 11, "entrant": {"id": 21171605, "name": "Trout~", "participants": [{"id": 19472268, "gamerTag": "Trout~", "prefix": "", "user": {"location": {"city": "Lawrenceville", "state": "GA", "country": "United States"}}, "player": {"id": 905410, "gamerTag": "Primary Trout~", "prefix": "", "user": {"location": {"city": "Lawrenceville", "state": "GA", "country": "United States"}}}}]}}, {"id": 36471731, "seedNum": 12, "entrant": {"id": 21170141, "name": "Plaid", "participants": [{"id": 19470908, "gamerTag": "Plaid", "prefix": "", "user": {"location": {"city": null, "state": null, "country": null}}, "player": {"id": 1452882, "gamerTag": "Plaid", "prefix": "", "user": {"location": {"city": null, "state": null, "country": null}}}}]}}, {"id": 36473658, "seedNum": 19, "entrant": {"id": 21171693, "name": "SaggyMilkJug", "participants": [{"id": 19472347, "gamerTag": "SaggyMilkJug", "prefix": "", "user": {"location": {"city": "Atlanta", "state": "GA", "country": "United States"}}, "player": {"id": 4651404, "gamerTag": "SaggyMilkJug", "prefix": "", "user": {"location": {"city": "Atlanta", "state": "GA", "country": "United States"}}}}]}}, {"id": 36471185, "seedNum": 20, "entrant": {"id": 21169835, "name": "promamamia", "participants": [{"id": 19470624, "gamerTag": "promamamia", "prefix": "", "user": {"location": {"city": "Alpharetta", "state": "GA", "country": "United States"}}, "player": {"id": 3548468, "gamerTag": "promamamia", "prefix": "", "user": {"location": {"city": "Alpharetta", "state": "GA", "country": "United States"}}}}]}}, {"id": 36473612, "seedNum": 21, "entrant": {"id": 21171647, "name": "KSU | Subzero", "participants": [{"id": 19472307, "gamerTag": "Subzero", "prefix": "KSU", "user": {"location": {"city": "Acworth", "state": "GA", "country": "United States"}}, "player": {"id": 1808159, "gamerTag": "Subzero", "prefix": "KSU", "user": {"location": {"city": "Acworth", "state": "GA", "country": "United States"}}}}]}}, {"id": 36474275, "seedNum": 22, "entrant": {"id": 21172088, "name": "Zeal", "participants": [{"id": 19472701, "gamerTag": "Zeal", "prefix": "", "user": {"location": {"city": "Birmingham", "state": "AL", "country": "United States"}}, "player": {"id": 1522965, "gamerTag": "Zeal", "prefix": "", "user": {"location": {"city": "Birmingham", "state": "AL", "country": "United States"}}}}]}}, {"id": 36473052, "seedNum": 23, "entrant": {"id": 21171225, "name": "saimaimeng", "participants": [{"id": 19471910, "gamerTag": "saimaimeng", "prefix": null, "user": {"location": {"city": null, "state": null, "country": "United States"}}, "player": {"id": 1316833, "gamerTag": "saimaimeng", "prefix": null, "user": {"location": {"city": null, "state": null, "country": "United States"}}}}]}}, {"id": 36474565, "seedNum": 24, "entrant": {"id": 21172292, "name": "4o4 | Sh33rZ", "participants": [{"id": 19472881, "gamerTag": "Sh33rZ", "prefix": "4o4", "user": {"location": {"city": "alpharetta", "state": "GA", "country": "United States"}}, "player": {"id": 3640465, "gamerTag": "Sh33rZ", "prefix": "4o4", "user": {"location": {"city": "alpharetta", "state": "GA", "country": "United States"}}}}]}}, {"id": 36474307, "seedNum": 25, "entrant": {"id": 21172112, "name": "SamRice", "participants": [{"id": 19472721, "gamerTag": "SamRice", "prefix": "", "user": {"location": {"city": "Norcross", "state": "GA", "country": "United States"}}, "player": {"id": 2387403, "gamerTag": "SamRice", "prefix": "", "user": {"location": {"city": "Norcross", "state": "GA", "country": "United States"}}}}]}}, {"id": 36472767, "seedNum": 26, "entrant": {"id": 21171002, "name": "jack | jazzman", "participants": [{"id": 19471721, "gamerTag": "jazzman", "prefix": "jack", "user": {"location": {"city": "Athens", "state": "GA", "country": "United States"}}, "player": {"id": 3883272, "gamerTag": "jazzman", "prefix": "jack", "user": {"location": {"city": "Athens", "state": "GA", "country": "United States"}}}}]}}, {"id": 36471365, "seedNum": 27, "entrant": {"id": 21169973, "name": "AP | EdiblePine", "participants": [{"id": 19470752, "gamerTag": "EdiblePine", "prefix": "AP", "user": {"location": {"city": "Atlanta", "state": "GA", "country": "United States"}}, "player": {"id": 1648278, "gamerTag": "EdiblePine", "prefix": "AP", "user": {"location": {"city": "Atlanta", "state": "GA", "country": "United States"}}}}]}}, {"id": 36472068, "seedNum": 28, "entrant": {"id": 21170401, "name": "IceWave4", "participants": [{"id": 19471151, "gamerTag": "IceWave4", "prefix": null, "user": {"location": {"city": "Dallas", "state": "GA", "country": "United States"}}, "player": {"id": 4191196, "gamerTag": "IceWave4", "prefix": null, "user": {"location": {"city": "Dallas", "state": "GA", "country": "United States"}}}}]}}]}}}