{"phase": {"seeds": {"pageInfo": {"totalPages": 1, "total": 10}, "nodes": [{"id": 35756789, "seedNum": 1, "entrant": {"id": 20720087, "name": "LBE | Savant", "participants": [{"id": 19069258, "gamerTag": "Savant", "prefix": "LBE", "user": {"location": {"city": "Athens", "state": "GA", "country": "United States"}}, "player": {"id": 1944044, "gamerTag": "Savant", "prefix": "LBE | CC", "user": {"location": {"city": "Athens", "state": "GA", "country": "United States"}}}}]}}, {"id": 35790147, "seedNum": 2, "entrant": {"id": 20743747, "name": "Namefireball", "participants": [{"id": 19089630, "gamerTag": "Namefireball", "prefix": "", "user": {"location": {"city": "Columbus", "state": "GA", "country": "United States"}}, "player": {"id": 410800, "gamerTag": "Namefireball", "prefix": "", "user": {"location": {"city": "Columbus", "state": "GA", "country": "United States"}}}}]}}, {"id": 35663577, "seedNum": 5, "entrant": {"id": 20652280, "name": "ZB | Juniper", "participants": [{"id": 19010377, "gamerTag": "Juniper", "prefix": "ZB", "user": {"location": {"city": "Morrow", "state": "GA", "country": "United States"}}, "player": {"id": 46895, "gamerTag": "Juniper", "prefix": "ZB", "user": {"location": {"city": "Morrow", "state": "GA", "country": "United States"}}}}]}}, {"id": 35779917, "seedNum": 4, "entrant": {"id": 20735692, "name": "Droow", "participants": [{"id": 19082549, "gamerTag": "Droow", "prefix": null, "user": {"location": {"city": "Locust Grove", "state": "GA", "country": "United States"}}, "player": {"id": 3732761, "gamerTag": "Droow", "prefix": null, "user": {"location": {"city": "Locust Grove", "state": "GA", "country": "United States"}}}}]}}, {"id": 35789255, "seedNum": 3, "entrant": {"id": 20743071, "name": "ballmeat", "participants": [{"id": 19088983, "gamerTag": "ballmeat", "prefix": null, "user": {"location": {"city": "Alexandria", "state": "VA", "country": "United States"}}, "player": {"id": 2295476, "gamerTag": "ballmeat", "prefix": null, "user": {"location": {"city": "Alexandria", "state": "VA", "country": "United States"}}}}]}}, {"id": 35648807, "seedNum": 6, "entrant": {"id": 20642039, "name": "ZB | Sanaito", "participants": [{"id": 19001528, "gamerTag": "Sanaito", "prefix": "ZB", "user": {"location": {"city": "Fayetteville", "state": "GA", "country": "United States"}}, "player": {"id": 12761, "gamerTag": "Sanaito", "prefix": "ZB", "user": {"location": {"city": "Fayetteville", "state": "GA", "country": "United States"}}}}]}}, {"id": 35787667, "seedNum": 7, "entrant": {"id": 20741702, "name": "teamLUNAR | \u3042\u305a\u308c | Azure~", "participants": [{"id": 19087671, "gamerTag": "\u3042\u305a\u308c | Azure~", "prefix": "teamLUNAR", "user": {"location": {"city": null, "state": null, "country": "United States"}}, "player": {"id": 944415, "gamerTag": "\u3042\u305a\u308c | Azure~", "prefix": "teamLUNAR", "user": {"location": {"city": null, "state": null, "country": "United States"}}}}]}}, {"id": 35788139, "seedNum": 8, "entrant": {"id": 20742139, "name": "Donuts", "participants": [{"id": 19088120, "gamerTag": "Donuts", "prefix": "", "user": {"location": {"city": null, "state": null, "country": "Honduras"}}, "player": {"id": 2240418, "gamerTag": "Donuts", "prefix": "", "user": {"location": {"city": null, "state": null, "country": "Honduras"}}}}]}}, {"id": 35785830, "seedNum": 9, "entrant": {"id": 20740081, "name": "ZB | wolfy", "participants": [{"id": 19086119, "gamerTag": "wolfy", "prefix": "ZB", "user": {"location": {"city": "Tyrone", "state": "GA", "country": "United States"}}, "player": {"id": 295981, "gamerTag": "wolfy", "prefix": "ZB", "user": {"location": {"city": "Tyrone", "state": "GA", "country": "United States"}}}}]}}, {"id": 35790150, "seedNum": 10, "entrant": {"id": 20743750, "name": "Smith_Claxton", "participants": [{"id": 19082494, "gamerTag": "Smith_Claxton", "prefix": null, "user": {"location": {"city": "Griffin", "state": "GA", "country": "United States"}}, "player": {"id": 3459922, "gamerTag": "Smith_Claxton", "prefix": null, "user": {"location": {"city": "Griffin", "state": "GA", "country": "United States"}}}}]}}]}}}