{"phase": {"seeds": {"pageInfo": {"totalPages": 1, "total": 31}, "nodes": [{"id": 36010834, "seedNum": 1, "entrant": {"id": 20873128, "name": "upstate | Zanya", "participants": [{"id": 19206610, "gamerTag": "Zanya", "prefix": "upstate", "user": {"location": {"city": "Aurora", "state": "NY", "country": "United States"}}, "player": {"id": 266892, "gamerTag": "Zanya", "prefix": "upstate", "user": {"location": {"city": "Aurora", "state": "NY", "country": "United States"}}}}]}}, {"id": 35962771, "seedNum": 3, "entrant": {"id": 20843541, "name": "vivesthesia", "participants": [{"id": 19180308, "gamerTag": "vivesthesia", "prefix": null, "user": {"location": {"city": "Atlanta", "state": "GA", "country": "United States"}}, "player": {"id": 4395171, "gamerTag": "vivesthesia", "prefix": null, "user": {"location": {"city": "Atlanta", "state": "GA", "country": "United States"}}}}]}}, {"id": 35962867, "seedNum": 5, "entrant": {"id": 20843632, "name": "swaggerbee", "participants": [{"id": 19180395, "gamerTag": "swaggerbee", "prefix": "", "user": {"location": {"city": "Atlanta", "state": "GA", "country": "United States"}}, "player": {"id": 1687384, "gamerTag": "swaggerbee", "prefix": "", "user": {"location": {"city": "Atlanta", "state": "GA", "country": "United States"}}}}]}}, {"id": 36027830, "seedNum": 7, "entrant": {"id": 20883063, "name": "Taza", "participants": [{"id": 19215574, "gamerTag": "Taza", "prefix": null, "user": {"location": {"city": "Roswell", "state": "GA", "country": "United States"}}, "player": {"id": 278724, "gamerTag": "Taza", "prefix": null, "user": {"location": {"city": "Roswell", "state": "GA", "country": "United States"}}}}]}}, {"id": 36027207, "seedNum": 4, "entrant": {"id": 20882502, "name": "skyguy | bag", "participants": [{"id": 19215095, "gamerTag": "bag", "prefix": "skyguy", "user": {"location": {"city": "Atlanta", "state": "GA", "country": "United States"}}, "player": {"id": 271346, "gamerTag": "bag", "prefix": "skyguy", "user": {"location": {"city": "Atlanta", "state": "GA", "country": "United States"}}}}]}}, {"id": 35976852, "seedNum": 6, "entrant": {"id": 20852199, "name": "Napkino", "participants": [{"id": 19188311, "gamerTag": "Napkino", "prefix": "", "user": {"location": {"city": "", "state": "GA", "country": "United States"}}, "player": {"id": 1862124, "gamerTag": "Napkino", "prefix": "", "user": {"location": {"city": "", "state": "GA", "country": "United States"}}}}]}}, {"id": 35962822, "seedNum": 2, "entrant": {"id": 20843571, "name": "audrey", "participants": [{"id": 19180334, "gamerTag": "audrey", "prefix": null, "user": {"location": {"city": "Dunwoody", "state": "GA", "country": "United States"}}, "player": {"id": 1335864, "gamerTag": "audrey", "prefix": null, "user": {"location": {"city": "Dunwoody", "state": "GA", "country": "United States"}}}}]}}, {"id": 36025709, "seedNum": 10, "entrant": {"id": 20881290, "name": "hexjo", "participants": [{"id": 19213991, "gamerTag": "hexjo", "prefix": "", "user": {"location": {"city": "Boston", "state": "MA", "country": "United States"}}, "player": {"id": 29103, "gamerTag": "hexjo", "prefix": "", "user": {"location": {"city": "Boston", "state": "MA", "country": "United States"}}}}]}}, {"id": 35964529, "seedNum": 8, "entrant": {"id": 20844527, "name": "Wolven", "participants": [{"id": 19181228, "gamerTag": "Wolven", "prefix": null, "user": {"location": {"city": "Atlanta", "state": "GA", "country": "United States"}}, "player": {"id": 126978, "gamerTag": "Wolven", "prefix": null, "user": {"location": {"city": "Atlanta", "state": "GA", "country": "United States"}}}}]}}, {"id": 35960276, "seedNum": 9, "entrant": {"id": 20843475, "name": "N/a | C$", "participants": [{"id": 19180243, "gamerTag": "C$", "prefix": "N/a", "user": {"location": null}, "player": {"id": 228175, "gamerTag": "C$", "prefix": "N/a", "user": {"location": null}}}]}}, {"id": 36028095, "seedNum": 11, "entrant": {"id": 20883301, "name": "Bori", "participants": [{"id": 19215791, "gamerTag": "Bori", "prefix": null, "user": {"location": {"city": "Atlanta", "state": "GA", "country": "United States"}}, "player": {"id": 3126775, "gamerTag": "Bori", "prefix": null, "user": {"location": {"city": "Atlanta", "state": "GA", "country": "United States"}}}}]}}, {"id": 36027093, "seedNum": 12, "entrant": {"id": 20882420, "name": "JV5 | Tubesssbm", "participants": [{"id": 19215021, "gamerTag": "Tubesssbm", "prefix": "JV5", "user": {"location": {"city": "Decatur", "state": "GA", "country": "United States"}}, "player": {"id": 19956, "gamerTag": "Tubesssbm", "prefix": "JV5", "user": {"location": {"city": "Decatur", "state": "GA", "country": "United States"}}}}]}}, {"id": 36027197, "seedNum": 14, "entrant": {"id": 20882492, "name": "polynesian tomguy", "participants": [{"id": 19215087, "gamerTag": "polynesian tomguy", "prefix": "", "user": null, "player": {"id": 4910014, "gamerTag": "polynesian tomguy", "prefix": "", "user": null}}]}}, {"id": 36010516, "seedNum": 15, "entrant": {"id": 20872887, "name": "tushar!", "participants": [{"id": 19206400, "gamerTag": "tushar!", "prefix": "", "user": {"location": {"city": "Dunwoody", "state": "GA", "country": "United States"}}, "player": {"id": 1549795, "gamerTag": "tushar!", "prefix": "", "user": {"location": {"city": "Dunwoody", "state": "GA", "country": "United States"}}}}]}}, {"id": 36017754, "seedNum": 22, "entrant": {"id": 20875956, "name": "Deign", "participants": [{"id": 19208943, "gamerTag": "Deign", "prefix": null, "user": {"location": {"city": null, "state": null, "country": "United States"}}, "player": {"id": 325595, "gamerTag": "Deign", "prefix": "", "user": {"location": {"city": null, "state": null, "country": "United States"}}}}]}}, {"id": 35974869, "seedNum": 23, "entrant": {"id": 20850672, "name": "drimys", "participants": [{"id": 19186842, "gamerTag": "drimys", "prefix": null, "user": {"location": {"city": "Cumming", "state": "GA", "country": "United States"}}, "player": {"id": 2436958, "gamerTag": "drimys", "prefix": null, "user": {"location": {"city": "Cumming", "state": "GA", "country": "United States"}}}}]}}, {"id": 36003573, "seedNum": 13, "entrant": {"id": 20869172, "name": "Tsunami", "participants": [{"id": 19203116, "gamerTag": "Tsunami", "prefix": "", "user": {"location": {"city": "Rochester", "state": "NY", "country": "United States"}}, "player": {"id": 66963, "gamerTag": "Tsunami", "prefix": "", "user": {"location": {"city": "Rochester", "state": "NY", "country": "United States"}}}}]}}, {"id": 35963092, "seedNum": 16, "entrant": {"id": 20843763, "name": "SKRUNT | diremaykr", "participants": [{"id": 19180520, "gamerTag": "diremaykr", "prefix": "SKRUNT", "user": {"location": {"city": "Buford", "state": "GA", "country": "United States"}}, "player": {"id": 3207366, "gamerTag": "diremaykr", "prefix": "", "user": {"location": {"city": "Buford", "state": "GA", "country": "United States"}}}}]}}, {"id": 36026254, "seedNum": 17, "entrant": {"id": 20881776, "name": "citizendog", "participants": [{"id": 19214433, "gamerTag": "citizendog", "prefix": "", "user": {"location": {"city": "Monroe", "state": "GA", "country": "United States"}}, "player": {"id": 176325, "gamerTag": "citizendog", "prefix": "", "user": {"location": {"city": "Monroe", "state": "GA", "country": "United States"}}}}]}}, {"id": 35973968, "seedNum": 18, "entrant": {"id": 20850002, "name": "blaise", "participants": [{"id": 19186191, "gamerTag": "blaise", "prefix": "", "user": {"location": {"city": "douglasville", "state": "GA", "country": "United States"}}, "player": {"id": 1326121, "gamerTag": "blaise", "prefix": "", "user": {"location": {"city": "douglasville", "state": "GA", "country": "United States"}}}}]}}, {"id": 35981061, "seedNum": 19, "entrant": {"id": 20855237, "name": "noided", "participants": [{"id": 19190945, "gamerTag": "noided", "prefix": "", "user": {"location": {"city": "Atlanta", "state": "GA", "country": "United States"}}, "player": {"id": 2586521, "gamerTag": "noided", "prefix": "", "user": {"location": {"city": "Atlanta", "state": "GA", "country": "United States"}}}}]}}, {"id": 36027127, "seedNum": 20, "entrant": {"id": 20882455, "name": "Tyme", "participants": [{"id": 19215054, "gamerTag": "Tyme", "prefix": null, "user": {"location": {"city": null, "state": null, "country": null}}, "player": {"id": 325589, "gamerTag": "Tyme", "prefix": null, "user": {"location": {"city": null, "state": null, "country": null}}}}]}}, {"id": 36025070, "seedNum": 21, "entrant": {"id": 20880848, "name": "TSOAP | MuchOlmec", "participants": [{"id": 19213561, "gamerTag": "MuchOlmec", "prefix": "TSOAP", "user": {"location": {"city": "Athens", "state": "GA", "country": "United States"}}, "player": {"id": 1105460, "gamerTag": "MuchOlmec", "prefix": "TSOAP", "user": {"location": {"city": "Athens", "state": "GA", "country": "United States"}}}}]}}, {"id": 36027344, "seedNum": 24, "entrant": {"id": 20882638, "name": "Newt Man", "participants": [{"id": 19215208, "gamerTag": "Newt Man", "prefix": "", "user": {"location": {"city": null, "state": null, "country": "United States"}}, "player": {"id": 4726806, "gamerTag": "Newt Man", "prefix": "", "user": {"location": {"city": null, "state": null, "country": "United States"}}}}]}}, {"id": 36024816, "seedNum": 25, "entrant": {"id": 20880614, "name": "TSOAP | Slothy", "participants": [{"id": 19213352, "gamerTag": "Slothy", "prefix": "TSOAP", "user": {"location": {"city": "", "state": "GA", "country": "United States"}}, "player": {"id": 3475413, "gamerTag": "Slothy", "prefix": "TSOAP", "user": {"location": {"city": "", "state": "GA", "country": "United States"}}}}]}}, {"id": 36025157, "seedNum": 26, "entrant": {"id": 20880923, "name": "iamxenongas", "participants": [{"id": 19213634, "gamerTag": "iamxenongas", "prefix": null, "user": {"location": {"city": null, "state": "GA", "country": "United States"}}, "player": {"id": 4722621, "gamerTag": "iamxenongas", "prefix": null, "user": {"location": {"city": null, "state": "GA", "country": "United States"}}}}]}}, {"id": 36027782, "seedNum": 27, "entrant": {"id": 20883040, "name": "STEEZY", "participants": [{"id": 19215553, "gamerTag": "STEEZY", "prefix": null, "user": {"location": {"city": "HELL", "state": "GA", "country": "United States"}}, "player": {"id": 2496238, "gamerTag": "STEEZY", "prefix": null, "user": {"location": {"city": "HELL", "state": "GA", "country": "United States"}}}}]}}, {"id": 36018508, "seedNum": 28, "entrant": {"id": 20876482, "name": "TPS | cryptonic", "participants": [{"id": 19209421, "gamerTag": "cryptonic", "prefix": "TPS", "user": {"location": {"city": "Acworth", "state": "GA", "country": "United States"}}, "player": {"id": 3422494, "gamerTag": "$CAITLIN", "prefix": "TPS", "user": {"location": {"city": "Acworth", "state": "GA", "country": "United States"}}}}]}}, {"id": 35974741, "seedNum": 29, "entrant": {"id": 20850554, "name": "afterimage", "participants": [{"id": 19186722, "gamerTag": "afterimage", "prefix": "", "user": {"location": {"city": "Atlanta", "state": "GA", "country": "United States"}}, "player": {"id": 4435133, "gamerTag": "popsicle", "prefix": "", "user": {"location": {"city": "Atlanta", "state": "GA", "country": "United States"}}}}]}}, {"id": 36025866, "seedNum": 30, "entrant": {"id": 20881429, "name": "BigSleep", "participants": [{"id": 19214126, "gamerTag": "BigSleep", "prefix": null, "user": {"location": {"city": null, "state": "GA", "country": "United States"}}, "player": {"id": 3638029, "gamerTag": "BigSleep", "prefix": null, "user": {"location": {"city": null, "state": "GA", "country": "United States"}}}}]}}, {"id": 36026050, "seedNum": 31, "entrant": {"id": 20881593, "name": "June!", "participants": [{"id": 19214275, "gamerTag": "June!", "prefix": null, "user": {"location": {"city": null, "state": "GA", "country": "United States"}}, "player": {"id": 1969803, "gamerTag": "June!", "prefix": null, "user": {"location": {"city": null, "state": "GA", "country": "United States"}}}}]}}]}}}