{"event": {"sets": {"pageInfo": {"totalPages": 5, "total": 66}, "nodes": [{"id": 93342140, "state": 3, "round": -6, "fullRoundText": "Losers Round 3", "completedAt": 1756665670, "winnerId": 20948730, "slots": [{"id": "93342140-0", "entrant": {"id": 20948730, "name": "QTE | ItsItsFerrni", "participants": [{"id": 19273494, "gamerTag": "ItsItsFerrni", "prefix": "QTE", "user": {"location": {"city": "Auburn", "state": "GA", "country": "United States"}}, "player": {"id": 1472387, "gamerTag": "xXx_ItsFerrni_xXx", "prefix": "QTE", "user": {"location": {"city": "Auburn", "state": "GA", "country": "United States"}}}}]}, "standing": {"placement": 1, "stats": {"score": {"value": 3}}}}, {"id": "93342140-1", "entrant": {"id": 21057643, "name": "Seth A.F.", "participants": [{"id": 19370158, "gamerTag": "Seth A.F.", "prefix": "", "user": {"location": {"city": "Athens", "state": null, "country": null}}, "player": {"id": 1576714, "gamerTag": "Seth A.F.", "prefix": "", "user": {"location": {"city": "Athens", "state": null, "country": null}}}}]}, "standing": {"placement": 2, "stats": {"score": {"value": 2}}}}], "games": null}, {"id": 93342141, "state": 3, "round": -6, "fullRoundText": "Losers Round 3", "completedAt": 1756664398, "winnerId": 20935381, "slots": [{"id": "93342141-0", "entrant": {"id": 20855951, "name": "Slowpokemasta", "participants": [{"id": 19191506, "gamerTag": "Slowpokemasta", "prefix": "", "user": {"location": {"city": "ROME", "state": null, "country": "United States"}}, "player": {"id": 4101823, "gamerTag": "Slowpokemasta", "prefix": "", "user": {"location": {"city": "ROME", "state": null, "country": "United States"}}}}]}, "standing": {"placement": 2, "stats": {"score": {"value": 1}}}}, {"id": "93342141-1", "entrant": {"id": 20935381, "name": "ATLRiot", "participants": [{"id": 19261454, "gamerTag": "ATLRiot", "prefix": "", "user": {"location": {"city": "Augusta", "state": "GA", "country": "United States"}}, "player": {"id": 2057913, "gamerTag": "ATLRiot", "prefix": "", "user": {"location": {"city": "Augusta", "state": "GA", "country": "United States"}}}}]}, "standing": {"placement": 1, "stats": {"score": {"value": 3}}}}], "games": null}, {"id": 93342142, "state": 3, "round": -6, "fullRoundText": "Losers Round 3", "completedAt": 1756664464, "winnerId": 21124913, "slots": [{"id": "93342142-0", "entrant": {"id": 21124913, "name": "Magic", "participants": [{"id": 19430696, "gamerTag": "Magic", "prefix": null, "user": {"location": {"city": null, "state": null, "country": "United States"}}, "player": {"id": 1722236, "gamerTag": "Magic", "prefix": null, "user": {"location": {"city": null, "state": null, "country": "United States"}}}}]}, "standing": {"placement": 1, "stats": {"score": {"value": 3}}}}, {"id": "93342142-1", "entrant": {"id": 21088531, "name": "Fl0wchart", "participants": [{"id": 19398080, "gamerTag": "Fl0wchart", "prefix": null, "user": {"location": {"city": "Burnsville", "state": null, "country": null}}, "player": {"id": 864596, "gamerTag": "Fl0wchart", "prefix": null, "user": {"location": {"city": "Burnsville", "state": null, "country": null}}}}]}, "standing": {"placement": 2, "stats": {"score": {"value": 0}}}}], "games": null}, {"id": 93342143, "state": 3, "round": -6, "fullRoundText": "Losers Round 3", "completedAt": 1756665334, "winnerId": 21118964, "slots": [{"id": "93342143-0", "entrant": {"id": 21126099, "name": "TROLLGANG | e-mail", "participants": [{"id": 19431860, "gamerTag": "e-mail", "prefix": "TROLLGANG", "user": {"location": {"city": "Atlanta", "state": "GA", "country": "United States"}}, "player": {"id": 1003300, "gamerTag": "GRUGCEL", "prefix": "TROLLGANG", "user": {"location": {"city": "Atlanta", "state": "GA", "country": "United States"}}}}]}, "standing": {"placement": 2, "stats": {"score": {"value": 2}}}}, {"id": "93342143-1", "entrant": {"id": 21118964, "name": "Gamestradamous", "participants": [{"id": 19425551, "gamerTag": "Gamestradamous", "prefix": null, "user": {"location": {"city": "Arlington", "state": "TX", "country": "United States"}}, "player": {"id": 2701839, "gamerTag": "Gamestradamous", "prefix": null, "user": {"location": {"city": "Arlington", "state": "TX", "country": "United States"}}}}]}, "standing": {"placement": 1, "stats": {"score": {"value": 3}}}}], "games": null}, {"id": 93342144, "state": 3, "round": -6, "fullRoundText": "Losers Round 3", "completedAt": 1756663980, "winnerId": 21119382, "slots": [{"id": "93342144-0", "entrant": {"id": 21119382, "name": "Jemi Keiyns", "participants": [{"id": 19425900, "gamerTag": "Jemi Keiyns", "prefix": "", "user": {"location": {"city": null, "state": null, "country": null}}, "player": {"id": 3640628, "gamerTag": "Jemi Keiyns", "prefix": "", "user": {"location": {"city": null, "state": null, "country": null}}}}]}, "standing": {"placement": 1, "stats": {"score": {"value": 3}}}}, {"id": "93342144-1", "entrant": {"id": 21126047, "name": "LULZ | Sidewinder Sam", "participants": [{"id": 19431810, "gamerTag": "Sidewinder Sam", "prefix": "LULZ", "user": {"location": {"city": null, "state": null, "country": null}}, "player": {"id": 3421193, "gamerTag": "Sidewinder Sam", "prefix": "LULZ", "user": {"location": {"city": null, "state": null, "country": null}}}}]}, "standing": {"placement": 2, "stats": {"score": {"value": 0}}}}], "games": null}, {"id": 93342145, "state": 3, "round": -6, "fullRoundText": "Losers Round 3", "completedAt": 1756664515, "winnerId": 21128909, "slots": [{"id": "93342145-0", "entrant": {"id": 20773488, "name": "IVY | Fuhgetabaddit", "participants": [{"id": 19117964, "gamerTag": "Fuhgetabaddit", "prefix": "IVY", "user": {"location": {"city": "Tucker", "state": "GA", "country": "United States"}}, "player": {"id": 1183271, "gamerTag": "Fuhgetabaddit", "prefix": "IVY", "user": {"location": {"city": "Tucker", "state": "GA", "country": "United States"}}}}]}, "standing": {"placement": 2, "stats": {"score": {"value": 2}}}}, {"id": "93342145-1", "entrant": {"id": 21128909, "name": "cheif347", "participants": [{"id": 19434696, "gamerTag": "cheif347", "prefix": null, "user": {"location": {"city": "Bowdon", "state": "GA", "country": "United States"}}, "player": {"id": 4405307, "gamerTag": "cheif347", "prefix": null, "user": {"location": {"city": "Bowdon", "state": "GA", "country": "United States"}}}}]}, "standing": {"placement": 1, "stats": {"score": {"value": 3}}}}], "games": null}, {"id": 93342146, "state": 3, "round": -6, "fullRoundText": "Losers Round 3", "completedAt": 1756663784, "winnerId": 21070661, "slots": [{"id": "93342146-0", "entrant": {"id": 21070661, "name": "EvilDED2", "participants": [{"id": 19382027, "gamerTag": "EvilDED2", "prefix": null, "user": {"location": {"city": "ATLANTA", "state": "GA", "country": "United States"}}, "player": {"id": 3002216, "gamerTag": "EvilDED2", "prefix": null, "user": {"location": {"city": "ATLANTA", "state": "GA", "country": "United States"}}}}]}, "standing": {"placement": 1, "stats": {"score": {"value": 3}}}}, {"id": "93342146-1", "entrant": {"id": 21104955, "name": "HyperT", "participants": [{"id": 19412950, "gamerTag": "HyperT", "prefix": "", "user": {"location": {"city": "Evans", "state": "GA", "country": "United States"}}, "player": {"id": 4945153, "gamerTag": "HyperT", "prefix": "", "user": {"location": {"city": "Evans", "state": "GA", "country": "United States"}}}}]}, "standing": {"placement": 2, "stats": {"score": {"value": 0}}}}], "games": null}, {"id": 93342147, "state": 3, "round": -6, "fullRoundText": "Losers Round 3", "completedAt": 1756665380, "winnerId": 21119763, "slots": [{"id": "93342147-0", "entrant": {"id": 20810835, "name": "CyberPomme", "participants": [{"id": 19151697, "gamerTag": "CyberPomme", "prefix": null, "user": {"location": {"city": "Atlanta", "state": "GA", "country": "United States"}}, "player": {"id": 4555347, "gamerTag": "CyberPomme", "prefix": null, "user": {"location": {"city": "Atlanta", "state": "GA", "country": "United States"}}}}]}, "standing": {"placement": 2, "stats": {"score": {"value": 1}}}}, {"id": "93342147-1", "entrant": {"id": 21119763, "name": "swillz", "participants": [{"id": 19426183, "gamerTag": "swillz", "prefix": null, "user": {"location": {"city": "St. John", "state": "IN", "country": "United States"}}, "player": {"id": 3607366, "gamerTag": "swillz", "prefix": null, "user": {"location": {"city": "St. John", "state": "IN", "country": "United States"}}}}]}, "standing": {"placement": 1, "stats": {"score": {"value": 3}}}}], "games": null}, {"id": 93342132, "state": 3, "round": -5, "fullRoundText": "Losers Round 2", "completedAt": 1756662626, "winnerId": 21057643, "slots": [{"id": "93342132-0", "entrant": {"id": 21057643, "name": "Seth A.F.", "participants": [{"id": 19370158, "gamerTag": "Seth A.F.", "prefix": "", "user": {"location": {"city": "Athens", "state": null, "country": null}}, "player": {"id": 1576714, "gamerTag": "Seth A.F.", "prefix": "", "user": {"location": {"city": "Athens", "state": null, "country": null}}}}]}, "standing": {"placement": 1, "stats": {"score": {"value": null}}}}, {"id": "93342132-1", "entrant": {"id": 21115638, "name": "EXC | Blinduv", "participants": [{"id": 19422556, "gamerTag": "Blinduv", "prefix": "EXC", "user": {"location": {"city": "Richmond", "state": "VA", "country": "United States"}}, "player": {"id": 1236931, "gamerTag": "Blinduv", "prefix": "EXC", "user": {"location": {"city": "Richmond", "state": "VA", "country": "United States"}}}}]}, "standing": {"placement": 2, "stats": {"score": {"value": -1}}}}], "games": null}, {"id": 93342133, "state": 3, "round": -5, "fullRoundText": "Losers Round 2", "completedAt": 1756662495, "winnerId": 20935381, "slots": [{"id": "93342133-0", "entrant": {"id": 21070468, "name": "Oni_Shogi", "participants": [{"id": 19381871, "gamerTag": "Oni_Shogi", "prefix": "", "user": {"location": {"city": "Atlanta", "state": "GA", "country": "United States"}}, "player": {"id": 1400524, "gamerTag": "Oni_Shogi", "prefix": "", "user": {"location": {"city": "Atlanta", "state": "GA", "country": "United States"}}}}]}, "standing": {"placement": 2, "stats": {"score": {"value": -1}}}}, {"id": "93342133-1", "entrant": {"id": 20935381, "name": "ATLRiot", "participants": [{"id": 19261454, "gamerTag": "ATLRiot", "prefix": "", "user": {"location": {"city": "Augusta", "state": "GA", "country": "United States"}}, "player": {"id": 2057913, "gamerTag": "ATLRiot", "prefix": "", "user": {"location": {"city": "Augusta", "state": "GA", "country": "United States"}}}}]}, "standing": {"placement": 1, "stats": {"score": {"value": null}}}}], "games": null}, {"id": 93342134, "state": 3, "round": -5, "fullRoundText": "Losers Round 2", "completedAt": 1756662279, "winnerId": 21088531, "slots": [{"id": "93342134-0", "entrant": {"id": 21088531, "name": "Fl0wchart", "participants": [{"id": 19398080, "gamerTag": "Fl0wchart", "prefix": null, "user": {"location": {"city": "Burnsville", "state": null, "country": null}}, "player": {"id": 864596, "gamerTag": "Fl0wchart", "prefix": null, "user": {"location": {"city": "Burnsville", "state": null, "country": null}}}}]}, "standing": {"placement": 1, "stats": {"score": {"value": 3}}}}, {"id": "93342134-1", "entrant": {"id": 21107154, "name": "1TuffHombrey", "participants": [{"id": 19414858, "gamerTag": "1TuffHombrey", "prefix": null, "user": {"location": {"city": "Charlotte", "state": null, "country": "United States"}}, "player": {"id": 498371, "gamerTag": "1TuffHombrey", "prefix": null, "user": {"location": {"city": "Charlotte", "state": null, "country": "United States"}}}}]}, "standing": {"placement": 2, "stats": {"score": {"value": 0}}}}], "games": null}, {"id": 93342135, "state": 3, "round": -5, "fullRoundText": "Losers Round 2", "completedAt": 1756663227, "winnerId": 21118964, "slots": [{"id": "93342135-0", "entrant": {"id": 20919699, "name": "FriskyWalrus", "participants": [{"id": 19247773, "gamerTag": "FriskyWalrus", "prefix": null, "user": {"location": {"city": "ATL", "state": "GA", "country": "United States"}}, "player": {"id": 3198094, "gamerTag": "FriskyWalrus", "prefix": null, "user": {"location": {"city": "ATL", "state": "GA", "country": "United States"}}}}]}, "standing": {"placement": 2, "stats": {"score": {"value": -1}}}}, {"id": "93342135-1", "entrant": {"id": 21118964, "name": "Gamestradamous", "participants": [{"id": 19425551, "gamerTag": "Gamestradamous", "prefix": null, "user": {"location": {"city": "Arlington", "state": "TX", "country": "United States"}}, "player": {"id": 2701839, "gamerTag": "Gamestradamous", "prefix": null, "user": {"location": {"city": "Arlington", "state": "TX", "country": "United States"}}}}]}, "standing": {"placement": 1, "stats": {"score": {"value": null}}}}], "games": null}, {"id": 93342136, "state": 3, "round": -5, "fullRoundText": "Losers Round 2", "completedAt": 1756663333, "winnerId": 21126047, "slots": [{"id": "93342136-0", "entrant": {"id": 20930708, "name": "Greed", "participants": [{"id": 19257182, "gamerTag": "Greed", "prefix": "", "user": {"location": {"city": null, "state": null, "country": null}}, "player": {"id": 4917770, "gamerTag": "Greed", "prefix": "", "user": {"location": {"city": null, "state": null, "country": null}}}}]}, "standing": {"placement": 2, "stats": {"score": {"value": 0}}}}, {"id": "93342136-1", "entrant": {"id": 21126047, "name": "LULZ | Sidewinder Sam", "participants": [{"id": 19431810, "gamerTag": "Sidewinder Sam", "prefix": "LULZ", "user": {"location": {"city": null, "state": null, "country": null}}, "player": {"id": 3421193, "gamerTag": "Sidewinder Sam", "prefix": "LULZ", "user": {"location": {"city": null, "state": null, "country": null}}}}]}, "standing": {"placement": 1, "stats": {"score": {"value": 3}}}}], "games": null}, {"id": 93342137, "state": 3, "round": -5, "fullRoundText": "Losers Round 2", "completedAt": 1756662310, "winnerId": 21128909, "slots": [{"id": "93342137-0", "entrant": {"id": 21128909, "name": "cheif347", "participants": [{"id": 19434696, "gamerTag": "cheif347", "prefix": null, "user": {"location": {"city": "Bowdon", "state": "GA", "country": "United States"}}, "player": {"id": 4405307, "gamerTag": "cheif347", "prefix": null, "user": {"location": {"city": "Bowdon", "state": "GA", "country": "United States"}}}}]}, "standing": {"placement": 1, "stats": {"score": {"value": 3}}}}, {"id": "93342137-1", "entrant": {"id": 21118197, "name": "VGYT | Ankha5", "participants": [{"id": 19424807, "gamerTag": "Ankha5", "prefix": "VGYT", "user": {"location": {"city": "Marietta", "state": "GA", "country": "United States"}}, "player": {"id": 3578540, "gamerTag": "Ankha5", "prefix": "VGYT", "user": {"location": {"city": "Marietta", "state": "GA", "country": "United States"}}}}]}, "standing": {"placement": 2, "stats": {"score": {"value": 0}}}}], "games": null}, {"id": 93342138, "state": 3, "round": -5, "fullRoundText": "Losers Round 2", "completedAt": 1756661769, "winnerId": 21104955, "slots": [{"id": "93342138-0", "entrant": {"id": 21100718, "name": "CHINGU | Bahamut", "participants": [{"id": 19409109, "gamerTag": "Bahamut", "prefix": "CHINGU", "user": {"location": {"city": "Atlanta", "state": "GA", "country": "United States"}}, "player": {"id": 3598331, "gamerTag": "Bahamut", "prefix": "", "user": {"location": {"city": "Atlanta", "state": "GA", "country": "United States"}}}}]}, "standing": {"placement": 2, "stats": {"score": {"value": null}}}}, {"id": "93342138-1", "entrant": {"id": 21104955, "name": "HyperT", "participants": [{"id": 19412950, "gamerTag": "HyperT", "prefix": "", "user": {"location": {"city": "Evans", "state": "GA", "country": "United States"}}, "player": {"id": 4945153, "gamerTag": "HyperT", "prefix": "", "user": {"location": {"city": "Evans", "state": "GA", "country": "United States"}}}}]}, "standing": {"placement": 1, "stats": {"score": {"value": null}}}}], "games": null}]}}}