{"event": {"sets": {"pageInfo": {"totalPages": 1, "total": 13}, "nodes": [{"id": 92091750, "state": 3, "round": 4, "fullRoundText": "Grand Final", "completedAt": 1754014473, "winnerId": 20843544, "slots": [{"id": "92091750-0", "entrant": {"id": 20825866, "name": "swaggerbee", "participants": [{"id": 19164670, "gamerTag": "swaggerbee", "prefix": "", "user": {"location": {"city": "Atlanta", "state": "GA", "country": "United States"}}, "player": {"id": 1687384, "gamerTag": "swaggerbee", "prefix": "", "user": {"location": {"city": "Atlanta", "state": "GA", "country": "United States"}}}}]}, "standing": {"placement": 2, "stats": {"score": {"value": 2}}}}, {"id": "92091750-1", "entrant": {"id": 20843544, "name": "vivesthesia", "participants": [{"id": 19180311, "gamerTag": "vivesthesia", "prefix": null, "user": {"location": {"city": "Atlanta", "state": "GA", "country": "United States"}}, "player": {"id": 4395171, "gamerTag": "vivesthesia", "prefix": null, "user": {"location": {"city": "Atlanta", "state": "GA", "country": "United States"}}}}]}, "standing": {"placement": 1, "stats": {"score": {"value": 3}}}}], "games": null}, {"id": 92091751, "state": 3, "round": 4, "fullRoundText": "Grand Final Reset", "completedAt": 1754014491, "winnerId": 20843544, "slots": [{"id": "92091751-0", "entrant": {"id": 20843544, "name": "vivesthesia", "participants": [{"id": 19180311, "gamerTag": "vivesthesia", "prefix": null, "user": {"location": {"city": "Atlanta", "state": "GA", "country": "United States"}}, "player": {"id": 4395171, "gamerTag": "vivesthesia", "prefix": null, "user": {"location": {"city": "Atlanta", "state": "GA", "country": "United States"}}}}]}, "standing": {"placement": 1, "stats": {"score": {"value": 3}}}}, {"id": "92091751-1", "entrant": {"id": 20825866, "name": "swaggerbee", "participants": [{"id": 19164670, "gamerTag": "swaggerbee", "prefix": "", "user": {"location": {"city": "Atlanta", "state": "GA", "country": "United States"}}, "player": {"id": 1687384, "gamerTag": "swaggerbee", "prefix": "", "user": {"location": {"city": "Atlanta", "state": "GA", "country": "United States"}}}}]}, "standing": {"placement": 2, "stats": {"score": {"value": 1}}}}], "games": null}, {"id": 92091749, "state": 3, "round": 3, "fullRoundText": "Winners Final", "completedAt": 1754011103, "winnerId": 20825866, "slots": [{"id": "92091749-0", "entrant": {"id": 20832630, "name": "audrey", "participants": [{"id": 19170983, "gamerTag": "audrey", "prefix": null, "user": {"location": {"city": "Dunwoody", "state": "GA", "country": "United States"}}, "player": {"id": 1335864, "gamerTag": "audrey", "prefix": null, "user": {"location": {"city": "Dunwoody", "state": "GA", "country": "United States"}}}}]}, "standing": {"placement": 2, "stats": {"score": {"value": 1}}}}, {"id": "92091749-1", "entrant": {"id": 20825866, "name": "swaggerbee", "participants": [{"id": 19164670, "gamerTag": "swaggerbee", "prefix": "", "user": {"location": {"city": "Atlanta", "state": "GA", "country": "United States"}}, "player": {"id": 1687384, "gamerTag": "swaggerbee", "prefix": "", "user": {"location": {"city": "Atlanta", "state": "GA", "country": "United States"}}}}]}, "standing": {"placement": 1, "stats": {"score": {"value": 3}}}}], "games": null}, {"id": 92091765, "state": 3, "round": -6, "fullRoundText": "Losers Final", "completedAt": 1754012326, "winnerId": 20843544, "slots": [{"id": "92091765-0", "entrant": {"id": 20832630, "name": "audrey", "participants": [{"id": 19170983, "gamerTag": "audrey", "prefix": null, "user": {"location": {"city": "Dunwoody", "state": "GA", "country": "United States"}}, "player": {"id": 1335864, "gamerTag": "audrey", "prefix": null, "user": {"location": {"city": "Dunwoody", "state": "GA", "country": "United States"}}}}]}, "standing": {"placement": 2, "stats": {"score": {"value": 1}}}}, {"id": "92091765-1", "entrant": {"id": 20843544, "name": "vivesthesia", "participants": [{"id": 19180311, "gamerTag": "vivesthesia", "prefix": null, "user": {"location": {"city": "Atlanta", "state": "GA", "country": "United States"}}, "player": {"id": 4395171, "gamerTag": "vivesthesia", "prefix": null, "user": {"location": {"city": "Atlanta", "state": "GA", "country": "United States"}}}}]}, "standing": {"placement": 1, "stats": {"score": {"value": 3}}}}], "games": null}, {"id": 92091764, "state": 3, "round": -5, "fullRoundText": "Losers Semi-Final", "completedAt": 1754010492, "winnerId": 20843544, "slots": [{"id": "92091764-0", "entrant": {"id": 20843544, "name": "vivesthesia", "participants": [{"id": 19180311, "gamerTag": "vivesthesia", "prefix": null, "user": {"location": {"city": "Atlanta", "state": "GA", "country": "United States"}}, "player": {"id": 4395171, "gamerTag": "vivesthesia", "prefix": null, "user": {"location": {"city": "Atlanta", "state": "GA", "country": "United States"}}}}]}, "standing": {"placement": 1, "stats": {"score": {"value": 3}}}}, {"id": "92091764-1", "entrant": {"id": 20854332, "name": "Erran", "participants": [{"id": 19190200, "gamerTag": "Erran", "prefix": "", "user": {"location": {"city": "Atlanta", "state": "GA", "country": "United States"}}, "player": {"id": 36706, "gamerTag": "Erran", "prefix": "", "user": {"location": {"city": "Atlanta", "state": "GA", "country": "United States"}}}}]}, "standing": {"placement": 2, "stats": {"score": {"value": 0}}}}], "games": null}, {"id": 92091747, "state": 3, "round": 2, "fullRoundText": "Winners Semi-Final", "completedAt": 1754008411, "winnerId": 20832630, "slots": [{"id": "92091747-0", "entrant": {"id": 20832630, "name": "audrey", "participants": [{"id": 19170983, "gamerTag": "audrey", "prefix": null, "user": {"location": {"city": "Dunwoody", "state": "GA", "country": "United States"}}, "player": {"id": 1335864, "gamerTag": "audrey", "prefix": null, "user": {"location": {"city": "Dunwoody", "state": "GA", "country": "United States"}}}}]}, "standing": {"placement": 1, "stats": {"score": {"value": 3}}}}, {"id": "92091747-1", "entrant": {"id": 20854332, "name": "Erran", "participants": [{"id": 19190200, "gamerTag": "Erran", "prefix": "", "user": {"location": {"city": "Atlanta", "state": "GA", "country": "United States"}}, "player": {"id": 36706, "gamerTag": "Erran", "prefix": "", "user": {"location": {"city": "Atlanta", "state": "GA", "country": "United States"}}}}]}, "standing": {"placement": 2, "stats": {"score": {"value": 0}}}}], "games": null}, {"id": 92091748, "state": 3, "round": 2, "fullRoundText": "Winners Semi-Final", "completedAt": 1754009363, "winnerId": 20825866, "slots": [{"id": "92091748-0", "entrant": {"id": 20843544, "name": "vivesthesia", "participants": [{"id": 19180311, "gamerTag": "vivesthesia", "prefix": null, "user": {"location": {"city": "Atlanta", "state": "GA", "country": "United States"}}, "player": {"id": 4395171, "gamerTag": "vivesthesia", "prefix": null, "user": {"location": {"city": "Atlanta", "state": "GA", "country": "United States"}}}}]}, "standing": {"placement": 2, "stats": {"score": {"value": 2}}}}, {"id": "92091748-1", "entrant": {"id": 20825866, "name": "swaggerbee", "participants": [{"id": 19164670, "gamerTag": "swaggerbee", "prefix": "", "user": {"location": {"city": "Atlanta", "state": "GA", "country": "United States"}}, "player": {"id": 1687384, "gamerTag": "swaggerbee", "prefix": "", "user": {"location": {"city": "Atlanta", "state": "GA", "country": "United States"}}}}]}, "standing": {"placement": 1, "stats": {"score": {"value": 3}}}}], "games": null}, {"id": 92091762, "state": 3, "round": -4, "fullRoundText": "Losers Quarter-Final", "completedAt": 1754009914, "winnerId": 20843544, "slots": [{"id": "92091762-0", "entrant": {"id": 20843544, "name": "vivesthesia", "participants": [{"id": 19180311, "gamerTag": "vivesthesia", "prefix": null, "user": {"location": {"city": "Atlanta", "state": "GA", "country": "United States"}}, "player": {"id": 4395171, "gamerTag": "vivesthesia", "prefix": null, "user": {"location": {"city": "Atlanta", "state": "GA", "country": "United States"}}}}]}, "standing": {"placement": 1, "stats": {"score": {"value": 3}}}}, {"id": "92091762-1", "entrant": {"id": 20823241, "name": "Tech Chase | braxton", "participants": [{"id": 19162227, "gamerTag": "braxton", "prefix": "Tech Chase", "user": {"location": {"city": "Atlanta", "state": "GA", "country": "United States"}}, "player": {"id": 1037821, "gamerTag": "braxton", "prefix": "The Hive", "user": {"location": {"city": "Atlanta", "state": "GA", "country": "United States"}}}}]}, "standing": {"placement": 2, "stats": {"score": {"value": 0}}}}], "games": null}, {"id": 92091763, "state": 3, "round": -4, "fullRoundText": "Losers Quarter-Final", "completedAt": 1754009199, "winnerId": 20854332, "slots": [{"id": "92091763-0", "entrant": {"id": 20854332, "name": "Erran", "participants": [{"id": 19190200, "gamerTag": "Erran", "prefix": "", "user": {"location": {"city": "Atlanta", "state": "GA", "country": "United States"}}, "player": {"id": 36706, "gamerTag": "Erran", "prefix": "", "user": {"location": {"city": "Atlanta", "state": "GA", "country": "United States"}}}}]}, "standing": {"placement": 1, "stats": {"score": {"value": 3}}}}, {"id": "92091763-1", "entrant": {"id": 20845995, "name": "Juan J. Steven's", "participants": [{"id": 19182615, "gamerTag": "Juan J. Steven's", "prefix": null, "user": {"location": {"city": "atlanta", "state": "GA", "country": "United States"}}, "player": {"id": 3318064, "gamerTag": "Guts", "prefix": "\u72a0\u7272\u306e\u70d9\u5370", "user": {"location": {"city": "atlanta", "state": "GA", "country": "United States"}}}}]}, "standing": {"placement": 2, "stats": {"score": {"value": 0}}}}], "games": null}, {"id": 92091761, "state": 3, "round": -3, "fullRoundText": "Losers Round 1", "completedAt": 1754008623, "winnerId": 20845995, "slots": [{"id": "92091761-0", "entrant": {"id": 20837257, "name": "TPS | cryptonic", "participants": [{"id": 19174884, "gamerTag": "cryptonic", "prefix": "TPS", "user": {"location": {"city": "Kennesaw", "state": "GA", "country": "United States"}}, "player": {"id": 3422494, "gamerTag": "$CAITLIN", "prefix": "TPS", "user": {"location": {"city": "Kennesaw", "state": "GA", "country": "United States"}}}}]}, "standing": {"placement": 2, "stats": {"score": {"value": 0}}}}, {"id": "92091761-1", "entrant": {"id": 20845995, "name": "Juan J. Steven's", "participants": [{"id": 19182615, "gamerTag": "Juan J. Steven's", "prefix": null, "user": {"location": {"city": "atlanta", "state": "GA", "country": "United States"}}, "player": {"id": 3318064, "gamerTag": "Guts", "prefix": "\u72a0\u7272\u306e\u70d9\u5370", "user": {"location": {"city": "atlanta", "state": "GA", "country": "United States"}}}}]}, "standing": {"placement": 1, "stats": {"score": {"value": 3}}}}], "games": null}, {"id": 92091744, "state": 3, "round": 1, "fullRoundText": "Winners Quarter-Final", "completedAt": 1754007691, "winnerId": 20854332, "slots": [{"id": "92091744-0", "entrant": {"id": 20854332, "name": "Erran", "participants": [{"id": 19190200, "gamerTag": "Erran", "prefix": "", "user": {"location": {"city": "Atlanta", "state": "GA", "country": "United States"}}, "player": {"id": 36706, "gamerTag": "Erran", "prefix": "", "user": {"location": {"city": "Atlanta", "state": "GA", "country": "United States"}}}}]}, "standing": {"placement": 1, "stats": {"score": {"value": 3}}}}, {"id": "92091744-1", "entrant": {"id": 20823241, "name": "Tech Chase | braxton", "participants": [{"id": 19162227, "gamerTag": "braxton", "prefix": "Tech Chase", "user": {"location": {"city": "Atlanta", "state": "GA", "country": "United States"}}, "player": {"id": 1037821, "gamerTag": "braxton", "prefix": "The Hive", "user": {"location": {"city": "Atlanta", "state": "GA", "country": "United States"}}}}]}, "standing": {"placement": 2, "stats": {"score": {"value": 0}}}}], "games": null}, {"id": 92091745, "state": 3, "round": 1, "fullRoundText": "Winners Quarter-Final", "completedAt": 1754007565, "winnerId": 20843544, "slots": [{"id": "92091745-0", "entrant": {"id": 20843544, "name": "vivesthesia", "participants": [{"id": 19180311, "gamerTag": "vivesthesia", "prefix": null, "user": {"location": {"city": "Atlanta", "state": "GA", "country": "United States"}}, "player": {"id": 4395171, "gamerTag": "vivesthesia", "prefix": null, "user": {"location": {"city": "Atlanta", "state": "GA", "country": "United States"}}}}]}, "standing": {"placement": 1, "stats": {"score": {"value": 3}}}}, {"id": "92091745-1", "entrant": {"id": 20837257, "name": "TPS | cryptonic", "participants": [{"id": 19174884, "gamerTag": "cryptonic", "prefix": "TPS", "user": {"location": {"city": "Kennesaw", "state": "GA", "country": "United States"}}, "player": {"id": 3422494, "gamerTag": "$CAITLIN", "prefix": "TPS", "user": {"location": {"city": "Kennesaw", "state": "GA", "country": "United States"}}}}]}, "standing": {"placement": 2, "stats": {"score": {"value": 0}}}}], "games": null}, {"id": 92091746, "state": 3, "round": 1, "fullRoundText": "Winners Quarter-Final", "completedAt": 1754008072, "winnerId": 20825866, "slots": [{"id": "92091746-0", "entrant": {"id": 20825866, "name": "swaggerbee", "participants": [{"id": 19164670, "gamerTag": "swaggerbee", "prefix": "", "user": {"location": {"city": "Atlanta", "state": "GA", "country": "United States"}}, "player": {"id": 1687384, "gamerTag": "swaggerbee", "prefix": "", "user": {"location": {"city": "Atlanta", "state": "GA", "country": "United States"}}}}]}, "standing": {"placement": 1, "stats": {"score": {"value": 3}}}}, {"id": "92091746-1", "entrant": {"id": 20845995, "name": "Juan J. Steven's", "participants": [{"id": 19182615, "gamerTag": "Juan J. Steven's", "prefix": null, "user": {"location": {"city": "atlanta", "state": "GA", "country": "United States"}}, "player": {"id": 3318064, "gamerTag": "Guts", "prefix": "\u72a0\u7272\u306e\u70d9\u5370", "user": {"location": {"city": "atlanta", "state": "GA", "country": "United States"}}}}]}, "standing": {"placement": 2, "stats": {"score": {"value": 1}}}}], "games": null}]}}}