{"event": {"sets": {"pageInfo": {"totalPages": 2, "total": 22}, "nodes": [{"id": 92571682, "state": 3, "round": -4, "fullRoundText": "Losers Round 1", "completedAt": 1754956817, "winnerId": 20938494, "slots": [{"id": "92571682-0", "entrant": {"id": 20940538, "name": "GG | varunk", "participants": [{"id": 19266233, "gamerTag": "varunk", "prefix": "GG", "user": {"location": {"city": "Marietta", "state": "GA", "country": "United States"}}, "player": {"id": 1653684, "gamerTag": "varunk", "prefix": "GG", "user": {"location": {"city": "Marietta", "state": "GA", "country": "United States"}}}}]}, "standing": {"placement": 2, "stats": {"score": {"value": -1}}}}, {"id": "92571682-1", "entrant": {"id": 20938494, "name": "GUMP2 | RoKu", "participants": [{"id": 19264322, "gamerTag": "RoKu", "prefix": "GUMP2", "user": {"location": {"city": "Peachtree Corners", "state": "GA", "country": "United States"}}, "player": {"id": 1107285, "gamerTag": "RoKu", "prefix": "TFT", "user": {"location": {"city": "Peachtree Corners", "state": "GA", "country": "United States"}}}}]}, "standing": {"placement": 1, "stats": {"score": {"value": null}}}}], "games": null}, {"id": 92571683, "state": 3, "round": -4, "fullRoundText": "Losers Round 1", "completedAt": 1754958193, "winnerId": 20941972, "slots": [{"id": "92571683-0", "entrant": {"id": 20941972, "name": "Bleh | Paniniosas", "participants": [{"id": 19267522, "gamerTag": "Paniniosas", "prefix": "Bleh", "user": {"location": {"city": "Norcross", "state": "GA", "country": "United States"}}, "player": {"id": 2904922, "gamerTag": "ROCKY", "prefix": null, "user": {"location": {"city": "Norcross", "state": "GA", "country": "United States"}}}}]}, "standing": {"placement": 1, "stats": {"score": {"value": 2}}}}, {"id": "92571683-1", "entrant": {"id": 20940173, "name": "Lowk9y", "participants": [{"id": 19265900, "gamerTag": "Lowk9y", "prefix": null, "user": {"location": {"city": null, "state": null, "country": null}}, "player": {"id": 2651002, "gamerTag": "Lowk9y", "prefix": null, "user": {"location": {"city": null, "state": null, "country": null}}}}]}, "standing": {"placement": 2, "stats": {"score": {"value": 1}}}}], "games": null}, {"id": 92571684, "state": 3, "round": -4, "fullRoundText": "Losers Round 1", "completedAt": 1754957806, "winnerId": 20943151, "slots": [{"id": "92571684-0", "entrant": {"id": 20943151, "name": "Korok", "participants": [{"id": 19268558, "gamerTag": "Korok", "prefix": null, "user": {"location": {"city": "Decatur", "state": "GA", "country": "United States"}}, "player": {"id": 2697934, "gamerTag": "Korok", "prefix": "AO5", "user": {"location": {"city": "Decatur", "state": "GA", "country": "United States"}}}}]}, "standing": {"placement": 1, "stats": {"score": {"value": 2}}}}, {"id": "92571684-1", "entrant": {"id": 20941909, "name": "kahdeh", "participants": [{"id": 19267457, "gamerTag": "kahdeh", "prefix": null, "user": {"location": {"city": null, "state": "GA", "country": "United States"}}, "player": {"id": 3730125, "gamerTag": "kahdeh", "prefix": null, "user": {"location": {"city": null, "state": "GA", "country": "United States"}}}}]}, "standing": {"placement": 2, "stats": {"score": {"value": 0}}}}], "games": null}, {"id": 92571645, "state": 3, "round": 1, "fullRoundText": "Winners Round 1", "completedAt": 1754956656, "winnerId": 20943151, "slots": [{"id": "92571645-0", "entrant": {"id": 20943151, "name": "Korok", "participants": [{"id": 19268558, "gamerTag": "Korok", "prefix": null, "user": {"location": {"city": "Decatur", "state": "GA", "country": "United States"}}, "player": {"id": 2697934, "gamerTag": "Korok", "prefix": "AO5", "user": {"location": {"city": "Decatur", "state": "GA", "country": "United States"}}}}]}, "standing": {"placement": 1, "stats": {"score": {"value": 2}}}}, {"id": "92571645-1", "entrant": {"id": 20940157, "name": "Kori", "participants": [{"id": 19265886, "gamerTag": "Kori", "prefix": "", "user": {"location": {"city": "", "state": "GA", "country": "United States"}}, "player": {"id": 2030915, "gamerTag": "Kori", "prefix": "", "user": {"location": {"city": "", "state": "GA", "country": "United States"}}}}]}, "standing": {"placement": 2, "stats": {"score": {"value": 0}}}}], "games": null}, {"id": 92571647, "state": 3, "round": 1, "fullRoundText": "Winners Round 1", "completedAt": 1754956770, "winnerId": 20941972, "slots": [{"id": "92571647-0", "entrant": {"id": 20938494, "name": "GUMP2 | RoKu", "participants": [{"id": 19264322, "gamerTag": "RoKu", "prefix": "GUMP2", "user": {"location": {"city": "Peachtree Corners", "state": "GA", "country": "United States"}}, "player": {"id": 1107285, "gamerTag": "RoKu", "prefix": "TFT", "user": {"location": {"city": "Peachtree Corners", "state": "GA", "country": "United States"}}}}]}, "standing": {"placement": 2, "stats": {"score": {"value": 1}}}}, {"id": "92571647-1", "entrant": {"id": 20941972, "name": "Bleh | Paniniosas", "participants": [{"id": 19267522, "gamerTag": "Paniniosas", "prefix": "Bleh", "user": {"location": {"city": "Norcross", "state": "GA", "country": "United States"}}, "player": {"id": 2904922, "gamerTag": "ROCKY", "prefix": null, "user": {"location": {"city": "Norcross", "state": "GA", "country": "United States"}}}}]}, "standing": {"placement": 1, "stats": {"score": {"value": 2}}}}], "games": null}, {"id": 92571649, "state": 3, "round": 1, "fullRoundText": "Winners Round 1", "completedAt": 1754956585, "winnerId": 20942997, "slots": [{"id": "92571649-0", "entrant": {"id": 20942997, "name": "AO5 | 2ndWonder", "participants": [{"id": 19268425, "gamerTag": "2ndWonder", "prefix": "AO5", "user": {"location": {"city": "Atlanta", "state": "GA", "country": "United States"}}, "player": {"id": 3255312, "gamerTag": "2ndWonder", "prefix": "AO5", "user": {"location": {"city": "Atlanta", "state": "GA", "country": "United States"}}}}]}, "standing": {"placement": 1, "stats": {"score": {"value": 2}}}}, {"id": "92571649-1", "entrant": {"id": 20940173, "name": "Lowk9y", "participants": [{"id": 19265900, "gamerTag": "Lowk9y", "prefix": null, "user": {"location": {"city": null, "state": null, "country": null}}, "player": {"id": 2651002, "gamerTag": "Lowk9y", "prefix": null, "user": {"location": {"city": null, "state": null, "country": null}}}}]}, "standing": {"placement": 2, "stats": {"score": {"value": 0}}}}], "games": null}, {"id": 92571651, "state": 3, "round": 1, "fullRoundText": "Winners Round 1", "completedAt": 1754956595, "winnerId": 20939844, "slots": [{"id": "92571651-0", "entrant": {"id": 20939844, "name": "Nikol", "participants": [{"id": 19265602, "gamerTag": "Nikol", "prefix": "", "user": {"location": {"city": "Stockbridge", "state": "GA", "country": "United States"}}, "player": {"id": 2152846, "gamerTag": "Nikol", "prefix": "", "user": {"location": {"city": "Stockbridge", "state": "GA", "country": "United States"}}}}]}, "standing": {"placement": 1, "stats": {"score": {"value": 2}}}}, {"id": "92571651-1", "entrant": {"id": 20941909, "name": "kahdeh", "participants": [{"id": 19267457, "gamerTag": "kahdeh", "prefix": null, "user": {"location": {"city": null, "state": "GA", "country": "United States"}}, "player": {"id": 3730125, "gamerTag": "kahdeh", "prefix": null, "user": {"location": {"city": null, "state": "GA", "country": "United States"}}}}]}, "standing": {"placement": 2, "stats": {"score": {"value": 0}}}}], "games": null}]}}}