{"phase": {"seeds": {"pageInfo": {"totalPages": 1, "total": 17}, "nodes": [{"id": 35884920, "seedNum": 1, "entrant": {"id": 20796652, "name": "NLP | iNGenius", "participants": [{"id": 19139604, "gamerTag": "iNGenius", "prefix": "NLP", "user": {"location": {"city": null, "state": null, "country": null}}, "player": {"id": 3194293, "gamerTag": "iNGenius", "prefix": "", "user": {"location": {"city": null, "state": null, "country": null}}}}]}}, {"id": 35941925, "seedNum": 2, "entrant": {"id": 20832133, "name": "FAT | Phantomtheif", "participants": [{"id": 19170524, "gamerTag": "Phantomtheif", "prefix": "FAT", "user": {"location": {"city": "Columbus", "state": "AL", "country": "United States"}}, "player": {"id": 469237, "gamerTag": "Phantomtheif", "prefix": "FAT", "user": {"location": {"city": "Columbus", "state": "AL", "country": "United States"}}}}]}}, {"id": 35943272, "seedNum": 5, "entrant": {"id": 20833311, "name": "Andromeda", "participants": [{"id": 19171557, "gamerTag": "Andromeda", "prefix": "", "user": {"location": {"city": "Columbus", "state": "GA", "country": "United States"}}, "player": {"id": 1458791, "gamerTag": "Andromeda", "prefix": "", "user": {"location": {"city": "Columbus", "state": "GA", "country": "United States"}}}}]}}, {"id": 35859888, "seedNum": 6, "entrant": {"id": 20780775, "name": "Cryptonite", "participants": [{"id": 19124743, "gamerTag": "Cryptonite", "prefix": null, "user": {"location": {"city": "Hamilton", "state": "GA", "country": "United States"}}, "player": {"id": 2300323, "gamerTag": "Cryptonite", "prefix": "Ashm", "user": {"location": {"city": "Hamilton", "state": "GA", "country": "United States"}}}}]}}, {"id": 35878841, "seedNum": 3, "entrant": {"id": 20792500, "name": "OGS Dog", "participants": [{"id": 19135681, "gamerTag": "OGS Dog", "prefix": null, "user": {"location": {"city": "Columbus", "state": "GA", "country": "United States"}}, "player": {"id": 2152632, "gamerTag": "OGS Dog", "prefix": "VES", "user": {"location": {"city": "Columbus", "state": "GA", "country": "United States"}}}}]}}, {"id": 35943956, "seedNum": 4, "entrant": {"id": 20833887, "name": "SPLY-350 | Yeezus", "participants": [{"id": 19172065, "gamerTag": "Yeezus", "prefix": "SPLY-350", "user": {"location": {"city": "Fort Moore", "state": "GA", "country": "United States"}}, "player": {"id": 3988141, "gamerTag": "Yeezus", "prefix": "SPLY-350", "user": {"location": {"city": "Fort Moore", "state": "GA", "country": "United States"}}}}]}}, {"id": 35934544, "seedNum": 7, "entrant": {"id": 20827807, "name": "jigglypuff", "participants": [{"id": 19166446, "gamerTag": "jigglypuff", "prefix": null, "user": {"location": {"city": "Columbus", "state": "GA", "country": "United States"}}, "player": {"id": 2592456, "gamerTag": "jigglypuff", "prefix": null, "user": {"location": {"city": "Columbus", "state": "GA", "country": "United States"}}}}]}}, {"id": 35878543, "seedNum": 9, "entrant": {"id": 20792352, "name": "Hurzt", "participants": [{"id": 19135557, "gamerTag": "Hurzt", "prefix": null, "user": {"location": {"city": null, "state": "GA", "country": "United States"}}, "player": {"id": 2717522, "gamerTag": "Hurzt", "prefix": "INHALE", "user": {"location": {"city": null, "state": "GA", "country": "United States"}}}}]}}, {"id": 35945360, "seedNum": 8, "entrant": {"id": 20834941, "name": "Fat", "participants": [{"id": 19172957, "gamerTag": "Fat", "prefix": "", "user": {"location": {"city": null, "state": null, "country": "United States"}}, "player": {"id": 2985597, "gamerTag": "Fat", "prefix": "", "user": {"location": {"city": null, "state": null, "country": "United States"}}}}]}}, {"id": 35933138, "seedNum": 11, "entrant": {"id": 20826564, "name": "StuffinCrust", "participants": [{"id": 19165327, "gamerTag": "StuffinCrust", "prefix": null, "user": {"location": {"city": "Columbus", "state": "GA", "country": "United States"}}, "player": {"id": 1648414, "gamerTag": "StuffinCrust", "prefix": "PICKLE", "user": {"location": {"city": "Columbus", "state": "GA", "country": "United States"}}}}]}}, {"id": 35878693, "seedNum": 13, "entrant": {"id": 20792425, "name": "BlazeAlbino06", "participants": [{"id": 19135614, "gamerTag": "BlazeAlbino06", "prefix": null, "user": {"location": {"city": "Columbus", "state": "GA", "country": "United States"}}, "player": {"id": 2615711, "gamerTag": "BlazeAlbino06", "prefix": "KING", "user": {"location": {"city": "Columbus", "state": "GA", "country": "United States"}}}}]}}, {"id": 35942872, "seedNum": 15, "entrant": {"id": 20832961, "name": "Trenchkiller", "participants": [{"id": 19171265, "gamerTag": "Trenchkiller", "prefix": "", "user": {"location": {"city": null, "state": null, "country": "United States"}}, "player": {"id": 3846238, "gamerTag": "Trenchkiller", "prefix": "", "user": {"location": {"city": null, "state": null, "country": "United States"}}}}]}}, {"id": 35945435, "seedNum": 10, "entrant": {"id": 20835093, "name": "scooby", "participants": [{"id": 19173055, "gamerTag": "scooby", "prefix": "", "user": {"location": {"city": null, "state": null, "country": "United States"}}, "player": {"id": 4692721, "gamerTag": "scooby", "prefix": "", "user": {"location": {"city": null, "state": null, "country": "United States"}}}}]}}, {"id": 35941656, "seedNum": 12, "entrant": {"id": 20831959, "name": "$MOKE", "participants": [{"id": 19170378, "gamerTag": "$MOKE", "prefix": null, "user": {"location": {"city": null, "state": "GA", "country": "United States"}}, "player": {"id": 4740521, "gamerTag": "$MOKE", "prefix": null, "user": {"location": {"city": null, "state": "GA", "country": "United States"}}}}]}}, {"id": 35939307, "seedNum": 14, "entrant": {"id": 20830366, "name": "OfficeWalrus", "participants": [{"id": 19168898, "gamerTag": "OfficeWalrus", "prefix": null, "user": {"location": {"city": "Columbus", "state": "GA", "country": "United States"}}, "player": {"id": 3860050, "gamerTag": "OfficeWalrus", "prefix": "CSU", "user": {"location": {"city": "Columbus", "state": "GA", "country": "United States"}}}}]}}, {"id": 35946056, "seedNum": 17, "entrant": {"id": 20835548, "name": "Steve", "participants": [{"id": 19173454, "gamerTag": "Steve", "prefix": "", "user": null, "player": {"id": 4899991, "gamerTag": "Steve", "prefix": "", "user": null}}]}}, {"id": 35943895, "seedNum": 16, "entrant": {"id": 20833844, "name": "ddogg26", "participants": [{"id": 19172021, "gamerTag": "ddogg26", "prefix": "", "user": {"location": {"city": null, "state": null, "country": "United States"}}, "player": {"id": 3859990, "gamerTag": "ddogg26", "prefix": "", "user": {"location": {"city": null, "state": null, "country": "United States"}}}}]}}]}}}