{"phase": {"seeds": {"pageInfo": {"totalPages": 1, "total": 8}, "nodes": [{"id": 36739223, "seedNum": 2, "entrant": {"id": 21352176, "name": "KHW | Frumps", "participants": [{"id": 19625260, "gamerTag": "Frumps", "prefix": "KHW", "user": {"location": {"city": "Greenville", "state": "SC", "country": "United States"}}, "player": {"id": 2844590, "gamerTag": "Frumps", "prefix": "KHW", "user": {"location": {"city": "Greenville", "state": "SC", "country": "United States"}}}}]}}, {"id": 36739158, "seedNum": 4, "entrant": {"id": 21352133, "name": "Permafrost", "participants": [{"id": 19622033, "gamerTag": "Permafrost", "prefix": "", "user": {"location": {"city": "Atlanta", "state": "GA", "country": "United States"}}, "player": {"id": 1256898, "gamerTag": "Permafrost", "prefix": "", "user": {"location": {"city": "Atlanta", "state": "GA", "country": "United States"}}}}]}}, {"id": 36739128, "seedNum": 6, "entrant": {"id": 21352104, "name": "BigBean", "participants": [{"id": 19624644, "gamerTag": "BigBean", "prefix": "", "user": {"location": {"city": null, "state": null, "country": "United States"}}, "player": {"id": 4988395, "gamerTag": "BigBean", "prefix": "", "user": {"location": {"city": null, "state": null, "country": "United States"}}}}]}}, {"id": 36739220, "seedNum": 3, "entrant": {"id": 21352172, "name": "TPS | $CAITLIN", "participants": [{"id": 19581896, "gamerTag": "$CAITLIN", "prefix": "TPS", "user": {"location": {"city": "Acworth", "state": "GA", "country": "United States"}}, "player": {"id": 3422494, "gamerTag": "$CAITLIN", "prefix": "TPS", "user": {"location": {"city": "Acworth", "state": "GA", "country": "United States"}}}}]}}, {"id": 36739225, "seedNum": 1, "entrant": {"id": 21352178, "name": "Deign", "participants": [{"id": 19628265, "gamerTag": "Deign", "prefix": "", "user": {"location": {"city": null, "state": null, "country": "United States"}}, "player": {"id": 325595, "gamerTag": "Deign", "prefix": "", "user": {"location": {"city": null, "state": null, "country": "United States"}}}}]}}, {"id": 36739156, "seedNum": 5, "entrant": {"id": 21352131, "name": "popsicle", "participants": [{"id": 19616050, "gamerTag": "popsicle", "prefix": "", "user": {"location": {"city": "Atlanta", "state": "GA", "country": "United States"}}, "player": {"id": 4435133, "gamerTag": "popsicle", "prefix": "", "user": {"location": {"city": "Atlanta", "state": "GA", "country": "United States"}}}}]}}, {"id": 36739295, "seedNum": 7, "entrant": {"id": 21352248, "name": "ICWaM | zgamer2000", "participants": [{"id": 19592174, "gamerTag": "zgamer2000", "prefix": "ICWaM", "user": {"location": {"city": "Temple", "state": "GA", "country": "United States"}}, "player": {"id": 4235718, "gamerTag": "zgamer2000", "prefix": "ICWaM", "user": {"location": {"city": "Temple", "state": "GA", "country": "United States"}}}}]}}, {"id": 36739129, "seedNum": 8, "entrant": {"id": 21352108, "name": "Zammy", "participants": [{"id": 19622750, "gamerTag": "Zammy", "prefix": "", "user": {"location": {"city": "decatur", "state": "GA", "country": "United States"}}, "player": {"id": 4089749, "gamerTag": "ZammiBarr", "prefix": null, "user": {"location": {"city": "decatur", "state": "GA", "country": "United States"}}}}]}}]}}}