{"event": {"sets": {"pageInfo": {"totalPages": 4, "total": 48}, "nodes": [{"id": 92036398, "state": 3, "round": -4, "fullRoundText": "Losers Round 2", "completedAt": 1753837954, "winnerId": 20831754, "slots": [{"id": "92036398-0", "entrant": {"id": 20831754, "name": "EDLN | Ultimaleo", "participants": [{"id": 19170192, "gamerTag": "Ultimaleo", "prefix": "EDLN", "user": {"location": {"city": "Norcross", "state": "GA", "country": "United States"}}, "player": {"id": 66886, "gamerTag": "Ultimaleo", "prefix": "EDLN", "user": {"location": {"city": "Norcross", "state": "GA", "country": "United States"}}}}]}, "standing": {"placement": 1, "stats": {"score": {"value": 3}}}}, {"id": "92036398-1", "entrant": {"id": 20833777, "name": "WhatMike", "participants": [{"id": 19171969, "gamerTag": "WhatMike", "prefix": "", "user": {"location": {"city": "Oakwood", "state": "GA", "country": "United States"}}, "player": {"id": 154427, "gamerTag": "WhatMike", "prefix": "", "user": {"location": {"city": "Oakwood", "state": "GA", "country": "United States"}}}}]}, "standing": {"placement": 2, "stats": {"score": {"value": 0}}}}], "games": null}, {"id": 92036399, "state": 3, "round": -4, "fullRoundText": "Losers Round 2", "completedAt": 1753837144, "winnerId": 20836785, "slots": [{"id": "92036399-0", "entrant": {"id": 20831883, "name": "Pazure", "participants": [{"id": 19170310, "gamerTag": "Pazure", "prefix": null, "user": {"location": {"city": null, "state": null, "country": "United States"}}, "player": {"id": 72218, "gamerTag": "Pazure", "prefix": null, "user": {"location": {"city": null, "state": null, "country": "United States"}}}}]}, "standing": {"placement": 2, "stats": {"score": {"value": 0}}}}, {"id": "92036399-1", "entrant": {"id": 20836785, "name": "LukeWarm", "participants": [{"id": 19174478, "gamerTag": "LukeWarm", "prefix": "", "user": {"location": {"city": "Alpharetta", "state": "GA", "country": "United States"}}, "player": {"id": 1348903, "gamerTag": "LukeWarm", "prefix": "", "user": {"location": {"city": "Alpharetta", "state": "GA", "country": "United States"}}}}]}, "standing": {"placement": 1, "stats": {"score": {"value": 3}}}}], "games": null}, {"id": 92036400, "state": 3, "round": -4, "fullRoundText": "Losers Round 2", "completedAt": 1753838219, "winnerId": 20835575, "slots": [{"id": "92036400-0", "entrant": {"id": 20835575, "name": "Noodle", "participants": [{"id": 19173475, "gamerTag": "Noodle", "prefix": null, "user": {"location": {"city": "McDonough", "state": "GA", "country": "United States"}}, "player": {"id": 3029288, "gamerTag": "Noodle", "prefix": "", "user": {"location": {"city": "McDonough", "state": "GA", "country": "United States"}}}}]}, "standing": {"placement": 1, "stats": {"score": {"value": 3}}}}, {"id": "92036400-1", "entrant": {"id": 20836575, "name": "den | Sinsei", "participants": [{"id": 19174316, "gamerTag": "Sinsei", "prefix": "den", "user": {"location": {"city": "Milton", "state": "GA", "country": "United States"}}, "player": {"id": 1219250, "gamerTag": "Sinsei", "prefix": "00", "user": {"location": {"city": "Milton", "state": "GA", "country": "United States"}}}}]}, "standing": {"placement": 2, "stats": {"score": {"value": 0}}}}], "games": null}, {"id": 92036401, "state": 3, "round": -4, "fullRoundText": "Losers Round 2", "completedAt": 1753836948, "winnerId": 20835725, "slots": [{"id": "92036401-0", "entrant": {"id": 20835725, "name": "Leon Nights", "participants": [{"id": 19173602, "gamerTag": "Leon Nights", "prefix": null, "user": {"location": {"city": "Atlanta", "state": "GA", "country": "United States"}}, "player": {"id": 4752335, "gamerTag": "Leon Nights", "prefix": null, "user": {"location": {"city": "Atlanta", "state": "GA", "country": "United States"}}}}]}, "standing": {"placement": 1, "stats": {"score": {"value": 3}}}}, {"id": "92036401-1", "entrant": {"id": 20836583, "name": "Movbey", "participants": [{"id": 19174323, "gamerTag": "Movbey", "prefix": "", "user": {"location": {"city": null, "state": null, "country": null}}, "player": {"id": 1586235, "gamerTag": "Movbey", "prefix": "", "user": {"location": {"city": null, "state": null, "country": null}}}}]}, "standing": {"placement": 2, "stats": {"score": {"value": 0}}}}], "games": null}, {"id": 92036402, "state": 3, "round": -4, "fullRoundText": "Losers Round 2", "completedAt": 1753836921, "winnerId": 20835117, "slots": [{"id": "92036402-0", "entrant": {"id": 20832894, "name": "4o4 | KhalRhaego", "participants": [{"id": 19171197, "gamerTag": "KhalRhaego", "prefix": "4o4", "user": {"location": {"city": "Jonesboro", "state": "GA", "country": "United States"}}, "player": {"id": 4076327, "gamerTag": "KhalRhaego", "prefix": "BOLT", "user": {"location": {"city": "Jonesboro", "state": "GA", "country": "United States"}}}}]}, "standing": {"placement": 2, "stats": {"score": {"value": 1}}}}, {"id": "92036402-1", "entrant": {"id": 20835117, "name": "Nightjar Ninja", "participants": [{"id": 19173072, "gamerTag": "Nightjar Ninja", "prefix": null, "user": {"location": {"city": "Atlanta", "state": "GA", "country": "United States"}}, "player": {"id": 3694663, "gamerTag": "Nightjar Ninja", "prefix": null, "user": {"location": {"city": "Atlanta", "state": "GA", "country": "United States"}}}}]}, "standing": {"placement": 1, "stats": {"score": {"value": 3}}}}], "games": null}, {"id": 92036403, "state": 3, "round": -4, "fullRoundText": "Losers Round 2", "completedAt": 1753837228, "winnerId": 20836896, "slots": [{"id": "92036403-0", "entrant": {"id": 20836896, "name": "4o4 | Count", "participants": [{"id": 19174593, "gamerTag": "Count", "prefix": "4o4", "user": {"location": {"city": "Atlanta", "state": "GA", "country": "United States"}}, "player": {"id": 30732, "gamerTag": "Count", "prefix": "4o4", "user": {"location": {"city": "Atlanta", "state": "GA", "country": "United States"}}}}]}, "standing": {"placement": 1, "stats": {"score": {"value": 3}}}}, {"id": "92036403-1", "entrant": {"id": 20836709, "name": "K4", "participants": [{"id": 19174415, "gamerTag": "K4", "prefix": null, "user": {"location": {"city": "Atlanta", "state": "GA", "country": "United States"}}, "player": {"id": 3508179, "gamerTag": "K4", "prefix": null, "user": {"location": {"city": "Atlanta", "state": "GA", "country": "United States"}}}}]}, "standing": {"placement": 2, "stats": {"score": {"value": 1}}}}], "games": null}, {"id": 92036404, "state": 3, "round": -4, "fullRoundText": "Losers Round 2", "completedAt": 1753837038, "winnerId": 20836374, "slots": [{"id": "92036404-0", "entrant": {"id": 20836374, "name": "Enn Vee", "participants": [{"id": 19174156, "gamerTag": "Enn Vee", "prefix": null, "user": {"location": {"city": "111 Glenridge Point Parkway", "state": "GA", "country": "United States"}}, "player": {"id": 4725571, "gamerTag": "Enn Vee", "prefix": null, "user": {"location": {"city": "111 Glenridge Point Parkway", "state": "GA", "country": "United States"}}}}]}, "standing": {"placement": 1, "stats": {"score": {"value": 3}}}}, {"id": "92036404-1", "entrant": {"id": 20836573, "name": "Xanadew", "participants": [{"id": 19174314, "gamerTag": "Xanadew", "prefix": "", "user": {"location": {"city": "Milton", "state": null, "country": "United States"}}, "player": {"id": 3477650, "gamerTag": "Xanadew", "prefix": "", "user": {"location": {"city": "Milton", "state": null, "country": "United States"}}}}]}, "standing": {"placement": 2, "stats": {"score": {"value": 0}}}}], "games": null}, {"id": 92036405, "state": 3, "round": -4, "fullRoundText": "Losers Round 2", "completedAt": 1753837382, "winnerId": 20836669, "slots": [{"id": "92036405-0", "entrant": {"id": 20836693, "name": "Xangief", "participants": [{"id": 19174403, "gamerTag": "Xangief", "prefix": null, "user": {"location": {"city": "Atlanta", "state": "GA", "country": "United States"}}, "player": {"id": 135082, "gamerTag": "Xangief", "prefix": null, "user": {"location": {"city": "Atlanta", "state": "GA", "country": "United States"}}}}]}, "standing": {"placement": 2, "stats": {"score": {"value": 2}}}}, {"id": "92036405-1", "entrant": {"id": 20836669, "name": "FGCBoomers | PotionSTAT", "participants": [{"id": 19174389, "gamerTag": "PotionSTAT", "prefix": "FGCBoomers", "user": {"location": {"city": "Atlanta", "state": "GA", "country": "United States"}}, "player": {"id": 3280223, "gamerTag": "PotionSTAT", "prefix": "FGCBoomers", "user": {"location": {"city": "Atlanta", "state": "GA", "country": "United States"}}}}]}, "standing": {"placement": 1, "stats": {"score": {"value": 3}}}}], "games": null}, {"id": 92036391, "state": 3, "round": -3, "fullRoundText": "Losers Round 1", "completedAt": 1753836328, "winnerId": 20836785, "slots": [{"id": "92036391-0", "entrant": {"id": 20836791, "name": "Killteca", "participants": [{"id": 19174484, "gamerTag": "Killteca", "prefix": null, "user": {"location": {"city": "Alpharetta", "state": "GA", "country": "United States"}}, "player": {"id": 4630213, "gamerTag": "Killteca", "prefix": null, "user": {"location": {"city": "Alpharetta", "state": "GA", "country": "United States"}}}}]}, "standing": {"placement": 2, "stats": {"score": {"value": 0}}}}, {"id": "92036391-1", "entrant": {"id": 20836785, "name": "LukeWarm", "participants": [{"id": 19174478, "gamerTag": "LukeWarm", "prefix": "", "user": {"location": {"city": "Alpharetta", "state": "GA", "country": "United States"}}, "player": {"id": 1348903, "gamerTag": "LukeWarm", "prefix": "", "user": {"location": {"city": "Alpharetta", "state": "GA", "country": "United States"}}}}]}, "standing": {"placement": 1, "stats": {"score": {"value": 3}}}}], "games": null}, {"id": 92036326, "state": 3, "round": 1, "fullRoundText": "Winners Round 1", "completedAt": 1753835500, "winnerId": 20836693, "slots": [{"id": "92036326-0", "entrant": {"id": 20836693, "name": "Xangief", "participants": [{"id": 19174403, "gamerTag": "Xangief", "prefix": null, "user": {"location": {"city": "Atlanta", "state": "GA", "country": "United States"}}, "player": {"id": 135082, "gamerTag": "Xangief", "prefix": null, "user": {"location": {"city": "Atlanta", "state": "GA", "country": "United States"}}}}]}, "standing": {"placement": 1, "stats": {"score": {"value": 3}}}}, {"id": "92036326-1", "entrant": {"id": 20833777, "name": "WhatMike", "participants": [{"id": 19171969, "gamerTag": "WhatMike", "prefix": "", "user": {"location": {"city": "Oakwood", "state": "GA", "country": "United States"}}, "player": {"id": 154427, "gamerTag": "WhatMike", "prefix": "", "user": {"location": {"city": "Oakwood", "state": "GA", "country": "United States"}}}}]}, "standing": {"placement": 2, "stats": {"score": {"value": 0}}}}], "games": null}, {"id": 92036327, "state": 3, "round": 1, "fullRoundText": "Winners Round 1", "completedAt": 1753835410, "winnerId": 20836374, "slots": [{"id": "92036327-0", "entrant": {"id": 20836374, "name": "Enn Vee", "participants": [{"id": 19174156, "gamerTag": "Enn Vee", "prefix": null, "user": {"location": {"city": "111 Glenridge Point Parkway", "state": "GA", "country": "United States"}}, "player": {"id": 4725571, "gamerTag": "Enn Vee", "prefix": null, "user": {"location": {"city": "111 Glenridge Point Parkway", "state": "GA", "country": "United States"}}}}]}, "standing": {"placement": 1, "stats": {"score": {"value": 3}}}}, {"id": "92036327-1", "entrant": {"id": 20836791, "name": "Killteca", "participants": [{"id": 19174484, "gamerTag": "Killteca", "prefix": null, "user": {"location": {"city": "Alpharetta", "state": "GA", "country": "United States"}}, "player": {"id": 4630213, "gamerTag": "Killteca", "prefix": null, "user": {"location": {"city": "Alpharetta", "state": "GA", "country": "United States"}}}}]}, "standing": {"placement": 2, "stats": {"score": {"value": 1}}}}], "games": null}, {"id": 92036328, "state": 3, "round": 1, "fullRoundText": "Winners Round 1", "completedAt": 1753835106, "winnerId": 20836605, "slots": [{"id": "92036328-0", "entrant": {"id": 20836605, "name": "Archway", "participants": [{"id": 19174343, "gamerTag": "Archway", "prefix": "", "user": {"location": {"city": "Sandy Springs", "state": "GA", "country": "United States"}}, "player": {"id": 1435251, "gamerTag": "Archway", "prefix": "", "user": {"location": {"city": "Sandy Springs", "state": "GA", "country": "United States"}}}}]}, "standing": {"placement": 1, "stats": {"score": {"value": 3}}}}, {"id": "92036328-1", "entrant": {"id": 20836785, "name": "LukeWarm", "participants": [{"id": 19174478, "gamerTag": "LukeWarm", "prefix": "", "user": {"location": {"city": "Alpharetta", "state": "GA", "country": "United States"}}, "player": {"id": 1348903, "gamerTag": "LukeWarm", "prefix": "", "user": {"location": {"city": "Alpharetta", "state": "GA", "country": "United States"}}}}]}, "standing": {"placement": 2, "stats": {"score": {"value": 0}}}}], "games": null}, {"id": 92036330, "state": 3, "round": 1, "fullRoundText": "Winners Round 1", "completedAt": 1753835279, "winnerId": 20836896, "slots": [{"id": "92036330-0", "entrant": {"id": 20836896, "name": "4o4 | Count", "participants": [{"id": 19174593, "gamerTag": "Count", "prefix": "4o4", "user": {"location": {"city": "Atlanta", "state": "GA", "country": "United States"}}, "player": {"id": 30732, "gamerTag": "Count", "prefix": "4o4", "user": {"location": {"city": "Atlanta", "state": "GA", "country": "United States"}}}}]}, "standing": {"placement": 1, "stats": {"score": {"value": 3}}}}, {"id": "92036330-1", "entrant": {"id": 20836575, "name": "den | Sinsei", "participants": [{"id": 19174316, "gamerTag": "Sinsei", "prefix": "den", "user": {"location": {"city": "Milton", "state": "GA", "country": "United States"}}, "player": {"id": 1219250, "gamerTag": "Sinsei", "prefix": "00", "user": {"location": {"city": "Milton", "state": "GA", "country": "United States"}}}}]}, "standing": {"placement": 2, "stats": {"score": {"value": 1}}}}], "games": null}, {"id": 92036332, "state": 3, "round": 1, "fullRoundText": "Winners Round 1", "completedAt": 1753835053, "winnerId": 20832894, "slots": [{"id": "92036332-0", "entrant": {"id": 20832894, "name": "4o4 | KhalRhaego", "participants": [{"id": 19171197, "gamerTag": "KhalRhaego", "prefix": "4o4", "user": {"location": {"city": "Jonesboro", "state": "GA", "country": "United States"}}, "player": {"id": 4076327, "gamerTag": "KhalRhaego", "prefix": "BOLT", "user": {"location": {"city": "Jonesboro", "state": "GA", "country": "United States"}}}}]}, "standing": {"placement": 1, "stats": {"score": {"value": 3}}}}, {"id": "92036332-1", "entrant": {"id": 20836583, "name": "Movbey", "participants": [{"id": 19174323, "gamerTag": "Movbey", "prefix": "", "user": {"location": {"city": null, "state": null, "country": null}}, "player": {"id": 1586235, "gamerTag": "Movbey", "prefix": "", "user": {"location": {"city": null, "state": null, "country": null}}}}]}, "standing": {"placement": 2, "stats": {"score": {"value": 0}}}}], "games": null}, {"id": 92036334, "state": 3, "round": 1, "fullRoundText": "Winners Round 1", "completedAt": 1753835264, "winnerId": 20835725, "slots": [{"id": "92036334-0", "entrant": {"id": 20835117, "name": "Nightjar Ninja", "participants": [{"id": 19173072, "gamerTag": "Nightjar Ninja", "prefix": null, "user": {"location": {"city": "Atlanta", "state": "GA", "country": "United States"}}, "player": {"id": 3694663, "gamerTag": "Nightjar Ninja", "prefix": null, "user": {"location": {"city": "Atlanta", "state": "GA", "country": "United States"}}}}]}, "standing": {"placement": 2, "stats": {"score": {"value": 1}}}}, {"id": "92036334-1", "entrant": {"id": 20835725, "name": "Leon Nights", "participants": [{"id": 19173602, "gamerTag": "Leon Nights", "prefix": null, "user": {"location": {"city": "Atlanta", "state": "GA", "country": "United States"}}, "player": {"id": 4752335, "gamerTag": "Leon Nights", "prefix": null, "user": {"location": {"city": "Atlanta", "state": "GA", "country": "United States"}}}}]}, "standing": {"placement": 1, "stats": {"score": {"value": 3}}}}], "games": null}]}}}