{"phase": {"seeds": {"pageInfo": {"totalPages": 1, "total": 3}, "nodes": [{"id": 35630334, "seedNum": 1, "entrant": {"id": 20629647, "name": "SE UNI | Shuri", "participants": [{"id": 18990850, "gamerTag": "Shuri", "prefix": "SE UNI", "user": {"location": {"city": "Bonaire", "state": "GA", "country": "United States"}}, "player": {"id": 183894, "gamerTag": "Shuri", "prefix": "SE UNI", "user": {"location": {"city": "Bonaire", "state": "GA", "country": "United States"}}}}]}}, {"id": 35774664, "seedNum": 2, "entrant": {"id": 20731670, "name": "Astroh", "participants": [{"id": 18873735, "gamerTag": "Astroh", "prefix": null, "user": {"location": {"city": "Byron", "state": "GA", "country": "United States"}}, "player": {"id": 1329801, "gamerTag": "Astroh", "prefix": null, "user": {"location": {"city": "Byron", "state": "GA", "country": "United States"}}}}]}}, {"id": 35776650, "seedNum": 3, "entrant": {"id": 20733271, "name": "SON-Reboot | SirRetro08", "participants": [{"id": 18880359, "gamerTag": "SirRetro08", "prefix": "SON-Reboot", "user": {"location": {"city": "Macon", "state": "GA", "country": "United States"}}, "player": {"id": 138105, "gamerTag": "SirRetro08", "prefix": "SON-Reboot", "user": {"location": {"city": "Macon", "state": "GA", "country": "United States"}}}}]}}]}}}