{"phase": {"seeds": {"pageInfo": {"totalPages": 1, "total": 13}, "nodes": [{"id": 36372427, "seedNum": 2, "entrant": {"id": 21100623, "name": "vivesthesia", "participants": [{"id": 19409022, "gamerTag": "vivesthesia", "prefix": null, "user": {"location": {"city": "Atlanta", "state": "GA", "country": "United States"}}, "player": {"id": 4395171, "gamerTag": "vivesthesia", "prefix": null, "user": {"location": {"city": "Atlanta", "state": "GA", "country": "United States"}}}}]}}, {"id": 36343077, "seedNum": 1, "entrant": {"id": 21084457, "name": "swaggerbee", "participants": [{"id": 19394558, "gamerTag": "swaggerbee", "prefix": "", "user": {"location": {"city": "Atlanta", "state": "GA", "country": "United States"}}, "player": {"id": 1687384, "gamerTag": "swaggerbee", "prefix": "", "user": {"location": {"city": "Atlanta", "state": "GA", "country": "United States"}}}}]}}, {"id": 36375578, "seedNum": 4, "entrant": {"id": 21102997, "name": "sanrio enjoyer", "participants": [{"id": 19411270, "gamerTag": "sanrio enjoyer", "prefix": null, "user": {"location": {"city": "Atlanta", "state": "GA", "country": "United States"}}, "player": {"id": 4933308, "gamerTag": "sanrio enjoyer", "prefix": null, "user": {"location": {"city": "Atlanta", "state": "GA", "country": "United States"}}}}]}}, {"id": 36377147, "seedNum": 5, "entrant": {"id": 21104228, "name": "2ndary | Errant", "participants": [{"id": 19412393, "gamerTag": "Errant", "prefix": "2ndary", "user": {"location": {"city": "Atlanta", "state": "GA", "country": "United States"}}, "player": {"id": 2823413, "gamerTag": "Errant", "prefix": "2ndary", "user": {"location": {"city": "Atlanta", "state": "GA", "country": "United States"}}}}]}}, {"id": 36372365, "seedNum": 3, "entrant": {"id": 21100566, "name": "Joseph", "participants": [{"id": 19408962, "gamerTag": "Joseph", "prefix": "", "user": {"location": {"city": "", "state": "AL", "country": "United States"}}, "player": {"id": 22422, "gamerTag": "Joseph", "prefix": "", "user": {"location": {"city": "", "state": "AL", "country": "United States"}}}}]}}, {"id": 36342128, "seedNum": 6, "entrant": {"id": 21083657, "name": "EVIL | Alas", "participants": [{"id": 19393868, "gamerTag": "Alas", "prefix": "EVIL", "user": {"location": {"city": null, "state": null, "country": null}}, "player": {"id": 25946, "gamerTag": "Alas", "prefix": "EVIL", "user": {"location": {"city": null, "state": null, "country": null}}}}]}}, {"id": 36360450, "seedNum": 7, "entrant": {"id": 21094234, "name": "OGC | bune", "participants": [{"id": 19403326, "gamerTag": "bune", "prefix": "OGC", "user": {"location": {"city": "Macon", "state": "GA", "country": "United States"}}, "player": {"id": 3054829, "gamerTag": "bune", "prefix": "OGC", "user": {"location": {"city": "Macon", "state": "GA", "country": "United States"}}}}]}}, {"id": 36343284, "seedNum": 8, "entrant": {"id": 21084639, "name": "DD | Kingpoyothefirst", "participants": [{"id": 19394641, "gamerTag": "Kingpoyothefirst", "prefix": "DD", "user": {"location": {"city": null, "state": null, "country": null}}, "player": {"id": 2934299, "gamerTag": "Kingpoyothefirst", "prefix": "DD", "user": {"location": {"city": null, "state": null, "country": null}}}}]}}, {"id": 36370555, "seedNum": 9, "entrant": {"id": 21099252, "name": "Juan J. Steven's", "participants": [{"id": 19407712, "gamerTag": "Juan J. Steven's", "prefix": null, "user": {"location": {"city": "atlanta", "state": "GA", "country": "United States"}}, "player": {"id": 3318064, "gamerTag": "Guts", "prefix": "\u72a0\u7272\u306e\u70d9\u5370", "user": {"location": {"city": "atlanta", "state": "GA", "country": "United States"}}}}]}}, {"id": 36343281, "seedNum": 10, "entrant": {"id": 21084636, "name": "The Hive | braxton", "participants": [{"id": 19394639, "gamerTag": "braxton", "prefix": "The Hive", "user": {"location": {"city": "Atlanta", "state": "GA", "country": "United States"}}, "player": {"id": 1037821, "gamerTag": "braxton", "prefix": "The Hive", "user": {"location": {"city": "Atlanta", "state": "GA", "country": "United States"}}}}]}}, {"id": 36371967, "seedNum": 11, "entrant": {"id": 21100375, "name": "ATL | Mid", "participants": [{"id": 19408800, "gamerTag": "Mid", "prefix": "ATL", "user": {"location": {"city": "Atlanta", "state": "GA", "country": "United States"}}, "player": {"id": 1122267, "gamerTag": "Mid", "prefix": "ATL", "user": {"location": {"city": "Atlanta", "state": "GA", "country": "United States"}}}}]}}, {"id": 36371531, "seedNum": 12, "entrant": {"id": 21100007, "name": "NMBS | roshi", "participants": [{"id": 19408481, "gamerTag": "roshi", "prefix": "NMBS", "user": {"location": {"city": "Atlanta", "state": "GA", "country": "United States"}}, "player": {"id": 37667, "gamerTag": "roshi", "prefix": "NMBS", "user": {"location": {"city": "Atlanta", "state": "GA", "country": "United States"}}}}]}}, {"id": 36371858, "seedNum": 13, "entrant": {"id": 21100281, "name": "TPS | $CAIT", "participants": [{"id": 19408729, "gamerTag": "$CAIT", "prefix": "TPS", "user": {"location": {"city": "Kennesaw", "state": "GA", "country": "United States"}}, "player": {"id": 3422494, "gamerTag": "$CAITLIN", "prefix": "TPS", "user": {"location": {"city": "Kennesaw", "state": "GA", "country": "United States"}}}}]}}]}}}