{"event": {"sets": {"pageInfo": {"totalPages": 2, "total": 22}, "nodes": [{"id": 92353433, "state": 3, "round": -4, "fullRoundText": "Losers Round 1", "completedAt": 1754529251, "winnerId": 20901768, "slots": [{"id": "92353433-0", "entrant": {"id": 20901768, "name": "4o4 | blitz", "participants": [{"id": 19231755, "gamerTag": "blitz", "prefix": "4o4", "user": {"location": {"city": "Lawrenceville", "state": "GA", "country": "United States"}}, "player": {"id": 2228539, "gamerTag": "blitz", "prefix": "4o4", "user": {"location": {"city": "Lawrenceville", "state": "GA", "country": "United States"}}}}]}, "standing": {"placement": 1, "stats": {"score": {"value": 2}}}}, {"id": "92353433-1", "entrant": {"id": 20900507, "name": "DeadlyNut", "participants": [{"id": 19230489, "gamerTag": "DeadlyNut", "prefix": "", "user": null, "player": {"id": 4912558, "gamerTag": "DeadlyNut", "prefix": "", "user": null}}]}, "standing": {"placement": 2, "stats": {"score": {"value": 0}}}}], "games": null}, {"id": 92353434, "state": 3, "round": -4, "fullRoundText": "Losers Round 1", "completedAt": 1754529080, "winnerId": 20900393, "slots": [{"id": "92353434-0", "entrant": {"id": 20901595, "name": "StrataJay", "participants": [{"id": 19231514, "gamerTag": "StrataJay", "prefix": "", "user": {"location": {"city": "Grayson", "state": "GA", "country": "United States"}}, "player": {"id": 1112189, "gamerTag": "StrataJay", "prefix": "", "user": {"location": {"city": "Grayson", "state": "GA", "country": "United States"}}}}]}, "standing": {"placement": 2, "stats": {"score": {"value": 1}}}}, {"id": "92353434-1", "entrant": {"id": 20900393, "name": "Armanisaint", "participants": [{"id": 19230378, "gamerTag": "Armanisaint", "prefix": null, "user": {"location": {"city": "Roswell", "state": "GA", "country": "United States"}}, "player": {"id": 3943806, "gamerTag": "Armanisaint", "prefix": null, "user": {"location": {"city": "Roswell", "state": "GA", "country": "United States"}}}}]}, "standing": {"placement": 1, "stats": {"score": {"value": 2}}}}], "games": null}, {"id": 92353435, "state": 3, "round": -4, "fullRoundText": "Losers Round 1", "completedAt": 1754528509, "winnerId": 20893336, "slots": [{"id": "92353435-0", "entrant": {"id": 20893336, "name": "ctrikz", "participants": [{"id": 19224113, "gamerTag": "ctrikz", "prefix": "", "user": {"location": {"city": null, "state": null, "country": null}}, "player": {"id": 1496863, "gamerTag": "ctrikz", "prefix": "", "user": {"location": {"city": null, "state": null, "country": null}}}}]}, "standing": {"placement": 1, "stats": {"score": {"value": 2}}}}, {"id": "92353435-1", "entrant": {"id": 20866740, "name": "Marcus", "participants": [{"id": 19201005, "gamerTag": "Marcus", "prefix": "", "user": {"location": {"city": "Decatur", "state": "GA", "country": "United States"}}, "player": {"id": 720330, "gamerTag": "Marcus", "prefix": "", "user": {"location": {"city": "Decatur", "state": "GA", "country": "United States"}}}}]}, "standing": {"placement": 2, "stats": {"score": {"value": 0}}}}], "games": null}, {"id": 92353396, "state": 3, "round": 1, "fullRoundText": "Winners Round 1", "completedAt": 1754527159, "winnerId": 20893336, "slots": [{"id": "92353396-0", "entrant": {"id": 20893336, "name": "ctrikz", "participants": [{"id": 19224113, "gamerTag": "ctrikz", "prefix": "", "user": {"location": {"city": null, "state": null, "country": null}}, "player": {"id": 1496863, "gamerTag": "ctrikz", "prefix": "", "user": {"location": {"city": null, "state": null, "country": null}}}}]}, "standing": {"placement": 1, "stats": {"score": {"value": 2}}}}, {"id": "92353396-1", "entrant": {"id": 20900725, "name": "HEAVANER", "participants": [{"id": 19230717, "gamerTag": "HEAVANER", "prefix": "", "user": null, "player": {"id": 4912576, "gamerTag": "HEAVANER", "prefix": "", "user": null}}]}, "standing": {"placement": 2, "stats": {"score": {"value": 0}}}}], "games": null}, {"id": 92353398, "state": 3, "round": 1, "fullRoundText": "Winners Round 1", "completedAt": 1754526980, "winnerId": 20902072, "slots": [{"id": "92353398-0", "entrant": {"id": 20902072, "name": "Iso.Dgaf", "participants": [{"id": 19232031, "gamerTag": "Iso.Dgaf", "prefix": null, "user": {"location": {"city": "Acworth", "state": "GA", "country": "United States"}}, "player": {"id": 4285541, "gamerTag": "Iso.Dgaf", "prefix": null, "user": {"location": {"city": "Acworth", "state": "GA", "country": "United States"}}}}]}, "standing": {"placement": 1, "stats": {"score": {"value": 2}}}}, {"id": "92353398-1", "entrant": {"id": 20900507, "name": "DeadlyNut", "participants": [{"id": 19230489, "gamerTag": "DeadlyNut", "prefix": "", "user": null, "player": {"id": 4912558, "gamerTag": "DeadlyNut", "prefix": "", "user": null}}]}, "standing": {"placement": 2, "stats": {"score": {"value": 0}}}}], "games": null}, {"id": 92353400, "state": 3, "round": 1, "fullRoundText": "Winners Round 1", "completedAt": 1754527920, "winnerId": 20901768, "slots": [{"id": "92353400-0", "entrant": {"id": 20900393, "name": "Armanisaint", "participants": [{"id": 19230378, "gamerTag": "Armanisaint", "prefix": null, "user": {"location": {"city": "Roswell", "state": "GA", "country": "United States"}}, "player": {"id": 3943806, "gamerTag": "Armanisaint", "prefix": null, "user": {"location": {"city": "Roswell", "state": "GA", "country": "United States"}}}}]}, "standing": {"placement": 2, "stats": {"score": {"value": 1}}}}, {"id": "92353400-1", "entrant": {"id": 20901768, "name": "4o4 | blitz", "participants": [{"id": 19231755, "gamerTag": "blitz", "prefix": "4o4", "user": {"location": {"city": "Lawrenceville", "state": "GA", "country": "United States"}}, "player": {"id": 2228539, "gamerTag": "blitz", "prefix": "4o4", "user": {"location": {"city": "Lawrenceville", "state": "GA", "country": "United States"}}}}]}, "standing": {"placement": 1, "stats": {"score": {"value": 2}}}}], "games": null}, {"id": 92353402, "state": 3, "round": 1, "fullRoundText": "Winners Round 1", "completedAt": 1754527079, "winnerId": 20898556, "slots": [{"id": "92353402-0", "entrant": {"id": 20898556, "name": "GCH | slaughterwall", "participants": [{"id": 19228832, "gamerTag": "slaughterwall", "prefix": "GCH", "user": {"location": {"city": "Atlanta", "state": "GA", "country": "United States"}}, "player": {"id": 1104452, "gamerTag": "slaughterwall", "prefix": "GCH", "user": {"location": {"city": "Atlanta", "state": "GA", "country": "United States"}}}}]}, "standing": {"placement": 1, "stats": {"score": {"value": 2}}}}, {"id": "92353402-1", "entrant": {"id": 20866740, "name": "Marcus", "participants": [{"id": 19201005, "gamerTag": "Marcus", "prefix": "", "user": {"location": {"city": "Decatur", "state": "GA", "country": "United States"}}, "player": {"id": 720330, "gamerTag": "Marcus", "prefix": "", "user": {"location": {"city": "Decatur", "state": "GA", "country": "United States"}}}}]}, "standing": {"placement": 2, "stats": {"score": {"value": 0}}}}], "games": null}]}}}