{"event": {"sets": {"pageInfo": {"totalPages": 22, "total": 318}, "nodes": [{"id": 92110853, "state": 3, "round": -6, "fullRoundText": "Losers Round 4", "completedAt": 1754185075, "winnerId": 20699992, "slots": [{"id": "92110853-0", "entrant": {"id": 20495676, "name": "Hell Mode | ROB Slayer", "participants": [{"id": 18873880, "gamerTag": "ROB Slayer", "prefix": "Hell Mode", "user": {"location": {"city": "Atlanta", "state": "GA", "country": "United States"}}, "player": {"id": 2414381, "gamerTag": "ROB Slayer", "prefix": "Hell Mode", "user": {"location": {"city": "Atlanta", "state": "GA", "country": "United States"}}}}]}, "standing": {"placement": 2, "stats": {"score": {"value": 0}}}}, {"id": "92110853-1", "entrant": {"id": 20699992, "name": "SFS | TCS | Dany", "participants": [{"id": 19051511, "gamerTag": "Dany", "prefix": "SFS | TCS", "user": {"location": {"city": "Nashville", "state": "TN", "country": "United States"}}, "player": {"id": 606386, "gamerTag": "Dany2theny", "prefix": "TCS", "user": {"location": {"city": "Nashville", "state": "TN", "country": "United States"}}}}]}, "standing": {"placement": 1, "stats": {"score": {"value": 2}}}}], "games": null}, {"id": 92227299, "state": 3, "round": -4, "fullRoundText": "Losers Round 1", "completedAt": 1754169753, "winnerId": 20747804, "slots": [{"id": "92227299-0", "entrant": {"id": 20747804, "name": "GG | varunk", "participants": [{"id": 19093426, "gamerTag": "varunk", "prefix": "GG", "user": {"location": {"city": "Marietta", "state": "GA", "country": "United States"}}, "player": {"id": 1653684, "gamerTag": "varunk", "prefix": "GG", "user": {"location": {"city": "Marietta", "state": "GA", "country": "United States"}}}}]}, "standing": {"placement": 1, "stats": {"score": {"value": 2}}}}, {"id": "92227299-1", "entrant": {"id": 20490013, "name": "ZB | Sanaito", "participants": [{"id": 18868823, "gamerTag": "Sanaito", "prefix": "ZB", "user": {"location": {"city": "Fayetteville", "state": "GA", "country": "United States"}}, "player": {"id": 12761, "gamerTag": "Sanaito", "prefix": "ZB", "user": {"location": {"city": "Fayetteville", "state": "GA", "country": "United States"}}}}]}, "standing": {"placement": 2, "stats": {"score": {"value": 1}}}}], "games": null}, {"id": 92227940, "state": 3, "round": -4, "fullRoundText": "Losers Round 1", "completedAt": 1754175880, "winnerId": 20730462, "slots": [{"id": "92227940-0", "entrant": {"id": 20730462, "name": "REAL | Jonestly", "participants": [{"id": 19078147, "gamerTag": "Jonestly", "prefix": "REAL", "user": {"location": {"city": "Alpharetta", "state": "GA", "country": "United States"}}, "player": {"id": 30532, "gamerTag": "Jonestly", "prefix": "REAL", "user": {"location": {"city": "Alpharetta", "state": "GA", "country": "United States"}}}}]}, "standing": {"placement": 1, "stats": {"score": {"value": 2}}}}, {"id": "92227940-1", "entrant": {"id": 20498646, "name": "BNDK | TD | CorNo", "participants": [{"id": 18876567, "gamerTag": "CorNo", "prefix": "BNDK | TD", "user": {"location": {"city": "Birmingham", "state": "AL", "country": "United States"}}, "player": {"id": 2344763, "gamerTag": "CorNo", "prefix": "BNDK | TD", "user": {"location": {"city": "Birmingham", "state": "AL", "country": "United States"}}}}]}, "standing": {"placement": 2, "stats": {"score": {"value": 0}}}}], "games": null}, {"id": 92227490, "state": 3, "round": -4, "fullRoundText": "Losers Round 1", "completedAt": 1754170256, "winnerId": 20788471, "slots": [{"id": "92227490-0", "entrant": {"id": 20788471, "name": "eggbob", "participants": [{"id": 19131983, "gamerTag": "eggbob", "prefix": "", "user": {"location": {"city": null, "state": null, "country": "United States"}}, "player": {"id": 3796596, "gamerTag": "eggbob", "prefix": "", "user": {"location": {"city": null, "state": null, "country": "United States"}}}}]}, "standing": {"placement": 1, "stats": {"score": {"value": 2}}}}, {"id": "92227490-1", "entrant": {"id": 20488410, "name": "KSU | Subzero", "participants": [{"id": 18867381, "gamerTag": "Subzero", "prefix": "KSU", "user": {"location": {"city": "Acworth", "state": "GA", "country": "United States"}}, "player": {"id": 1808159, "gamerTag": "Subzero", "prefix": "KSU", "user": {"location": {"city": "Acworth", "state": "GA", "country": "United States"}}}}]}, "standing": {"placement": 2, "stats": {"score": {"value": 0}}}}], "games": null}, {"id": 92227728, "state": 3, "round": -4, "fullRoundText": "Losers Round 1", "completedAt": 1754176041, "winnerId": 20851153, "slots": [{"id": "92227728-0", "entrant": {"id": 20851153, "name": "CJay", "participants": [{"id": 19187296, "gamerTag": "CJay", "prefix": null, "user": {"location": {"city": "tallahassee", "state": "FL", "country": "United States"}}, "player": {"id": 1852984, "gamerTag": "CJay", "prefix": null, "user": {"location": {"city": "tallahassee", "state": "FL", "country": "United States"}}}}]}, "standing": {"placement": 1, "stats": {"score": {"value": 2}}}}, {"id": "92227728-1", "entrant": {"id": 20488389, "name": "Chrysalis", "participants": [{"id": 18867367, "gamerTag": "Chrysalis", "prefix": "", "user": {"location": {"city": "Cartersville", "state": "GA", "country": "United States"}}, "player": {"id": 1512632, "gamerTag": "Chrysalis", "prefix": "", "user": {"location": {"city": "Cartersville", "state": "GA", "country": "United States"}}}}]}, "standing": {"placement": 2, "stats": {"score": {"value": 0}}}}], "games": null}, {"id": 92227301, "state": 3, "round": -4, "fullRoundText": "Losers Round 1", "completedAt": 1754168847, "winnerId": 20608728, "slots": [{"id": "92227301-0", "entrant": {"id": 20580571, "name": "pristinetao", "participants": [{"id": 18947970, "gamerTag": "pristinetao", "prefix": "", "user": {"location": {"city": null, "state": null, "country": null}}, "player": {"id": 2721225, "gamerTag": "pristinetao", "prefix": "", "user": {"location": {"city": null, "state": null, "country": null}}}}]}, "standing": {"placement": 2, "stats": {"score": {"value": -1}}}}, {"id": "92227301-1", "entrant": {"id": 20608728, "name": "Mantra", "participants": [{"id": 18972093, "gamerTag": "Mantra", "prefix": null, "user": {"location": {"city": null, "state": "GA", "country": "United States"}}, "player": {"id": 4733195, "gamerTag": "Mantra", "prefix": null, "user": {"location": {"city": null, "state": "GA", "country": "United States"}}}}]}, "standing": {"placement": 1, "stats": {"score": {"value": null}}}}], "games": null}, {"id": 92227942, "state": 3, "round": -4, "fullRoundText": "Losers Round 1", "completedAt": 1754174747, "winnerId": 20685811, "slots": [{"id": "92227942-0", "entrant": {"id": 20685811, "name": "SyN | Mexjandro", "participants": [{"id": 19039011, "gamerTag": "Mexjandro", "prefix": "SyN", "user": {"location": {"city": "Pelham", "state": "AL", "country": "United States"}}, "player": {"id": 160281, "gamerTag": "Mexjandro", "prefix": "SyN", "user": {"location": {"city": "Pelham", "state": "AL", "country": "United States"}}}}]}, "standing": {"placement": 1, "stats": {"score": {"value": null}}}}, {"id": "92227942-1", "entrant": {"id": 20538182, "name": "nicnamedom", "participants": [{"id": 18911402, "gamerTag": "nicnamedom", "prefix": "", "user": {"location": {"city": null, "state": null, "country": "United States"}}, "player": {"id": 4814071, "gamerTag": "nicnamedom", "prefix": "", "user": {"location": {"city": null, "state": null, "country": "United States"}}}}]}, "standing": {"placement": 2, "stats": {"score": {"value": -1}}}}], "games": null}, {"id": 92227730, "state": 3, "round": -4, "fullRoundText": "Losers Round 1", "completedAt": 1754174762, "winnerId": 20703207, "slots": [{"id": "92227730-0", "entrant": {"id": 20703207, "name": "Fedora", "participants": [{"id": 19054258, "gamerTag": "Fedora", "prefix": "", "user": {"location": {"city": "Dalton", "state": "GA", "country": "United States"}}, "player": {"id": 1110820, "gamerTag": "Fedora", "prefix": "", "user": {"location": {"city": "Dalton", "state": "GA", "country": "United States"}}}}]}, "standing": {"placement": 1, "stats": {"score": {"value": 2}}}}, {"id": "92227730-1", "entrant": {"id": 20822929, "name": "Aubrey", "participants": [{"id": 19161896, "gamerTag": "Aubrey", "prefix": "", "user": {"location": {"city": null, "state": null, "country": "United States"}}, "player": {"id": 4818785, "gamerTag": "Aubrey", "prefix": "", "user": {"location": {"city": null, "state": null, "country": "United States"}}}}]}, "standing": {"placement": 2, "stats": {"score": {"value": 0}}}}], "games": null}, {"id": 92227492, "state": 3, "round": -4, "fullRoundText": "Losers Round 1", "completedAt": 1754168556, "winnerId": 20500222, "slots": [{"id": "92227492-0", "entrant": {"id": 20500222, "name": "BE/JLE | CaptainMilkMan", "participants": [{"id": 18877814, "gamerTag": "CaptainMilkMan", "prefix": "BE/JLE", "user": {"location": {"city": "Albany", "state": "GA", "country": "United States"}}, "player": {"id": 1101654, "gamerTag": "CaptainMilkMan", "prefix": "BE/JLE", "user": {"location": {"city": "Albany", "state": "GA", "country": "United States"}}}}]}, "standing": {"placement": 1, "stats": {"score": {"value": 2}}}}, {"id": "92227492-1", "entrant": {"id": 20824137, "name": "Deathrite", "participants": [{"id": 19163108, "gamerTag": "Deathrite", "prefix": "", "user": {"location": {"city": null, "state": null, "country": "United States"}}, "player": {"id": 4819014, "gamerTag": "Deathrite", "prefix": "", "user": {"location": {"city": null, "state": null, "country": "United States"}}}}]}, "standing": {"placement": 2, "stats": {"score": {"value": 0}}}}], "games": null}, {"id": 92227944, "state": 3, "round": -4, "fullRoundText": "Losers Round 1", "completedAt": 1754174431, "winnerId": 20487835, "slots": [{"id": "92227944-0", "entrant": {"id": 20487835, "name": "cO | Netherlord64", "participants": [{"id": 18867025, "gamerTag": "Netherlord64", "prefix": "cO", "user": {"location": {"city": "Roswell", "state": "GA", "country": "United States"}}, "player": {"id": 4586226, "gamerTag": "Netherlord64", "prefix": "", "user": {"location": {"city": "Roswell", "state": "GA", "country": "United States"}}}}]}, "standing": {"placement": 1, "stats": {"score": {"value": null}}}}, {"id": "92227944-1", "entrant": {"id": 20494061, "name": "AO5 | ImPhenyl", "participants": [{"id": 18872449, "gamerTag": "ImPhenyl", "prefix": "AO5", "user": {"location": {"city": "Lawrenceville", "state": "GA", "country": "United States"}}, "player": {"id": 3256876, "gamerTag": "ImPhenyl", "prefix": "AO5", "user": {"location": {"city": "Lawrenceville", "state": "GA", "country": "United States"}}}}]}, "standing": {"placement": 2, "stats": {"score": {"value": -1}}}}], "games": null}, {"id": 92227732, "state": 3, "round": -4, "fullRoundText": "Losers Round 1", "completedAt": 1754175405, "winnerId": 20492297, "slots": [{"id": "92227732-0", "entrant": {"id": 20492297, "name": "TFT | Frank", "participants": [{"id": 18870820, "gamerTag": "Frank", "prefix": "TFT", "user": {"location": {"city": "Doraville", "state": "GA", "country": "United States"}}, "player": {"id": 1227401, "gamerTag": "Terry Labonte", "prefix": "TFT", "user": {"location": {"city": "Doraville", "state": "GA", "country": "United States"}}}}]}, "standing": {"placement": 1, "stats": {"score": {"value": 2}}}}, {"id": "92227732-1", "entrant": {"id": 20743387, "name": "TnT | annamation", "participants": [{"id": 19089304, "gamerTag": "annamation", "prefix": "TnT", "user": {"location": {"city": "Atlanta", "state": "GA", "country": "United States"}}, "player": {"id": 1699369, "gamerTag": "annamation", "prefix": "TnT", "user": {"location": {"city": "Atlanta", "state": "GA", "country": "United States"}}}}]}, "standing": {"placement": 2, "stats": {"score": {"value": 0}}}}], "games": null}, {"id": 92227303, "state": 3, "round": -4, "fullRoundText": "Losers Round 1", "completedAt": 1754168469, "winnerId": 20492477, "slots": [{"id": "92227303-0", "entrant": {"id": 20492477, "name": "WFF | Olive", "participants": [{"id": 18870955, "gamerTag": "Olive", "prefix": "WFF", "user": {"location": {"city": "Atlanta", "state": "GA", "country": "United States"}}, "player": {"id": 1810274, "gamerTag": "Planet Of Da", "prefix": "WeFarmFrank", "user": {"location": {"city": "Atlanta", "state": "GA", "country": "United States"}}}}]}, "standing": {"placement": 1, "stats": {"score": {"value": 2}}}}, {"id": "92227303-1", "entrant": {"id": 20495009, "name": "Alex828", "participants": [{"id": 18873284, "gamerTag": "Alex828", "prefix": "", "user": {"location": {"city": "Valdosta", "state": "GA", "country": "United States"}}, "player": {"id": 1630146, "gamerTag": "Alex828", "prefix": "", "user": {"location": {"city": "Valdosta", "state": "GA", "country": "United States"}}}}]}, "standing": {"placement": 2, "stats": {"score": {"value": 0}}}}], "games": null}, {"id": 92227494, "state": 3, "round": -4, "fullRoundText": "Losers Round 1", "completedAt": 1754170138, "winnerId": 20654955, "slots": [{"id": "92227494-0", "entrant": {"id": 20654955, "name": "red dot", "participants": [{"id": 19012783, "gamerTag": "red dot", "prefix": "", "user": {"location": {"city": "Milton", "state": "GA", "country": "United States"}}, "player": {"id": 1812177, "gamerTag": "red dot", "prefix": "", "user": {"location": {"city": "Milton", "state": "GA", "country": "United States"}}}}]}, "standing": {"placement": 1, "stats": {"score": {"value": 2}}}}, {"id": "92227494-1", "entrant": {"id": 20788478, "name": "deimos", "participants": [{"id": 19131988, "gamerTag": "deimos", "prefix": null, "user": {"location": {"city": null, "state": null, "country": "United States"}}, "player": {"id": 4305406, "gamerTag": "deimos", "prefix": null, "user": {"location": {"city": null, "state": null, "country": "United States"}}}}]}, "standing": {"placement": 2, "stats": {"score": {"value": 0}}}}], "games": null}, {"id": 92227305, "state": 3, "round": -4, "fullRoundText": "Losers Round 1", "completedAt": 1754168463, "winnerId": 20493556, "slots": [{"id": "92227305-0", "entrant": {"id": 20493556, "name": "TEASER FANCLUB | #1 TEASER FAN FOR LIFE", "participants": [{"id": 18871944, "gamerTag": "#1 TEASER FAN FOR LIFE", "prefix": "TEASER FANCLUB", "user": {"location": {"city": "Johns Creek", "state": "GA", "country": "United States"}}, "player": {"id": 181040, "gamerTag": "#1 TEASER FAN FOR LIFE", "prefix": "TEASER FANCLUB", "user": {"location": {"city": "Johns Creek", "state": "GA", "country": "United States"}}}}]}, "standing": {"placement": 1, "stats": {"score": {"value": 2}}}}, {"id": "92227305-1", "entrant": {"id": 20492846, "name": "ZB | Juniper", "participants": [{"id": 18871290, "gamerTag": "Juniper", "prefix": "ZB", "user": {"location": {"city": "Morrow", "state": "GA", "country": "United States"}}, "player": {"id": 46895, "gamerTag": "Juniper", "prefix": "ZB", "user": {"location": {"city": "Morrow", "state": "GA", "country": "United States"}}}}]}, "standing": {"placement": 2, "stats": {"score": {"value": 0}}}}], "games": null}, {"id": 92227946, "state": 3, "round": -4, "fullRoundText": "Losers Round 1", "completedAt": 1754174817, "winnerId": 20822777, "slots": [{"id": "92227946-0", "entrant": {"id": 20822777, "name": "Jeni", "participants": [{"id": 19161733, "gamerTag": "Jeni", "prefix": "", "user": {"location": {"city": null, "state": null, "country": null}}, "player": {"id": 1499467, "gamerTag": "Jeni", "prefix": "", "user": {"location": {"city": null, "state": null, "country": null}}}}]}, "standing": {"placement": 1, "stats": {"score": {"value": 2}}}}, {"id": "92227946-1", "entrant": {"id": 20616017, "name": "GUMP2 | Scrib", "participants": [{"id": 18978747, "gamerTag": "Scrib", "prefix": "GUMP2", "user": {"location": {"city": "Marietta", "state": "GA", "country": "United States"}}, "player": {"id": 1504459, "gamerTag": "Scrib", "prefix": "GUMP2", "user": {"location": {"city": "Marietta", "state": "GA", "country": "United States"}}}}]}, "standing": {"placement": 2, "stats": {"score": {"value": 0}}}}], "games": null}]}}}