{"event": {"sets": {"pageInfo": {"totalPages": 2, "total": 30}, "nodes": [{"id": 94389445, "state": 3, "round": 5, "fullRoundText": "Grand Final", "completedAt": 1759003386, "winnerId": 21345381, "slots": [{"id": "94389445-0", "entrant": {"id": 21345381, "name": "red dot", "participants": [{"id": 19622479, "gamerTag": "red dot", "prefix": "", "user": {"location": {"city": "Milton", "state": "GA", "country": "United States"}}, "player": {"id": 1812177, "gamerTag": "red dot", "prefix": "", "user": {"location": {"city": "Milton", "state": "GA", "country": "United States"}}}}]}, "standing": {"placement": 1, "stats": {"score": {"value": 3}}}}, {"id": "94389445-1", "entrant": {"id": 21386213, "name": "RM | Twist!?", "participants": [{"id": 19659019, "gamerTag": "Twist!?", "prefix": "RM", "user": {"location": {"city": "Marietta", "state": "GA", "country": "United States"}}, "player": {"id": 1764076, "gamerTag": "Twist!?", "prefix": "RM", "user": {"location": {"city": "Marietta", "state": "GA", "country": "United States"}}}}]}, "standing": {"placement": 2, "stats": {"score": {"value": 0}}}}], "games": null}, {"id": 94389444, "state": 3, "round": 4, "fullRoundText": "Winners Final", "completedAt": 1759000714, "winnerId": 21345381, "slots": [{"id": "94389444-0", "entrant": {"id": 21386213, "name": "RM | Twist!?", "participants": [{"id": 19659019, "gamerTag": "Twist!?", "prefix": "RM", "user": {"location": {"city": "Marietta", "state": "GA", "country": "United States"}}, "player": {"id": 1764076, "gamerTag": "Twist!?", "prefix": "RM", "user": {"location": {"city": "Marietta", "state": "GA", "country": "United States"}}}}]}, "standing": {"placement": 2, "stats": {"score": {"value": 1}}}}, {"id": "94389444-1", "entrant": {"id": 21345381, "name": "red dot", "participants": [{"id": 19622479, "gamerTag": "red dot", "prefix": "", "user": {"location": {"city": "Milton", "state": "GA", "country": "United States"}}, "player": {"id": 1812177, "gamerTag": "red dot", "prefix": "", "user": {"location": {"city": "Milton", "state": "GA", "country": "United States"}}}}]}, "standing": {"placement": 1, "stats": {"score": {"value": 3}}}}], "games": null}, {"id": 94389476, "state": 3, "round": -8, "fullRoundText": "Losers Final", "completedAt": 1759002469, "winnerId": 21386213, "slots": [{"id": "94389476-0", "entrant": {"id": 21386213, "name": "RM | Twist!?", "participants": [{"id": 19659019, "gamerTag": "Twist!?", "prefix": "RM", "user": {"location": {"city": "Marietta", "state": "GA", "country": "United States"}}, "player": {"id": 1764076, "gamerTag": "Twist!?", "prefix": "RM", "user": {"location": {"city": "Marietta", "state": "GA", "country": "United States"}}}}]}, "standing": {"placement": 1, "stats": {"score": {"value": 3}}}}, {"id": "94389476-1", "entrant": {"id": 21396882, "name": "carlop", "participants": [{"id": 19668040, "gamerTag": "carlop", "prefix": null, "user": {"location": {"city": "Johns Creek", "state": "GA", "country": "United States"}}, "player": {"id": 3431919, "gamerTag": "carlop", "prefix": null, "user": {"location": {"city": "Johns Creek", "state": "GA", "country": "United States"}}}}]}, "standing": {"placement": 2, "stats": {"score": {"value": 0}}}}], "games": null}, {"id": 94389475, "state": 3, "round": -7, "fullRoundText": "Losers Semi-Final", "completedAt": 1759001634, "winnerId": 21396882, "slots": [{"id": "94389475-0", "entrant": {"id": 21351910, "name": "CHEESE", "participants": [{"id": 19628422, "gamerTag": "CHEESE", "prefix": null, "user": {"location": {"city": "Buford", "state": "GA", "country": "United States"}}, "player": {"id": 3429754, "gamerTag": "CHEESE", "prefix": null, "user": {"location": {"city": "Buford", "state": "GA", "country": "United States"}}}}]}, "standing": {"placement": 2, "stats": {"score": {"value": 1}}}}, {"id": "94389475-1", "entrant": {"id": 21396882, "name": "carlop", "participants": [{"id": 19668040, "gamerTag": "carlop", "prefix": null, "user": {"location": {"city": "Johns Creek", "state": "GA", "country": "United States"}}, "player": {"id": 3431919, "gamerTag": "carlop", "prefix": null, "user": {"location": {"city": "Johns Creek", "state": "GA", "country": "United States"}}}}]}, "standing": {"placement": 1, "stats": {"score": {"value": 3}}}}], "games": null}, {"id": 94389442, "state": 3, "round": 3, "fullRoundText": "Winners Semi-Final", "completedAt": 1758999272, "winnerId": 21386213, "slots": [{"id": "94389442-0", "entrant": {"id": 21386213, "name": "RM | Twist!?", "participants": [{"id": 19659019, "gamerTag": "Twist!?", "prefix": "RM", "user": {"location": {"city": "Marietta", "state": "GA", "country": "United States"}}, "player": {"id": 1764076, "gamerTag": "Twist!?", "prefix": "RM", "user": {"location": {"city": "Marietta", "state": "GA", "country": "United States"}}}}]}, "standing": {"placement": 1, "stats": {"score": {"value": 3}}}}, {"id": "94389442-1", "entrant": {"id": 21351910, "name": "CHEESE", "participants": [{"id": 19628422, "gamerTag": "CHEESE", "prefix": null, "user": {"location": {"city": "Buford", "state": "GA", "country": "United States"}}, "player": {"id": 3429754, "gamerTag": "CHEESE", "prefix": null, "user": {"location": {"city": "Buford", "state": "GA", "country": "United States"}}}}]}, "standing": {"placement": 2, "stats": {"score": {"value": 1}}}}], "games": null}, {"id": 94389443, "state": 3, "round": 3, "fullRoundText": "Winners Semi-Final", "completedAt": 1758999433, "winnerId": 21345381, "slots": [{"id": "94389443-0", "entrant": {"id": 21345381, "name": "red dot", "participants": [{"id": 19622479, "gamerTag": "red dot", "prefix": "", "user": {"location": {"city": "Milton", "state": "GA", "country": "United States"}}, "player": {"id": 1812177, "gamerTag": "red dot", "prefix": "", "user": {"location": {"city": "Milton", "state": "GA", "country": "United States"}}}}]}, "standing": {"placement": 1, "stats": {"score": {"value": 3}}}}, {"id": "94389443-1", "entrant": {"id": 21396882, "name": "carlop", "participants": [{"id": 19668040, "gamerTag": "carlop", "prefix": null, "user": {"location": {"city": "Johns Creek", "state": "GA", "country": "United States"}}, "player": {"id": 3431919, "gamerTag": "carlop", "prefix": null, "user": {"location": {"city": "Johns Creek", "state": "GA", "country": "United States"}}}}]}, "standing": {"placement": 2, "stats": {"score": {"value": 1}}}}], "games": null}, {"id": 94389473, "state": 3, "round": -6, "fullRoundText": "Losers Quarter-Final", "completedAt": 1759000731, "winnerId": 21351910, "slots": [{"id": "94389473-0", "entrant": {"id": 21351910, "name": "CHEESE", "participants": [{"id": 19628422, "gamerTag": "CHEESE", "prefix": null, "user": {"location": {"city": "Buford", "state": "GA", "country": "United States"}}, "player": {"id": 3429754, "gamerTag": "CHEESE", "prefix": null, "user": {"location": {"city": "Buford", "state": "GA", "country": "United States"}}}}]}, "standing": {"placement": 1, "stats": {"score": {"value": 3}}}}, {"id": "94389473-1", "entrant": {"id": 21398549, "name": "SaggyMilkJug", "participants": [{"id": 19669412, "gamerTag": "SaggyMilkJug", "prefix": "", "user": {"location": {"city": "Atlanta", "state": "GA", "country": "United States"}}, "player": {"id": 4651404, "gamerTag": "SaggyMilkJug", "prefix": "", "user": {"location": {"city": "Atlanta", "state": "GA", "country": "United States"}}}}]}, "standing": {"placement": 2, "stats": {"score": {"value": 2}}}}], "games": null}, {"id": 94389474, "state": 3, "round": -6, "fullRoundText": "Losers Quarter-Final", "completedAt": 1759000720, "winnerId": 21396882, "slots": [{"id": "94389474-0", "entrant": {"id": 21396882, "name": "carlop", "participants": [{"id": 19668040, "gamerTag": "carlop", "prefix": null, "user": {"location": {"city": "Johns Creek", "state": "GA", "country": "United States"}}, "player": {"id": 3431919, "gamerTag": "carlop", "prefix": null, "user": {"location": {"city": "Johns Creek", "state": "GA", "country": "United States"}}}}]}, "standing": {"placement": 1, "stats": {"score": {"value": 3}}}}, {"id": "94389474-1", "entrant": {"id": 21386475, "name": "promamamia", "participants": [{"id": 19659251, "gamerTag": "promamamia", "prefix": "", "user": {"location": {"city": "Alpharetta", "state": "GA", "country": "United States"}}, "player": {"id": 3548468, "gamerTag": "promamamia", "prefix": "", "user": {"location": {"city": "Alpharetta", "state": "GA", "country": "United States"}}}}]}, "standing": {"placement": 2, "stats": {"score": {"value": 0}}}}], "games": null}, {"id": 94389472, "state": 3, "round": -5, "fullRoundText": "Losers Round 3", "completedAt": 1758999977, "winnerId": 21386475, "slots": [{"id": "94389472-0", "entrant": {"id": 21397707, "name": "MONEY | ImNoPro", "participants": [{"id": 19668735, "gamerTag": "ImNoPro", "prefix": "MONEY", "user": {"location": {"city": "Calhoun", "state": "GA", "country": "United States"}}, "player": {"id": 2149803, "gamerTag": "ImNoPro", "prefix": "MONEY", "user": {"location": {"city": "Calhoun", "state": "GA", "country": "United States"}}}}]}, "standing": {"placement": 2, "stats": {"score": {"value": 0}}}}, {"id": "94389472-1", "entrant": {"id": 21386475, "name": "promamamia", "participants": [{"id": 19659251, "gamerTag": "promamamia", "prefix": "", "user": {"location": {"city": "Alpharetta", "state": "GA", "country": "United States"}}, "player": {"id": 3548468, "gamerTag": "promamamia", "prefix": "", "user": {"location": {"city": "Alpharetta", "state": "GA", "country": "United States"}}}}]}, "standing": {"placement": 1, "stats": {"score": {"value": 2}}}}], "games": null}, {"id": 94389471, "state": 3, "round": -5, "fullRoundText": "Losers Round 3", "completedAt": 1758999560, "winnerId": 21398549, "slots": [{"id": "94389471-0", "entrant": {"id": 21398549, "name": "SaggyMilkJug", "participants": [{"id": 19669412, "gamerTag": "SaggyMilkJug", "prefix": "", "user": {"location": {"city": "Atlanta", "state": "GA", "country": "United States"}}, "player": {"id": 4651404, "gamerTag": "SaggyMilkJug", "prefix": "", "user": {"location": {"city": "Atlanta", "state": "GA", "country": "United States"}}}}]}, "standing": {"placement": 1, "stats": {"score": {"value": 2}}}}, {"id": "94389471-1", "entrant": {"id": 21345603, "name": "Stock Stealer | T.K.O", "participants": [{"id": 19622650, "gamerTag": "T.K.O", "prefix": "Stock Stealer", "user": {"location": {"city": "Smyrna", "state": "GA", "country": "United States"}}, "player": {"id": 4933114, "gamerTag": "T.K.O", "prefix": "Stock Stealer", "user": {"location": {"city": "Smyrna", "state": "GA", "country": "United States"}}}}]}, "standing": {"placement": 2, "stats": {"score": {"value": 1}}}}], "games": null}, {"id": 94389438, "state": 3, "round": 2, "fullRoundText": "Winners Quarter-Final", "completedAt": 1758998138, "winnerId": 21386213, "slots": [{"id": "94389438-0", "entrant": {"id": 21386213, "name": "RM | Twist!?", "participants": [{"id": 19659019, "gamerTag": "Twist!?", "prefix": "RM", "user": {"location": {"city": "Marietta", "state": "GA", "country": "United States"}}, "player": {"id": 1764076, "gamerTag": "Twist!?", "prefix": "RM", "user": {"location": {"city": "Marietta", "state": "GA", "country": "United States"}}}}]}, "standing": {"placement": 1, "stats": {"score": {"value": 2}}}}, {"id": "94389438-1", "entrant": {"id": 21386475, "name": "promamamia", "participants": [{"id": 19659251, "gamerTag": "promamamia", "prefix": "", "user": {"location": {"city": "Alpharetta", "state": "GA", "country": "United States"}}, "player": {"id": 3548468, "gamerTag": "promamamia", "prefix": "", "user": {"location": {"city": "Alpharetta", "state": "GA", "country": "United States"}}}}]}, "standing": {"placement": 2, "stats": {"score": {"value": 1}}}}], "games": null}, {"id": 94389439, "state": 3, "round": 2, "fullRoundText": "Winners Quarter-Final", "completedAt": 1758997848, "winnerId": 21351910, "slots": [{"id": "94389439-0", "entrant": {"id": 21345022, "name": "Scouteka", "participants": [{"id": 19622131, "gamerTag": "Scouteka", "prefix": "", "user": {"location": {"city": "Marietta", "state": "GA", "country": "United States"}}, "player": {"id": 2055957, "gamerTag": "Scouteka", "prefix": "", "user": {"location": {"city": "Marietta", "state": "GA", "country": "United States"}}}}]}, "standing": {"placement": 2, "stats": {"score": {"value": 0}}}}, {"id": "94389439-1", "entrant": {"id": 21351910, "name": "CHEESE", "participants": [{"id": 19628422, "gamerTag": "CHEESE", "prefix": null, "user": {"location": {"city": "Buford", "state": "GA", "country": "United States"}}, "player": {"id": 3429754, "gamerTag": "CHEESE", "prefix": null, "user": {"location": {"city": "Buford", "state": "GA", "country": "United States"}}}}]}, "standing": {"placement": 1, "stats": {"score": {"value": 2}}}}], "games": null}, {"id": 94389440, "state": 3, "round": 2, "fullRoundText": "Winners Quarter-Final", "completedAt": 1758998263, "winnerId": 21345381, "slots": [{"id": "94389440-0", "entrant": {"id": 21345381, "name": "red dot", "participants": [{"id": 19622479, "gamerTag": "red dot", "prefix": "", "user": {"location": {"city": "Milton", "state": "GA", "country": "United States"}}, "player": {"id": 1812177, "gamerTag": "red dot", "prefix": "", "user": {"location": {"city": "Milton", "state": "GA", "country": "United States"}}}}]}, "standing": {"placement": 1, "stats": {"score": {"value": 2}}}}, {"id": "94389440-1", "entrant": {"id": 21345603, "name": "Stock Stealer | T.K.O", "participants": [{"id": 19622650, "gamerTag": "T.K.O", "prefix": "Stock Stealer", "user": {"location": {"city": "Smyrna", "state": "GA", "country": "United States"}}, "player": {"id": 4933114, "gamerTag": "T.K.O", "prefix": "Stock Stealer", "user": {"location": {"city": "Smyrna", "state": "GA", "country": "United States"}}}}]}, "standing": {"placement": 2, "stats": {"score": {"value": 0}}}}], "games": null}, {"id": 94389441, "state": 3, "round": 2, "fullRoundText": "Winners Quarter-Final", "completedAt": 1758998256, "winnerId": 21396882, "slots": [{"id": "94389441-0", "entrant": {"id": 21396882, "name": "carlop", "participants": [{"id": 19668040, "gamerTag": "carlop", "prefix": null, "user": {"location": {"city": "Johns Creek", "state": "GA", "country": "United States"}}, "player": {"id": 3431919, "gamerTag": "carlop", "prefix": null, "user": {"location": {"city": "Johns Creek", "state": "GA", "country": "United States"}}}}]}, "standing": {"placement": 1, "stats": {"score": {"value": 2}}}}, {"id": "94389441-1", "entrant": {"id": 21398549, "name": "SaggyMilkJug", "participants": [{"id": 19669412, "gamerTag": "SaggyMilkJug", "prefix": "", "user": {"location": {"city": "Atlanta", "state": "GA", "country": "United States"}}, "player": {"id": 4651404, "gamerTag": "SaggyMilkJug", "prefix": "", "user": {"location": {"city": "Atlanta", "state": "GA", "country": "United States"}}}}]}, "standing": {"placement": 2, "stats": {"score": {"value": 0}}}}], "games": null}, {"id": 94389467, "state": 3, "round": -4, "fullRoundText": "Losers Round 2", "completedAt": 1758999149, "winnerId": 21398549, "slots": [{"id": "94389467-0", "entrant": {"id": 21398549, "name": "SaggyMilkJug", "participants": [{"id": 19669412, "gamerTag": "SaggyMilkJug", "prefix": "", "user": {"location": {"city": "Atlanta", "state": "GA", "country": "United States"}}, "player": {"id": 4651404, "gamerTag": "SaggyMilkJug", "prefix": "", "user": {"location": {"city": "Atlanta", "state": "GA", "country": "United States"}}}}]}, "standing": {"placement": 1, "stats": {"score": {"value": 2}}}}, {"id": "94389467-1", "entrant": {"id": 21398157, "name": "Dannyboyy", "participants": [{"id": 19669070, "gamerTag": "Dannyboyy", "prefix": "", "user": {"location": {"city": null, "state": null, "country": "United States"}}, "player": {"id": 4996152, "gamerTag": "Dannyboyy", "prefix": "", "user": {"location": {"city": null, "state": null, "country": "United States"}}}}]}, "standing": {"placement": 2, "stats": {"score": {"value": 1}}}}], "games": null}]}}}