{"phase": {"seeds": {"pageInfo": {"totalPages": 1, "total": 16}, "nodes": [{"id": 36503463, "seedNum": 1, "entrant": {"id": 21189583, "name": "SS | DDee", "participants": [{"id": 19487591, "gamerTag": "DDee", "prefix": "SS", "user": {"location": {"city": "Dacula", "state": "GA", "country": "United States"}}, "player": {"id": 1480393, "gamerTag": "DDee", "prefix": "SS", "user": {"location": {"city": "Dacula", "state": "GA", "country": "United States"}}}}]}}, {"id": 36470446, "seedNum": 4, "entrant": {"id": 21169337, "name": "417 | OneHundred", "participants": [{"id": 19470161, "gamerTag": "OneHundred", "prefix": "417", "user": {"location": {"city": null, "state": null, "country": "United States"}}, "player": {"id": 2266676, "gamerTag": "OneHundred", "prefix": "417", "user": {"location": {"city": null, "state": null, "country": "United States"}}}}]}}, {"id": 36430644, "seedNum": 2, "entrant": {"id": 21141081, "name": "UGA | Akamos", "participants": [{"id": 19445645, "gamerTag": "Akamos", "prefix": "UGA", "user": {"location": {"city": "Kennesaw", "state": "GA", "country": "United States"}}, "player": {"id": 2233683, "gamerTag": "Akamos", "prefix": "UGA", "user": {"location": {"city": "Kennesaw", "state": "GA", "country": "United States"}}}}]}}, {"id": 36470638, "seedNum": 3, "entrant": {"id": 21169484, "name": "Nia", "participants": [{"id": 19470303, "gamerTag": "Nia", "prefix": null, "user": {"location": {"city": "Buford", "state": "GA", "country": "United States"}}, "player": {"id": 428070, "gamerTag": "Nia", "prefix": null, "user": {"location": {"city": "Buford", "state": "GA", "country": "United States"}}}}]}}, {"id": 36508734, "seedNum": 5, "entrant": {"id": 21193710, "name": "Dubz", "participants": [{"id": 19491258, "gamerTag": "Dubz", "prefix": "", "user": {"location": {"city": "Grayson", "state": "GA", "country": "United States"}}, "player": {"id": 22583, "gamerTag": "Dubz", "prefix": "", "user": {"location": {"city": "Grayson", "state": "GA", "country": "United States"}}}}]}}, {"id": 36459258, "seedNum": 9, "entrant": {"id": 21162569, "name": "ThatSoopGuy", "participants": [{"id": 19464320, "gamerTag": "ThatSoopGuy", "prefix": null, "user": {"location": {"city": "Lawrenceville", "state": "GA", "country": "United States"}}, "player": {"id": 2253726, "gamerTag": "ThatSoopGuy", "prefix": null, "user": {"location": {"city": "Lawrenceville", "state": "GA", "country": "United States"}}}}]}}, {"id": 36430684, "seedNum": 8, "entrant": {"id": 21141122, "name": "417 | Krishna", "participants": [{"id": 19445685, "gamerTag": "Krishna", "prefix": "417", "user": {"location": {"city": null, "state": null, "country": "United States"}}, "player": {"id": 2282949, "gamerTag": "Krishna", "prefix": "417", "user": {"location": {"city": null, "state": null, "country": "United States"}}}}]}}, {"id": 36508501, "seedNum": 10, "entrant": {"id": 21193555, "name": "SweatOnly", "participants": [{"id": 19491103, "gamerTag": "SweatOnly", "prefix": "", "user": {"location": {"city": "Lilburn", "state": "GA", "country": "United States"}}, "player": {"id": 1406711, "gamerTag": "SweatOnly", "prefix": "", "user": {"location": {"city": "Lilburn", "state": "GA", "country": "United States"}}}}]}}, {"id": 36509842, "seedNum": 11, "entrant": {"id": 21194550, "name": "Bany05", "participants": [{"id": 19492046, "gamerTag": "Bany05", "prefix": null, "user": {"location": {"city": null, "state": null, "country": null}}, "player": {"id": 2637493, "gamerTag": "Bany05", "prefix": null, "user": {"location": {"city": null, "state": null, "country": null}}}}]}}, {"id": 36430698, "seedNum": 13, "entrant": {"id": 21141135, "name": "Omar", "participants": [{"id": 19445695, "gamerTag": "Omar", "prefix": "", "user": {"location": {"city": null, "state": "GA", "country": "United States"}}, "player": {"id": 4300029, "gamerTag": "Omar", "prefix": "", "user": {"location": {"city": null, "state": "GA", "country": "United States"}}}}]}}, {"id": 36430929, "seedNum": 14, "entrant": {"id": 21141196, "name": "UGA | LaJohn", "participants": [{"id": 19445746, "gamerTag": "LaJohn", "prefix": "UGA", "user": {"location": {"city": "Suwanee", "state": "GA", "country": "United States"}}, "player": {"id": 1742867, "gamerTag": "LaJohn", "prefix": "UGA", "user": {"location": {"city": "Suwanee", "state": "GA", "country": "United States"}}}}]}}, {"id": 36430923, "seedNum": 15, "entrant": {"id": 21141190, "name": "Vertebrae", "participants": [{"id": 19445742, "gamerTag": "Vertebrae", "prefix": "", "user": {"location": {"city": "Athens", "state": "GA", "country": "United States"}}, "player": {"id": 1583946, "gamerTag": "Vertebrae", "prefix": "CC", "user": {"location": {"city": "Athens", "state": "GA", "country": "United States"}}}}]}}, {"id": 36441169, "seedNum": 6, "entrant": {"id": 21148308, "name": "UGA | JD-DK", "participants": [{"id": 19451902, "gamerTag": "JD-DK", "prefix": "UGA", "user": {"location": {"city": null, "state": null, "country": null}}, "player": {"id": 1319951, "gamerTag": "JD-DK", "prefix": "UGA", "user": {"location": {"city": null, "state": null, "country": null}}}}]}}, {"id": 36469412, "seedNum": 7, "entrant": {"id": 21168571, "name": "Impluvio", "participants": [{"id": 19469493, "gamerTag": "Impluvio", "prefix": "", "user": {"location": {"city": null, "state": null, "country": null}}, "player": {"id": 2175953, "gamerTag": "Impluvio", "prefix": "417", "user": {"location": {"city": null, "state": null, "country": null}}}}]}}, {"id": 36430718, "seedNum": 12, "entrant": {"id": 21141155, "name": "DeDeDeadly", "participants": [{"id": 19445711, "gamerTag": "DeDeDeadly", "prefix": "", "user": {"location": {"city": null, "state": null, "country": "United States"}}, "player": {"id": 2267772, "gamerTag": "DeDeDeadly", "prefix": "", "user": {"location": {"city": null, "state": null, "country": "United States"}}}}]}}, {"id": 36508861, "seedNum": 16, "entrant": {"id": 21193838, "name": "UGA | pattyoats", "participants": [{"id": 19491392, "gamerTag": "pattyoats", "prefix": "UGA", "user": {"location": {"city": "Atlanta", "state": "GA", "country": "United States"}}, "player": {"id": 2269670, "gamerTag": "pattyoats", "prefix": "UGA", "user": {"location": {"city": "Atlanta", "state": "GA", "country": "United States"}}}}]}}]}}}