{"phase": {"seeds": {"pageInfo": {"totalPages": 1, "total": 15}, "nodes": [{"id": 36566002, "seedNum": 1, "entrant": {"id": 21231255, "name": "Salvo", "participants": [{"id": 19524457, "gamerTag": "Salvo", "prefix": "", "user": {"location": {"city": "Richmond Hill", "state": "GA", "country": "United States"}}, "player": {"id": 1287834, "gamerTag": "Salvo", "prefix": "", "user": {"location": {"city": "Richmond Hill", "state": "GA", "country": "United States"}}}}]}}, {"id": 36582248, "seedNum": 2, "entrant": {"id": 21243209, "name": "TTV | aj_waves", "participants": [{"id": 19535234, "gamerTag": "aj_waves", "prefix": "TTV", "user": {"location": {"city": "Statesboro", "state": "GA", "country": "United States"}}, "player": {"id": 3430874, "gamerTag": "aj_waves", "prefix": "TTV", "user": {"location": {"city": "Statesboro", "state": "GA", "country": "United States"}}}}]}}, {"id": 36615078, "seedNum": 4, "entrant": {"id": 21265998, "name": "Havoc", "participants": [{"id": 19554587, "gamerTag": "Havoc", "prefix": null, "user": {"location": {"city": "Orlando", "state": "FL", "country": "United States"}}, "player": {"id": 376942, "gamerTag": "Havoc", "prefix": null, "user": {"location": {"city": "Orlando", "state": "FL", "country": "United States"}}}}]}}, {"id": 36614335, "seedNum": 8, "entrant": {"id": 21265460, "name": "Stars", "participants": [{"id": 19554124, "gamerTag": "Stars", "prefix": "", "user": {"location": {"city": "Brunswick", "state": "GA", "country": "United States"}}, "player": {"id": 367982, "gamerTag": "Stars", "prefix": "", "user": {"location": {"city": "Brunswick", "state": "GA", "country": "United States"}}}}]}}, {"id": 36567357, "seedNum": 3, "entrant": {"id": 21232080, "name": "Phl0w", "participants": [{"id": 19525168, "gamerTag": "Phl0w", "prefix": null, "user": {"location": {"city": "Savannah", "state": "GA", "country": "United States"}}, "player": {"id": 2525580, "gamerTag": "Phl0w", "prefix": null, "user": {"location": {"city": "Savannah", "state": "GA", "country": "United States"}}}}]}}, {"id": 36566034, "seedNum": 11, "entrant": {"id": 21231287, "name": "FireLime", "participants": [{"id": 19524484, "gamerTag": "FireLime", "prefix": "", "user": {"location": {"city": "Savannah", "state": "GA", "country": "United States"}}, "player": {"id": 2227253, "gamerTag": "FireLime", "prefix": "", "user": {"location": {"city": "Savannah", "state": "GA", "country": "United States"}}}}]}}, {"id": 36567072, "seedNum": 5, "entrant": {"id": 21231953, "name": "REDD", "participants": [{"id": 19525061, "gamerTag": "REDD", "prefix": "", "user": {"location": {"city": "Valdosta", "state": "GA", "country": "United States"}}, "player": {"id": 1305309, "gamerTag": "REDD", "prefix": "", "user": {"location": {"city": "Valdosta", "state": "GA", "country": "United States"}}}}]}}, {"id": 36568787, "seedNum": 7, "entrant": {"id": 21233281, "name": "Kirbyfan", "participants": [{"id": 19526246, "gamerTag": "Kirbyfan", "prefix": null, "user": {"location": {"city": "Savannah", "state": "GA", "country": "United States"}}, "player": {"id": 2195459, "gamerTag": "Kirbyfan", "prefix": null, "user": {"location": {"city": "Savannah", "state": "GA", "country": "United States"}}}}]}}, {"id": 36613763, "seedNum": 6, "entrant": {"id": 21264975, "name": "Tiller Wail", "participants": [{"id": 19553776, "gamerTag": "Tiller Wail", "prefix": "", "user": {"location": {"city": "Statesboro", "state": "GA", "country": "United States"}}, "player": {"id": 981821, "gamerTag": "Tiller Wail", "prefix": "", "user": {"location": {"city": "Statesboro", "state": "GA", "country": "United States"}}}}]}}, {"id": 36617078, "seedNum": 9, "entrant": {"id": 21267566, "name": "Ratio | yoshen", "participants": [{"id": 19555855, "gamerTag": "yoshen", "prefix": "Ratio", "user": {"location": {"city": "Thomasville", "state": "GA", "country": "United States"}}, "player": {"id": 2720866, "gamerTag": "yoshen", "prefix": "Ratio", "user": {"location": {"city": "Thomasville", "state": "GA", "country": "United States"}}}}]}}, {"id": 36613381, "seedNum": 10, "entrant": {"id": 21264743, "name": "BL | BrockL", "participants": [{"id": 19553568, "gamerTag": "BrockL", "prefix": "BL", "user": {"location": {"city": "Madison", "state": "GA", "country": "United States"}}, "player": {"id": 3848781, "gamerTag": "BrockL", "prefix": "BL", "user": {"location": {"city": "Madison", "state": "GA", "country": "United States"}}}}]}}, {"id": 36616508, "seedNum": 12, "entrant": {"id": 21267205, "name": "Bumble", "participants": [{"id": 19555573, "gamerTag": "Bumble", "prefix": "", "user": {"location": {"city": "Savannah", "state": "GA", "country": "United States"}}, "player": {"id": 1169889, "gamerTag": "Bumble", "prefix": "", "user": {"location": {"city": "Savannah", "state": "GA", "country": "United States"}}}}]}}, {"id": 36617725, "seedNum": 13, "entrant": {"id": 21268139, "name": "turtletown", "participants": [{"id": 19556298, "gamerTag": "turtletown", "prefix": null, "user": {"location": {"city": "Guyton", "state": "GA", "country": "United States"}}, "player": {"id": 4718569, "gamerTag": "turtletown", "prefix": null, "user": {"location": {"city": "Guyton", "state": "GA", "country": "United States"}}}}]}}, {"id": 36617834, "seedNum": 14, "entrant": {"id": 21268254, "name": "yuricaptinprice", "participants": [{"id": 19556409, "gamerTag": "yuricaptinprice", "prefix": "", "user": {"location": {"city": "Statesboro", "state": "GA", "country": "United States"}}, "player": {"id": 1387712, "gamerTag": "yuricaptinprice", "prefix": "", "user": {"location": {"city": "Statesboro", "state": "GA", "country": "United States"}}}}]}}, {"id": 36615157, "seedNum": 15, "entrant": {"id": 21266037, "name": "FritoChips", "participants": [{"id": 19554624, "gamerTag": "FritoChips", "prefix": "", "user": {"location": {"city": null, "state": null, "country": "United States"}}, "player": {"id": 4976966, "gamerTag": "FritoChips", "prefix": "", "user": {"location": {"city": null, "state": null, "country": "United States"}}}}]}}]}}}