{"phase": {"seeds": {"pageInfo": {"totalPages": 1, "total": 10}, "nodes": [{"id": 35787249, "seedNum": 2, "entrant": {"id": 20741301, "name": "4o4 | MessatsuIM", "participants": [{"id": 19087280, "gamerTag": "MessatsuIM", "prefix": "4o4", "user": {"location": {"city": "Kennesaw", "state": "GA", "country": "United States"}}, "player": {"id": 3564235, "gamerTag": "MessatsuIM", "prefix": "4o4", "user": {"location": {"city": "Kennesaw", "state": "GA", "country": "United States"}}}}]}}, {"id": 35786920, "seedNum": 1, "entrant": {"id": 20741035, "name": "4o4 | Musa", "participants": [{"id": 19087009, "gamerTag": "Musa", "prefix": "4o4", "user": {"location": {"city": null, "state": null, "country": "United States"}}, "player": {"id": 131537, "gamerTag": "Musa", "prefix": "4o4", "user": {"location": {"city": null, "state": null, "country": "United States"}}}}]}}, {"id": 35787412, "seedNum": 5, "entrant": {"id": 20741474, "name": "Noodle", "participants": [{"id": 19087446, "gamerTag": "Noodle", "prefix": null, "user": {"location": {"city": "McDonough", "state": "GA", "country": "United States"}}, "player": {"id": 3029288, "gamerTag": "Noodle", "prefix": "", "user": {"location": {"city": "McDonough", "state": "GA", "country": "United States"}}}}]}}, {"id": 35780242, "seedNum": 6, "entrant": {"id": 20735955, "name": "4o4 | KhalRhaego", "participants": [{"id": 19082751, "gamerTag": "KhalRhaego", "prefix": "4o4", "user": {"location": {"city": "Jonesboro", "state": "GA", "country": "United States"}}, "player": {"id": 4076327, "gamerTag": "KhalRhaego", "prefix": "BOLT", "user": {"location": {"city": "Jonesboro", "state": "GA", "country": "United States"}}}}]}}, {"id": 35787558, "seedNum": 7, "entrant": {"id": 20741597, "name": "EEK!", "participants": [{"id": 19087566, "gamerTag": "EEK!", "prefix": null, "user": {"location": {"city": "Atlanta", "state": "GA", "country": "United States"}}, "player": {"id": 148794, "gamerTag": "EEK!", "prefix": null, "user": {"location": {"city": "Atlanta", "state": "GA", "country": "United States"}}}}]}}, {"id": 35787879, "seedNum": 8, "entrant": {"id": 20741916, "name": "Archway", "participants": [{"id": 19087902, "gamerTag": "Archway", "prefix": "", "user": {"location": {"city": "Sandy Springs", "state": "GA", "country": "United States"}}, "player": {"id": 1435251, "gamerTag": "Archway", "prefix": "", "user": {"location": {"city": "Sandy Springs", "state": "GA", "country": "United States"}}}}]}}, {"id": 35786399, "seedNum": 4, "entrant": {"id": 20740585, "name": "4o4 | Yugo", "participants": [{"id": 19086573, "gamerTag": "Yugo", "prefix": "4o4", "user": {"location": {"city": "Sandy springs", "state": "GA", "country": "United States"}}, "player": {"id": 338020, "gamerTag": "Yugo", "prefix": "4o4", "user": {"location": {"city": "Sandy springs", "state": "GA", "country": "United States"}}}}]}}, {"id": 35754370, "seedNum": 9, "entrant": {"id": 20718754, "name": "Cupp!", "participants": [{"id": 19068038, "gamerTag": "Cupp!", "prefix": "", "user": {"location": {"city": "Atlanta", "state": "GA", "country": "United States"}}, "player": {"id": 3779462, "gamerTag": "Cupp!", "prefix": "", "user": {"location": {"city": "Atlanta", "state": "GA", "country": "United States"}}}}]}}, {"id": 35711646, "seedNum": 3, "entrant": {"id": 20687388, "name": "Toph The Goat", "participants": [{"id": 19040468, "gamerTag": "Toph The Goat", "prefix": null, "user": {"location": {"city": "Anderson", "state": "SC", "country": "United States"}}, "player": {"id": 3462084, "gamerTag": "Toph The Goat", "prefix": null, "user": {"location": {"city": "Anderson", "state": "SC", "country": "United States"}}}}]}}, {"id": 35787587, "seedNum": 10, "entrant": {"id": 20741625, "name": "ToBeFrank | FF | SLAYlor Moon", "participants": [{"id": 19087594, "gamerTag": "SLAYlor Moon", "prefix": "ToBeFrank | FF", "user": {"location": {"city": "Atlanta", "state": "GA", "country": "United States"}}, "player": {"id": 267007, "gamerTag": "SLAYlor Moon", "prefix": "ToBeFrank | FF", "user": {"location": {"city": "Atlanta", "state": "GA", "country": "United States"}}}}]}}]}}}