{"event": {"sets": {"pageInfo": {"totalPages": 7, "total": 101}, "nodes": [{"id": 93362567, "state": 3, "round": -5, "fullRoundText": "Losers Round 2", "completedAt": 1756687820, "winnerId": 21062207, "slots": [{"id": "93362567-0", "entrant": {"id": 21062207, "name": "Frank", "participants": [{"id": 19374337, "gamerTag": "Frank", "prefix": null, "user": {"location": {"city": "Doraville", "state": "GA", "country": "United States"}}, "player": {"id": 1227401, "gamerTag": "Terry Labonte", "prefix": "TFT", "user": {"location": {"city": "Doraville", "state": "GA", "country": "United States"}}}}]}, "standing": {"placement": 1, "stats": {"score": {"value": 2}}}}, {"id": "93362567-1", "entrant": {"id": 21083439, "name": "Fe | Atomic", "participants": [{"id": 19393668, "gamerTag": "Atomic", "prefix": "Fe", "user": {"location": {"city": "Atlanta", "state": "GA", "country": "United States"}}, "player": {"id": 1809403, "gamerTag": "Atomic", "prefix": "Fe", "user": {"location": {"city": "Atlanta", "state": "GA", "country": "United States"}}}}]}, "standing": {"placement": 2, "stats": {"score": {"value": 0}}}}], "games": null}, {"id": 93362568, "state": 3, "round": -5, "fullRoundText": "Losers Round 2", "completedAt": 1756688697, "winnerId": 21126806, "slots": [{"id": "93362568-0", "entrant": {"id": 21126806, "name": "ToBeFrank | FF | SLAYlor Moon", "participants": [{"id": 19432500, "gamerTag": "SLAYlor Moon", "prefix": "ToBeFrank | FF", "user": {"location": {"city": "Atlanta", "state": "GA", "country": "United States"}}, "player": {"id": 267007, "gamerTag": "SLAYlor Moon", "prefix": "ToBeFrank | FF", "user": {"location": {"city": "Atlanta", "state": "GA", "country": "United States"}}}}]}, "standing": {"placement": 1, "stats": {"score": {"value": 2}}}}, {"id": "93362568-1", "entrant": {"id": 21128641, "name": "TFT | BigCheese", "participants": [{"id": 19434413, "gamerTag": "BigCheese", "prefix": "TFT", "user": {"location": {"city": null, "state": null, "country": null}}, "player": {"id": 3991446, "gamerTag": "BigCheese", "prefix": "TFT", "user": {"location": {"city": null, "state": null, "country": null}}}}]}, "standing": {"placement": 2, "stats": {"score": {"value": 1}}}}], "games": null}, {"id": 93362569, "state": 3, "round": -5, "fullRoundText": "Losers Round 2", "completedAt": 1756687499, "winnerId": 21078191, "slots": [{"id": "93362569-0", "entrant": {"id": 21062074, "name": "Jdaddy", "participants": [{"id": 19374212, "gamerTag": "Jdaddy", "prefix": null, "user": {"location": {"city": "Atlanta", "state": "GA", "country": "United States"}}, "player": {"id": 4384721, "gamerTag": "Jdaddy", "prefix": null, "user": {"location": {"city": "Atlanta", "state": "GA", "country": "United States"}}}}]}, "standing": {"placement": 2, "stats": {"score": {"value": 1}}}}, {"id": "93362569-1", "entrant": {"id": 21078191, "name": "Heart", "participants": [{"id": 19388853, "gamerTag": "Heart", "prefix": "", "user": {"location": {"city": "Atlanta", "state": "GA", "country": "United States"}}, "player": {"id": 4287822, "gamerTag": "Heart", "prefix": "", "user": {"location": {"city": "Atlanta", "state": "GA", "country": "United States"}}}}]}, "standing": {"placement": 1, "stats": {"score": {"value": 2}}}}], "games": null}, {"id": 93362558, "state": 3, "round": -4, "fullRoundText": "Losers Round 1", "completedAt": 1756685386, "winnerId": 21088942, "slots": [{"id": "93362558-0", "entrant": {"id": 21088942, "name": "TFT | RoKu", "participants": [{"id": 19398449, "gamerTag": "RoKu", "prefix": "TFT", "user": {"location": {"city": "Peachtree Corners", "state": "GA", "country": "United States"}}, "player": {"id": 1107285, "gamerTag": "RoKu", "prefix": "TFT", "user": {"location": {"city": "Peachtree Corners", "state": "GA", "country": "United States"}}}}]}, "standing": {"placement": 1, "stats": {"score": {"value": 2}}}}, {"id": "93362558-1", "entrant": {"id": 21030363, "name": "w3155", "participants": [{"id": 19345540, "gamerTag": "w3155", "prefix": "", "user": {"location": {"city": "Flowery Branch", "state": "GA", "country": "United States"}}, "player": {"id": 3556938, "gamerTag": "w3155", "prefix": "", "user": {"location": {"city": "Flowery Branch", "state": "GA", "country": "United States"}}}}]}, "standing": {"placement": 2, "stats": {"score": {"value": 0}}}}], "games": null}, {"id": 93362559, "state": 3, "round": -4, "fullRoundText": "Losers Round 1", "completedAt": 1756686243, "winnerId": 21126747, "slots": [{"id": "93362559-0", "entrant": {"id": 21116312, "name": "TnT | Sid", "participants": [{"id": 19423112, "gamerTag": "Sid", "prefix": "TnT", "user": {"location": {"city": "Powder Springs", "state": "GA", "country": "United States"}}, "player": {"id": 1229067, "gamerTag": "Sid", "prefix": "TnT", "user": {"location": {"city": "Powder Springs", "state": "GA", "country": "United States"}}}}]}, "standing": {"placement": 2, "stats": {"score": {"value": -1}}}}, {"id": "93362559-1", "entrant": {"id": 21126747, "name": "Aaron", "participants": [{"id": 19432451, "gamerTag": "Aaron", "prefix": null, "user": {"location": {"city": "Lexington", "state": null, "country": null}}, "player": {"id": 448165, "gamerTag": "Aaron", "prefix": null, "user": {"location": {"city": "Lexington", "state": null, "country": null}}}}]}, "standing": {"placement": 1, "stats": {"score": {"value": null}}}}], "games": null}, {"id": 93362560, "state": 3, "round": -4, "fullRoundText": "Losers Round 1", "completedAt": 1756687256, "winnerId": 21062207, "slots": [{"id": "93362560-0", "entrant": {"id": 21062207, "name": "Frank", "participants": [{"id": 19374337, "gamerTag": "Frank", "prefix": null, "user": {"location": {"city": "Doraville", "state": "GA", "country": "United States"}}, "player": {"id": 1227401, "gamerTag": "Terry Labonte", "prefix": "TFT", "user": {"location": {"city": "Doraville", "state": "GA", "country": "United States"}}}}]}, "standing": {"placement": 1, "stats": {"score": {"value": 2}}}}, {"id": "93362560-1", "entrant": {"id": 21121856, "name": "RAMS | RussianJesus", "participants": [{"id": 19428046, "gamerTag": "RussianJesus", "prefix": "RAMS", "user": {"location": {"city": "Atlanta", "state": "GA", "country": "United States"}}, "player": {"id": 1140567, "gamerTag": "RussianJesus", "prefix": "RAMS", "user": {"location": {"city": "Atlanta", "state": "GA", "country": "United States"}}}}]}, "standing": {"placement": 2, "stats": {"score": {"value": 1}}}}], "games": null}, {"id": 93362561, "state": 3, "round": -4, "fullRoundText": "Losers Round 1", "completedAt": 1756685995, "winnerId": 21083439, "slots": [{"id": "93362561-0", "entrant": {"id": 21083439, "name": "Fe | Atomic", "participants": [{"id": 19393668, "gamerTag": "Atomic", "prefix": "Fe", "user": {"location": {"city": "Atlanta", "state": "GA", "country": "United States"}}, "player": {"id": 1809403, "gamerTag": "Atomic", "prefix": "Fe", "user": {"location": {"city": "Atlanta", "state": "GA", "country": "United States"}}}}]}, "standing": {"placement": 1, "stats": {"score": {"value": 2}}}}, {"id": "93362561-1", "entrant": {"id": 21088449, "name": "WeleX", "participants": [{"id": 19398013, "gamerTag": "WeleX", "prefix": null, "user": {"location": {"city": "Atlanta", "state": "GA", "country": "United States"}}, "player": {"id": 2894975, "gamerTag": "WeleX", "prefix": null, "user": {"location": {"city": "Atlanta", "state": "GA", "country": "United States"}}}}]}, "standing": {"placement": 2, "stats": {"score": {"value": 0}}}}], "games": null}, {"id": 93362562, "state": 3, "round": -4, "fullRoundText": "Losers Round 1", "completedAt": 1756686029, "winnerId": 21126806, "slots": [{"id": "93362562-0", "entrant": {"id": 21126806, "name": "ToBeFrank | FF | SLAYlor Moon", "participants": [{"id": 19432500, "gamerTag": "SLAYlor Moon", "prefix": "ToBeFrank | FF", "user": {"location": {"city": "Atlanta", "state": "GA", "country": "United States"}}, "player": {"id": 267007, "gamerTag": "SLAYlor Moon", "prefix": "ToBeFrank | FF", "user": {"location": {"city": "Atlanta", "state": "GA", "country": "United States"}}}}]}, "standing": {"placement": 1, "stats": {"score": {"value": 2}}}}, {"id": "93362562-1", "entrant": {"id": 21074825, "name": "LUNAR.", "participants": [{"id": 19385730, "gamerTag": "LUNAR.", "prefix": null, "user": {"location": {"city": "Nashville", "state": "TN", "country": "United States"}}, "player": {"id": 2708713, "gamerTag": "LUNAR.", "prefix": null, "user": {"location": {"city": "Nashville", "state": "TN", "country": "United States"}}}}]}, "standing": {"placement": 2, "stats": {"score": {"value": 0}}}}], "games": null}, {"id": 93362563, "state": 3, "round": -4, "fullRoundText": "Losers Round 1", "completedAt": 1756686210, "winnerId": 21128641, "slots": [{"id": "93362563-0", "entrant": {"id": 20808909, "name": "Chade | BonusOnus", "participants": [{"id": 19150135, "gamerTag": "BonusOnus", "prefix": "Chade", "user": {"location": {"city": "Detroit", "state": "MI", "country": "United States"}}, "player": {"id": 3656221, "gamerTag": "BonusOnus", "prefix": "Chade", "user": {"location": {"city": "Detroit", "state": "MI", "country": "United States"}}}}]}, "standing": {"placement": 2, "stats": {"score": {"value": 1}}}}, {"id": "93362563-1", "entrant": {"id": 21128641, "name": "TFT | BigCheese", "participants": [{"id": 19434413, "gamerTag": "BigCheese", "prefix": "TFT", "user": {"location": {"city": null, "state": null, "country": null}}, "player": {"id": 3991446, "gamerTag": "BigCheese", "prefix": "TFT", "user": {"location": {"city": null, "state": null, "country": null}}}}]}, "standing": {"placement": 1, "stats": {"score": {"value": 2}}}}], "games": null}, {"id": 93362564, "state": 3, "round": -4, "fullRoundText": "Losers Round 1", "completedAt": 1756685950, "winnerId": 21062074, "slots": [{"id": "93362564-0", "entrant": {"id": 21125289, "name": "BigPlay", "participants": [{"id": 19431060, "gamerTag": "BigPlay", "prefix": "", "user": {"location": {"city": "Atlanta", "state": "GA", "country": "United States"}}, "player": {"id": 31308, "gamerTag": "BigPlay", "prefix": "", "user": {"location": {"city": "Atlanta", "state": "GA", "country": "United States"}}}}]}, "standing": {"placement": 2, "stats": {"score": {"value": -1}}}}, {"id": "93362564-1", "entrant": {"id": 21062074, "name": "Jdaddy", "participants": [{"id": 19374212, "gamerTag": "Jdaddy", "prefix": null, "user": {"location": {"city": "Atlanta", "state": "GA", "country": "United States"}}, "player": {"id": 4384721, "gamerTag": "Jdaddy", "prefix": null, "user": {"location": {"city": "Atlanta", "state": "GA", "country": "United States"}}}}]}, "standing": {"placement": 1, "stats": {"score": {"value": null}}}}], "games": null}, {"id": 93362565, "state": 3, "round": -4, "fullRoundText": "Losers Round 1", "completedAt": 1756686550, "winnerId": 21078191, "slots": [{"id": "93362565-0", "entrant": {"id": 21078191, "name": "Heart", "participants": [{"id": 19388853, "gamerTag": "Heart", "prefix": "", "user": {"location": {"city": "Atlanta", "state": "GA", "country": "United States"}}, "player": {"id": 4287822, "gamerTag": "Heart", "prefix": "", "user": {"location": {"city": "Atlanta", "state": "GA", "country": "United States"}}}}]}, "standing": {"placement": 1, "stats": {"score": {"value": 2}}}}, {"id": "93362565-1", "entrant": {"id": 21122153, "name": "MTM | Bob Weiner", "participants": [{"id": 19428298, "gamerTag": "Bob Weiner", "prefix": "MTM", "user": {"location": {"city": "Kennesaw", "state": "GA", "country": "United States"}}, "player": {"id": 2142601, "gamerTag": "Bob Weiner", "prefix": "MTM", "user": {"location": {"city": "Kennesaw", "state": "GA", "country": "United States"}}}}]}, "standing": {"placement": 2, "stats": {"score": {"value": 1}}}}], "games": null}]}}}