{"phase": {"seeds": {"pageInfo": {"totalPages": 1, "total": 7}, "nodes": [{"id": 36804892, "seedNum": 1, "entrant": {"id": 21398031, "name": "SNRS | SmokePudding", "participants": [{"id": 19668967, "gamerTag": "SmokePudding", "prefix": "SNRS", "user": {"location": {"city": "Riverdale", "state": "GA", "country": "United States"}}, "player": {"id": 281776, "gamerTag": "SmokePudding", "prefix": "", "user": {"location": {"city": "Riverdale", "state": "GA", "country": "United States"}}}}]}}, {"id": 36757793, "seedNum": 7, "entrant": {"id": 21364216, "name": "CR2 | baronkorvo", "participants": [{"id": 19639473, "gamerTag": "baronkorvo", "prefix": "CR2", "user": {"location": {"city": "Bethlehem", "state": "GA", "country": "United States"}}, "player": {"id": 1186009, "gamerTag": "baronkorvo", "prefix": "CR2", "user": {"location": {"city": "Bethlehem", "state": "GA", "country": "United States"}}}}]}}, {"id": 36803817, "seedNum": 3, "entrant": {"id": 21397186, "name": "ZB | wolfy", "participants": [{"id": 19668281, "gamerTag": "wolfy", "prefix": "ZB", "user": {"location": {"city": "Tyrone", "state": "GA", "country": "United States"}}, "player": {"id": 295981, "gamerTag": "wolfy", "prefix": "ZB", "user": {"location": {"city": "Tyrone", "state": "GA", "country": "United States"}}}}]}}, {"id": 36789456, "seedNum": 6, "entrant": {"id": 21386733, "name": "Foam Root", "participants": [{"id": 19649153, "gamerTag": "Foam Root", "prefix": null, "user": {"location": {"city": "Covington", "state": "GA", "country": "United States"}}, "player": {"id": 541222, "gamerTag": "Foam Root", "prefix": "", "user": {"location": {"city": "Covington", "state": "GA", "country": "United States"}}}}]}}, {"id": 36556257, "seedNum": 4, "entrant": {"id": 21224365, "name": "ZB | Sanaito", "participants": [{"id": 19518587, "gamerTag": "Sanaito", "prefix": "ZB", "user": {"location": {"city": "Fayetteville", "state": "GA", "country": "United States"}}, "player": {"id": 12761, "gamerTag": "Sanaito", "prefix": "ZB", "user": {"location": {"city": "Fayetteville", "state": "GA", "country": "United States"}}}}]}}, {"id": 36782426, "seedNum": 5, "entrant": {"id": 21381990, "name": "OEG | EggJolk", "participants": [{"id": 19655242, "gamerTag": "EggJolk", "prefix": "OEG", "user": {"location": {"city": "Atlanta", "state": "GA", "country": "United States"}}, "player": {"id": 1009143, "gamerTag": "EggJolk", "prefix": "OEG", "user": {"location": {"city": "Atlanta", "state": "GA", "country": "United States"}}}}]}}, {"id": 36808302, "seedNum": 2, "entrant": {"id": 21400504, "name": "DEMIURGE", "participants": [{"id": 19670912, "gamerTag": "DEMIURGE", "prefix": "", "user": {"location": {"city": "Rome", "state": null, "country": null}}, "player": {"id": 1227450, "gamerTag": "DEMIURGE", "prefix": "", "user": {"location": {"city": "Rome", "state": null, "country": null}}}}]}}]}}}