{"event": {"sets": {"pageInfo": {"totalPages": 6, "total": 78}, "nodes": [{"id": 92912765, "state": 3, "round": -8, "fullRoundText": "Losers Round 5", "completedAt": 1755828376, "winnerId": 21034772, "slots": [{"id": "92912765-0", "entrant": {"id": 21034772, "name": "MBS | Vivid", "participants": [{"id": 19349789, "gamerTag": "Vivid", "prefix": "MBS", "user": {"location": {"city": "Atl", "state": "GA", "country": "United States"}}, "player": {"id": 499333, "gamerTag": "Vivid", "prefix": "MBS", "user": {"location": {"city": "Atl", "state": "GA", "country": "United States"}}}}]}, "standing": {"placement": 1, "stats": {"score": {"value": 2}}}}, {"id": "92912765-1", "entrant": {"id": 21030728, "name": "Rain~", "participants": [{"id": 19345906, "gamerTag": "Rain~", "prefix": null, "user": {"location": {"city": "Atlanta", "state": "GA", "country": "United States"}}, "player": {"id": 4240164, "gamerTag": "Rain~", "prefix": null, "user": {"location": {"city": "Atlanta", "state": "GA", "country": "United States"}}}}]}, "standing": {"placement": 2, "stats": {"score": {"value": 0}}}}], "games": null}, {"id": 92912766, "state": 3, "round": -8, "fullRoundText": "Losers Round 5", "completedAt": 1755828252, "winnerId": 21033631, "slots": [{"id": "92912766-0", "entrant": {"id": 21027885, "name": "GUMP2 | ToxiC", "participants": [{"id": 19343227, "gamerTag": "ToxiC", "prefix": "GUMP2", "user": {"location": {"city": "Marietta", "state": "GA", "country": "United States"}}, "player": {"id": 2585804, "gamerTag": "ToxiC", "prefix": "GUMP2", "user": {"location": {"city": "Marietta", "state": "GA", "country": "United States"}}}}]}, "standing": {"placement": 2, "stats": {"score": {"value": 1}}}}, {"id": "92912766-1", "entrant": {"id": 21033631, "name": "GUMP2 | STiCK", "participants": [{"id": 19348707, "gamerTag": "STiCK", "prefix": "GUMP2", "user": {"location": {"city": "Woodstock", "state": "GA", "country": "United States"}}, "player": {"id": 282674, "gamerTag": "STiCK", "prefix": "GUMP2", "user": {"location": {"city": "Woodstock", "state": "GA", "country": "United States"}}}}]}, "standing": {"placement": 1, "stats": {"score": {"value": 2}}}}], "games": null}, {"id": 92912767, "state": 3, "round": -8, "fullRoundText": "Losers Round 5", "completedAt": 1755829026, "winnerId": 21033900, "slots": [{"id": "92912767-0", "entrant": {"id": 21034649, "name": "KumaDusk", "participants": [{"id": 19349668, "gamerTag": "KumaDusk", "prefix": "", "user": {"location": {"city": "Lawrenceville", "state": "GA", "country": "United States"}}, "player": {"id": 253909, "gamerTag": "KumaDusk", "prefix": "", "user": {"location": {"city": "Lawrenceville", "state": "GA", "country": "United States"}}}}]}, "standing": {"placement": 2, "stats": {"score": {"value": 1}}}}, {"id": "92912767-1", "entrant": {"id": 21033900, "name": "GUMP2 | Spider", "participants": [{"id": 19348968, "gamerTag": "Spider", "prefix": "GUMP2", "user": {"location": {"city": "Atlanta", "state": "GA", "country": "United States"}}, "player": {"id": 691176, "gamerTag": "Spider", "prefix": "GUMP2", "user": {"location": {"city": "Atlanta", "state": "GA", "country": "United States"}}}}]}, "standing": {"placement": 1, "stats": {"score": {"value": 2}}}}], "games": null}, {"id": 92912760, "state": 3, "round": -7, "fullRoundText": "Losers Round 4", "completedAt": 1755827261, "winnerId": 21032231, "slots": [{"id": "92912760-0", "entrant": {"id": 21032708, "name": "red dot", "participants": [{"id": 19347832, "gamerTag": "red dot", "prefix": "", "user": {"location": {"city": "Milton", "state": "GA", "country": "United States"}}, "player": {"id": 1812177, "gamerTag": "red dot", "prefix": "", "user": {"location": {"city": "Milton", "state": "GA", "country": "United States"}}}}]}, "standing": {"placement": 2, "stats": {"score": {"value": 0}}}}, {"id": "92912760-1", "entrant": {"id": 21032231, "name": "The Simpsons | Ryu from Streets", "participants": [{"id": 19347351, "gamerTag": "Ryu from Streets", "prefix": "The Simpsons", "user": {"location": {"city": null, "state": null, "country": null}}, "player": {"id": 2348605, "gamerTag": "Ryu from Streets", "prefix": "GUMP2", "user": {"location": {"city": null, "state": null, "country": null}}}}]}, "standing": {"placement": 1, "stats": {"score": {"value": 2}}}}], "games": null}, {"id": 92912761, "state": 3, "round": -7, "fullRoundText": "Losers Round 4", "completedAt": 1755826691, "winnerId": 21030728, "slots": [{"id": "92912761-0", "entrant": {"id": 21030728, "name": "Rain~", "participants": [{"id": 19345906, "gamerTag": "Rain~", "prefix": null, "user": {"location": {"city": "Atlanta", "state": "GA", "country": "United States"}}, "player": {"id": 4240164, "gamerTag": "Rain~", "prefix": null, "user": {"location": {"city": "Atlanta", "state": "GA", "country": "United States"}}}}]}, "standing": {"placement": 1, "stats": {"score": {"value": 2}}}}, {"id": "92912761-1", "entrant": {"id": 21034255, "name": "EVC | N8borsclub", "participants": [{"id": 19349313, "gamerTag": "N8borsclub", "prefix": "EVC", "user": {"location": {"city": "Smyrna", "state": "GA", "country": "United States"}}, "player": {"id": 1137803, "gamerTag": "N8borsclub", "prefix": "EVC", "user": {"location": {"city": "Smyrna", "state": "GA", "country": "United States"}}}}]}, "standing": {"placement": 2, "stats": {"score": {"value": 0}}}}], "games": null}, {"id": 92912762, "state": 3, "round": -7, "fullRoundText": "Losers Round 4", "completedAt": 1755827495, "winnerId": 21033631, "slots": [{"id": "92912762-0", "entrant": {"id": 21033631, "name": "GUMP2 | STiCK", "participants": [{"id": 19348707, "gamerTag": "STiCK", "prefix": "GUMP2", "user": {"location": {"city": "Woodstock", "state": "GA", "country": "United States"}}, "player": {"id": 282674, "gamerTag": "STiCK", "prefix": "GUMP2", "user": {"location": {"city": "Woodstock", "state": "GA", "country": "United States"}}}}]}, "standing": {"placement": 1, "stats": {"score": {"value": 2}}}}, {"id": "92912762-1", "entrant": {"id": 21034385, "name": "AO5 | Korok", "participants": [{"id": 19349434, "gamerTag": "Korok", "prefix": "AO5", "user": {"location": {"city": "Decatur", "state": "GA", "country": "United States"}}, "player": {"id": 2697934, "gamerTag": "Korok", "prefix": "AO5", "user": {"location": {"city": "Decatur", "state": "GA", "country": "United States"}}}}]}, "standing": {"placement": 2, "stats": {"score": {"value": 1}}}}], "games": null}, {"id": 92912763, "state": 3, "round": -7, "fullRoundText": "Losers Round 4", "completedAt": 1755827840, "winnerId": 21033900, "slots": [{"id": "92912763-0", "entrant": {"id": 21033900, "name": "GUMP2 | Spider", "participants": [{"id": 19348968, "gamerTag": "Spider", "prefix": "GUMP2", "user": {"location": {"city": "Atlanta", "state": "GA", "country": "United States"}}, "player": {"id": 691176, "gamerTag": "Spider", "prefix": "GUMP2", "user": {"location": {"city": "Atlanta", "state": "GA", "country": "United States"}}}}]}, "standing": {"placement": 1, "stats": {"score": {"value": 2}}}}, {"id": "92912763-1", "entrant": {"id": 21032656, "name": "GUMP2 | Woz but evil", "participants": [{"id": 19347774, "gamerTag": "Woz but evil", "prefix": "GUMP2", "user": {"location": {"city": "Avondale Estates", "state": "GA", "country": "United States"}}, "player": {"id": 225744, "gamerTag": "Z I C O", "prefix": "GUMP2", "user": {"location": {"city": "Avondale Estates", "state": "GA", "country": "United States"}}}}]}, "standing": {"placement": 2, "stats": {"score": {"value": 0}}}}], "games": null}, {"id": 92912633, "state": 3, "round": 3, "fullRoundText": "Winners Round 3", "completedAt": 1755825452, "winnerId": 21034649, "slots": [{"id": "92912633-0", "entrant": {"id": 21034649, "name": "KumaDusk", "participants": [{"id": 19349668, "gamerTag": "KumaDusk", "prefix": "", "user": {"location": {"city": "Lawrenceville", "state": "GA", "country": "United States"}}, "player": {"id": 253909, "gamerTag": "KumaDusk", "prefix": "", "user": {"location": {"city": "Lawrenceville", "state": "GA", "country": "United States"}}}}]}, "standing": {"placement": 1, "stats": {"score": {"value": 2}}}}, {"id": "92912633-1", "entrant": {"id": 21032987, "name": "tristories", "participants": [{"id": 19348099, "gamerTag": "tristories", "prefix": null, "user": {"location": {"city": "ATLANTA", "state": "GA", "country": "United States"}}, "player": {"id": 1406480, "gamerTag": "tristories", "prefix": "\u03b5\u03b2", "user": {"location": {"city": "ATLANTA", "state": "GA", "country": "United States"}}}}]}, "standing": {"placement": 2, "stats": {"score": {"value": 0}}}}], "games": null}, {"id": 92912634, "state": 3, "round": 3, "fullRoundText": "Winners Round 3", "completedAt": 1755825864, "winnerId": 20973936, "slots": [{"id": "92912634-0", "entrant": {"id": 20973936, "name": "Ave~", "participants": [{"id": 19295134, "gamerTag": "Ave~", "prefix": "", "user": {"location": {"city": null, "state": null, "country": null}}, "player": {"id": 38830, "gamerTag": "Ave~", "prefix": "", "user": {"location": {"city": null, "state": null, "country": null}}}}]}, "standing": {"placement": 1, "stats": {"score": {"value": 2}}}}, {"id": "92912634-1", "entrant": {"id": 21035013, "name": "Barbashop", "participants": [{"id": 19349988, "gamerTag": "Barbashop", "prefix": "", "user": {"location": {"city": null, "state": null, "country": null}}, "player": {"id": 2537853, "gamerTag": "Barbashop", "prefix": "", "user": {"location": {"city": null, "state": null, "country": null}}}}]}, "standing": {"placement": 2, "stats": {"score": {"value": 1}}}}], "games": null}, {"id": 92912635, "state": 3, "round": 3, "fullRoundText": "Winners Round 3", "completedAt": 1755826233, "winnerId": 21022038, "slots": [{"id": "92912635-0", "entrant": {"id": 21022038, "name": "DGS | spickles", "participants": [{"id": 19337979, "gamerTag": "spickles", "prefix": "DGS", "user": {"location": {"city": null, "state": null, "country": "United States"}}, "player": {"id": 1154793, "gamerTag": "spickles", "prefix": "DGS", "user": {"location": {"city": null, "state": null, "country": "United States"}}}}]}, "standing": {"placement": 1, "stats": {"score": {"value": 2}}}}, {"id": "92912635-1", "entrant": {"id": 21030548, "name": "Daiyan", "participants": [{"id": 19345719, "gamerTag": "Daiyan", "prefix": "", "user": {"location": {"city": "Lawrenceville", "state": "GA", "country": "United States"}}, "player": {"id": 1059715, "gamerTag": "Daiyan", "prefix": "", "user": {"location": {"city": "Lawrenceville", "state": "GA", "country": "United States"}}}}]}, "standing": {"placement": 2, "stats": {"score": {"value": 1}}}}], "games": [{"id": 32051683, "orderNum": 1, "winnerId": 21022038, "entrant1Score": 0, "entrant2Score": 0, "stage": null, "selections": [{"id": 47223728, "selectionType": "CHARACTER", "selectionValue": 1795, "entrant": {"id": 21022038}, "character": {"id": 1795, "name": "Pyra & Mythra"}}, {"id": 47223729, "selectionType": "CHARACTER", "selectionValue": 1746, "entrant": {"id": 21030548}, "character": {"id": 1746, "name": "Random Character"}}]}, {"id": 32051684, "orderNum": 2, "winnerId": 21030548, "entrant1Score": 0, "entrant2Score": null, "stage": null, "selections": [{"id": 47223730, "selectionType": "CHARACTER", "selectionValue": 1795, "entrant": {"id": 21022038}, "character": {"id": 1795, "name": "Pyra & Mythra"}}, {"id": 47223731, "selectionType": "CHARACTER", "selectionValue": 1746, "entrant": {"id": 21030548}, "character": {"id": 1746, "name": "Random Character"}}]}, {"id": 32051685, "orderNum": 3, "winnerId": 21022038, "entrant1Score": null, "entrant2Score": 0, "stage": null, "selections": [{"id": 47223732, "selectionType": "CHARACTER", "selectionValue": 1301, "entrant": {"id": 21022038}, "character": {"id": 1301, "name": "Luigi"}}, {"id": 47223733, "selectionType": "CHARACTER", "selectionValue": 1746, "entrant": {"id": 21030548}, "character": {"id": 1746, "name": "Random Character"}}]}]}, {"id": 92912636, "state": 3, "round": 3, "fullRoundText": "Winners Round 3", "completedAt": 1755833447, "winnerId": 21031445, "slots": [{"id": "92912636-0", "entrant": {"id": 21033900, "name": "GUMP2 | Spider", "participants": [{"id": 19348968, "gamerTag": "Spider", "prefix": "GUMP2", "user": {"location": {"city": "Atlanta", "state": "GA", "country": "United States"}}, "player": {"id": 691176, "gamerTag": "Spider", "prefix": "GUMP2", "user": {"location": {"city": "Atlanta", "state": "GA", "country": "United States"}}}}]}, "standing": {"placement": 2, "stats": {"score": {"value": 1}}}}, {"id": "92912636-1", "entrant": {"id": 21031445, "name": "RM | GUMP2 | Kr!stal:0", "participants": [{"id": 19346578, "gamerTag": "Kr!stal:0", "prefix": "RM | GUMP2", "user": {"location": {"city": "Lawrenceville", "state": "GA", "country": "United States"}}, "player": {"id": 2409815, "gamerTag": "AO ASHI SEASON 2 2026", "prefix": "RM | GUMP2", "user": {"location": {"city": "Lawrenceville", "state": "GA", "country": "United States"}}}}]}, "standing": {"placement": 1, "stats": {"score": {"value": 2}}}}], "games": [{"id": 32055473, "orderNum": 1, "winnerId": 21031445, "entrant1Score": 0, "entrant2Score": null, "stage": null, "selections": [{"id": 47230292, "selectionType": "CHARACTER", "selectionValue": 1766, "entrant": {"id": 21031445}, "character": {"id": 1766, "name": "Steve"}}, {"id": 47230293, "selectionType": "CHARACTER", "selectionValue": 1275, "entrant": {"id": 21033900}, "character": {"id": 1275, "name": "Cloud"}}]}, {"id": 32055474, "orderNum": 2, "winnerId": 21033900, "entrant1Score": null, "entrant2Score": 0, "stage": null, "selections": [{"id": 47230294, "selectionType": "CHARACTER", "selectionValue": 1766, "entrant": {"id": 21031445}, "character": {"id": 1766, "name": "Steve"}}, {"id": 47230295, "selectionType": "CHARACTER", "selectionValue": 1275, "entrant": {"id": 21033900}, "character": {"id": 1275, "name": "Cloud"}}]}, {"id": 32055475, "orderNum": 3, "winnerId": 21031445, "entrant1Score": 0, "entrant2Score": null, "stage": null, "selections": [{"id": 47230296, "selectionType": "CHARACTER", "selectionValue": 1766, "entrant": {"id": 21031445}, "character": {"id": 1766, "name": "Steve"}}, {"id": 47230297, "selectionType": "CHARACTER", "selectionValue": 1275, "entrant": {"id": 21033900}, "character": {"id": 1275, "name": "Cloud"}}]}]}, {"id": 92912637, "state": 3, "round": 3, "fullRoundText": "Winners Round 3", "completedAt": 1755825609, "winnerId": 21032787, "slots": [{"id": "92912637-0", "entrant": {"id": 21034385, "name": "AO5 | Korok", "participants": [{"id": 19349434, "gamerTag": "Korok", "prefix": "AO5", "user": {"location": {"city": "Decatur", "state": "GA", "country": "United States"}}, "player": {"id": 2697934, "gamerTag": "Korok", "prefix": "AO5", "user": {"location": {"city": "Decatur", "state": "GA", "country": "United States"}}}}]}, "standing": {"placement": 2, "stats": {"score": {"value": 0}}}}, {"id": "92912637-1", "entrant": {"id": 21032787, "name": "CFL | Benji", "participants": [{"id": 19347910, "gamerTag": "Benji", "prefix": "CFL", "user": {"location": {"city": "Orlando", "state": "FL", "country": "United States"}}, "player": {"id": 2990255, "gamerTag": "Benji", "prefix": "CFL", "user": {"location": {"city": "Orlando", "state": "FL", "country": "United States"}}}}]}, "standing": {"placement": 1, "stats": {"score": {"value": 2}}}}], "games": null}, {"id": 92912638, "state": 3, "round": 3, "fullRoundText": "Winners Round 3", "completedAt": 1755825716, "winnerId": 21034772, "slots": [{"id": "92912638-0", "entrant": {"id": 21034772, "name": "MBS | Vivid", "participants": [{"id": 19349789, "gamerTag": "Vivid", "prefix": "MBS", "user": {"location": {"city": "Atl", "state": "GA", "country": "United States"}}, "player": {"id": 499333, "gamerTag": "Vivid", "prefix": "MBS", "user": {"location": {"city": "Atl", "state": "GA", "country": "United States"}}}}]}, "standing": {"placement": 1, "stats": {"score": {"value": 2}}}}, {"id": "92912638-1", "entrant": {"id": 21033631, "name": "GUMP2 | STiCK", "participants": [{"id": 19348707, "gamerTag": "STiCK", "prefix": "GUMP2", "user": {"location": {"city": "Woodstock", "state": "GA", "country": "United States"}}, "player": {"id": 282674, "gamerTag": "STiCK", "prefix": "GUMP2", "user": {"location": {"city": "Woodstock", "state": "GA", "country": "United States"}}}}]}, "standing": {"placement": 2, "stats": {"score": {"value": 0}}}}], "games": null}, {"id": 92912631, "state": 3, "round": 3, "fullRoundText": "Winners Round 3", "completedAt": 1755824889, "winnerId": 21035185, "slots": [{"id": "92912631-0", "entrant": {"id": 21035185, "name": "omega", "participants": [{"id": 19350173, "gamerTag": "omega", "prefix": "", "user": {"location": {"city": "Suwanee", "state": "GA", "country": "United States"}}, "player": {"id": 24638, "gamerTag": "omega", "prefix": "", "user": {"location": {"city": "Suwanee", "state": "GA", "country": "United States"}}}}]}, "standing": {"placement": 1, "stats": {"score": {"value": 2}}}}, {"id": "92912631-1", "entrant": {"id": 21031437, "name": "Trout~", "participants": [{"id": 19346570, "gamerTag": "Trout~", "prefix": "", "user": {"location": {"city": "Lawrenceville", "state": "GA", "country": "United States"}}, "player": {"id": 905410, "gamerTag": "Primary Trout~", "prefix": "", "user": {"location": {"city": "Lawrenceville", "state": "GA", "country": "United States"}}}}]}, "standing": {"placement": 2, "stats": {"score": {"value": 0}}}}], "games": null}, {"id": 92912632, "state": 3, "round": 3, "fullRoundText": "Winners Round 3", "completedAt": 1755824798, "winnerId": 21027885, "slots": [{"id": "92912632-0", "entrant": {"id": 21027885, "name": "GUMP2 | ToxiC", "participants": [{"id": 19343227, "gamerTag": "ToxiC", "prefix": "GUMP2", "user": {"location": {"city": "Marietta", "state": "GA", "country": "United States"}}, "player": {"id": 2585804, "gamerTag": "ToxiC", "prefix": "GUMP2", "user": {"location": {"city": "Marietta", "state": "GA", "country": "United States"}}}}]}, "standing": {"placement": 1, "stats": {"score": {"value": 2}}}}, {"id": "92912632-1", "entrant": {"id": 21030728, "name": "Rain~", "participants": [{"id": 19345906, "gamerTag": "Rain~", "prefix": null, "user": {"location": {"city": "Atlanta", "state": "GA", "country": "United States"}}, "player": {"id": 4240164, "gamerTag": "Rain~", "prefix": null, "user": {"location": {"city": "Atlanta", "state": "GA", "country": "United States"}}}}]}, "standing": {"placement": 2, "stats": {"score": {"value": 1}}}}], "games": null}]}}}