{"phase": {"seeds": {"pageInfo": {"totalPages": 1, "total": 11}, "nodes": [{"id": 36810613, "seedNum": 1, "entrant": {"id": 21402147, "name": "SS | DDee", "participants": [{"id": 19672219, "gamerTag": "DDee", "prefix": "SS", "user": {"location": {"city": "Dacula", "state": "GA", "country": "United States"}}, "player": {"id": 1480393, "gamerTag": "DDee", "prefix": "SS", "user": {"location": {"city": "Dacula", "state": "GA", "country": "United States"}}}}]}}, {"id": 36777703, "seedNum": 2, "entrant": {"id": 21378719, "name": "UGA | Akamos", "participants": [{"id": 19652430, "gamerTag": "Akamos", "prefix": "UGA", "user": {"location": {"city": "Kennesaw", "state": "GA", "country": "United States"}}, "player": {"id": 2233683, "gamerTag": "Akamos", "prefix": "UGA", "user": {"location": {"city": "Kennesaw", "state": "GA", "country": "United States"}}}}]}}, {"id": 36812001, "seedNum": 6, "entrant": {"id": 21403223, "name": "PitchingAce33", "participants": [{"id": 19673166, "gamerTag": "PitchingAce33", "prefix": "", "user": {"location": {"city": null, "state": "GA", "country": "United States"}}, "player": {"id": 1198327, "gamerTag": "PitchingAce33", "prefix": "", "user": {"location": {"city": null, "state": "GA", "country": "United States"}}}}]}}, {"id": 36780692, "seedNum": 3, "entrant": {"id": 21380957, "name": "Nia", "participants": [{"id": 19654407, "gamerTag": "Nia", "prefix": null, "user": {"location": {"city": "Buford", "state": "GA", "country": "United States"}}, "player": {"id": 428070, "gamerTag": "Nia", "prefix": null, "user": {"location": {"city": "Buford", "state": "GA", "country": "United States"}}}}]}}, {"id": 36818982, "seedNum": 4, "entrant": {"id": 21406535, "name": "417 | Impluvio", "participants": [{"id": 19676171, "gamerTag": "Impluvio", "prefix": "417", "user": {"location": {"city": null, "state": null, "country": null}}, "player": {"id": 2175953, "gamerTag": "Impluvio", "prefix": "417", "user": {"location": {"city": null, "state": null, "country": null}}}}]}}, {"id": 36778178, "seedNum": 5, "entrant": {"id": 21379165, "name": "Savant", "participants": [{"id": 19652741, "gamerTag": "Savant", "prefix": null, "user": {"location": {"city": "Athens", "state": "GA", "country": "United States"}}, "player": {"id": 1944044, "gamerTag": "Savant", "prefix": "LBE | CC", "user": {"location": {"city": "Athens", "state": "GA", "country": "United States"}}}}]}}, {"id": 36777932, "seedNum": 7, "entrant": {"id": 21378959, "name": "Sol | Spruce", "participants": [{"id": 19652554, "gamerTag": "Spruce", "prefix": "Sol", "user": {"location": {"city": null, "state": null, "country": "United States"}}, "player": {"id": 1100077, "gamerTag": "Spruce", "prefix": "Sol", "user": {"location": {"city": null, "state": null, "country": "United States"}}}}]}}, {"id": 36817752, "seedNum": 8, "entrant": {"id": 21405747, "name": "SweatOnly", "participants": [{"id": 19675447, "gamerTag": "SweatOnly", "prefix": "", "user": {"location": {"city": "Lilburn", "state": "GA", "country": "United States"}}, "player": {"id": 1406711, "gamerTag": "SweatOnly", "prefix": "", "user": {"location": {"city": "Lilburn", "state": "GA", "country": "United States"}}}}]}}, {"id": 36782767, "seedNum": 9, "entrant": {"id": 21382222, "name": "UGA | LaJohn", "participants": [{"id": 19655429, "gamerTag": "LaJohn", "prefix": "UGA", "user": {"location": {"city": "Suwanee", "state": "GA", "country": "United States"}}, "player": {"id": 1742867, "gamerTag": "LaJohn", "prefix": "UGA", "user": {"location": {"city": "Suwanee", "state": "GA", "country": "United States"}}}}]}}, {"id": 36818722, "seedNum": 10, "entrant": {"id": 21406375, "name": "UGA | | samtwo", "participants": [{"id": 19652839, "gamerTag": "samtwo", "prefix": "UGA |", "user": {"location": {"city": "Athens", "state": "GA", "country": "United States"}}, "player": {"id": 1246662, "gamerTag": "samtwo", "prefix": "UGA |", "user": {"location": {"city": "Athens", "state": "GA", "country": "United States"}}}}]}}, {"id": 36809908, "seedNum": 11, "entrant": {"id": 21401624, "name": "CC | Vertebrae", "participants": [{"id": 19671808, "gamerTag": "Vertebrae", "prefix": "CC", "user": {"location": {"city": "Athens", "state": "GA", "country": "United States"}}, "player": {"id": 1583946, "gamerTag": "Vertebrae", "prefix": "CC", "user": {"location": {"city": "Athens", "state": "GA", "country": "United States"}}}}]}}]}}}