{"event": {"sets": {"pageInfo": {"totalPages": 6, "total": 86}, "nodes": [{"id": 91788324, "state": 3, "round": 1, "fullRoundText": "Winners Round 1", "completedAt": 1753404077, "winnerId": 20791607, "slots": [{"id": "91788324-0", "entrant": {"id": 20791607, "name": "cole | Jeff", "participants": [{"id": 19134943, "gamerTag": "Jeff", "prefix": "cole", "user": {"location": {"city": "Raleigh", "state": "NC", "country": "United States"}}, "player": {"id": 1324465, "gamerTag": "Jeff", "prefix": "cole", "user": {"location": {"city": "Raleigh", "state": "NC", "country": "United States"}}}}]}, "standing": {"placement": 1, "stats": {"score": {"value": 2}}}}, {"id": "91788324-1", "entrant": {"id": 20792119, "name": "Simfrm", "participants": [{"id": 19135366, "gamerTag": "Simfrm", "prefix": null, "user": {"location": {"city": "Dacula", "state": "GA", "country": "United States"}}, "player": {"id": 4506739, "gamerTag": "Simfrm", "prefix": null, "user": {"location": {"city": "Dacula", "state": "GA", "country": "United States"}}}}]}, "standing": {"placement": 2, "stats": {"score": {"value": 1}}}}], "games": [{"id": 31484708, "orderNum": 1, "winnerId": 20791607, "entrant1Score": null, "entrant2Score": 0, "stage": null, "selections": [{"id": 46347128, "selectionType": "CHARACTER", "selectionValue": 1441, "entrant": {"id": 20791607}, "character": {"id": 1441, "name": "Piranha Plant"}}, {"id": 46347129, "selectionType": "CHARACTER", "selectionValue": 1897, "entrant": {"id": 20792119}, "character": {"id": 1897, "name": "Sora"}}]}, {"id": 31484709, "orderNum": 2, "winnerId": 20792119, "entrant1Score": 0, "entrant2Score": null, "stage": null, "selections": [{"id": 46347130, "selectionType": "CHARACTER", "selectionValue": 1441, "entrant": {"id": 20791607}, "character": {"id": 1441, "name": "Piranha Plant"}}, {"id": 46347131, "selectionType": "CHARACTER", "selectionValue": 1897, "entrant": {"id": 20792119}, "character": {"id": 1897, "name": "Sora"}}]}, {"id": 31484710, "orderNum": 3, "winnerId": 20791607, "entrant1Score": null, "entrant2Score": 0, "stage": null, "selections": [{"id": 46347132, "selectionType": "CHARACTER", "selectionValue": 1441, "entrant": {"id": 20791607}, "character": {"id": 1441, "name": "Piranha Plant"}}, {"id": 46347133, "selectionType": "CHARACTER", "selectionValue": 1897, "entrant": {"id": 20792119}, "character": {"id": 1897, "name": "Sora"}}]}]}, {"id": 91788326, "state": 3, "round": 1, "fullRoundText": "Winners Round 1", "completedAt": 1753403179, "winnerId": 20791724, "slots": [{"id": "91788326-0", "entrant": {"id": 20791724, "name": "AO5 | ImPhenyl", "participants": [{"id": 19135044, "gamerTag": "ImPhenyl", "prefix": "AO5", "user": {"location": {"city": "Lawrenceville", "state": "GA", "country": "United States"}}, "player": {"id": 3256876, "gamerTag": "ImPhenyl", "prefix": "AO5", "user": {"location": {"city": "Lawrenceville", "state": "GA", "country": "United States"}}}}]}, "standing": {"placement": 1, "stats": {"score": {"value": 2}}}}, {"id": "91788326-1", "entrant": {"id": 20788473, "name": "Nightlight | TAWKSICK", "participants": [{"id": 19131985, "gamerTag": "TAWKSICK", "prefix": "Nightlight", "user": {"location": {"city": null, "state": null, "country": "United States"}}, "player": {"id": 3342573, "gamerTag": "TAWKSICK", "prefix": "", "user": {"location": {"city": null, "state": null, "country": "United States"}}}}]}, "standing": {"placement": 2, "stats": {"score": {"value": 0}}}}], "games": [{"id": 31483818, "orderNum": 1, "winnerId": 20791724, "entrant1Score": null, "entrant2Score": 0, "stage": null, "selections": [{"id": 46346128, "selectionType": "CHARACTER", "selectionValue": 1323, "entrant": {"id": 20788473}, "character": {"id": 1323, "name": "R.O.B."}}, {"id": 46346129, "selectionType": "CHARACTER", "selectionValue": 1339, "entrant": {"id": 20791724}, "character": {"id": 1339, "name": "Young Link"}}]}, {"id": 31483819, "orderNum": 2, "winnerId": 20791724, "entrant1Score": null, "entrant2Score": 0, "stage": null, "selections": [{"id": 46346130, "selectionType": "CHARACTER", "selectionValue": 1795, "entrant": {"id": 20788473}, "character": {"id": 1795, "name": "Pyra & Mythra"}}, {"id": 46346131, "selectionType": "CHARACTER", "selectionValue": 1339, "entrant": {"id": 20791724}, "character": {"id": 1339, "name": "Young Link"}}]}]}, {"id": 91788328, "state": 3, "round": 1, "fullRoundText": "Winners Round 1", "completedAt": 1753403080, "winnerId": 20790685, "slots": [{"id": "91788328-0", "entrant": {"id": 20790685, "name": "carlop", "participants": [{"id": 19134101, "gamerTag": "carlop", "prefix": null, "user": {"location": {"city": "Johns Creek", "state": "GA", "country": "United States"}}, "player": {"id": 3431919, "gamerTag": "carlop", "prefix": null, "user": {"location": {"city": "Johns Creek", "state": "GA", "country": "United States"}}}}]}, "standing": {"placement": 1, "stats": {"score": {"value": 2}}}}, {"id": "91788328-1", "entrant": {"id": 20792057, "name": "D.King79", "participants": [{"id": 19135323, "gamerTag": "D.King79", "prefix": null, "user": {"location": {"city": "Mt. Olympus", "state": "GA", "country": "United States"}}, "player": {"id": 534660, "gamerTag": "D.King79", "prefix": null, "user": {"location": {"city": "Mt. Olympus", "state": "GA", "country": "United States"}}}}]}, "standing": {"placement": 2, "stats": {"score": {"value": 0}}}}], "games": [{"id": 31483710, "orderNum": 1, "winnerId": 20790685, "entrant1Score": null, "entrant2Score": 0, "stage": null, "selections": [{"id": 46346010, "selectionType": "CHARACTER", "selectionValue": 1301, "entrant": {"id": 20790685}, "character": {"id": 1301, "name": "Luigi"}}, {"id": 46346011, "selectionType": "CHARACTER", "selectionValue": 1526, "entrant": {"id": 20792057}, "character": {"id": 1526, "name": "Hero"}}]}, {"id": 31483712, "orderNum": 2, "winnerId": 20790685, "entrant1Score": null, "entrant2Score": 0, "stage": null, "selections": [{"id": 46346012, "selectionType": "CHARACTER", "selectionValue": 1301, "entrant": {"id": 20790685}, "character": {"id": 1301, "name": "Luigi"}}, {"id": 46346013, "selectionType": "CHARACTER", "selectionValue": 1526, "entrant": {"id": 20792057}, "character": {"id": 1526, "name": "Hero"}}]}]}, {"id": 91788332, "state": 3, "round": 1, "fullRoundText": "Winners Round 1", "completedAt": 1753403145, "winnerId": 20788784, "slots": [{"id": "91788332-0", "entrant": {"id": 20788784, "name": "Boo", "participants": [{"id": 19132250, "gamerTag": "Boo", "prefix": "", "user": {"location": {"city": "Cumming", "state": "GA", "country": "United States"}}, "player": {"id": 2647915, "gamerTag": "Boo", "prefix": "", "user": {"location": {"city": "Cumming", "state": "GA", "country": "United States"}}}}]}, "standing": {"placement": 1, "stats": {"score": {"value": 2}}}}, {"id": "91788332-1", "entrant": {"id": 20789874, "name": "EdiblePine", "participants": [{"id": 19133301, "gamerTag": "EdiblePine", "prefix": "", "user": {"location": {"city": "Atlanta", "state": "GA", "country": "United States"}}, "player": {"id": 1648278, "gamerTag": "EdiblePine", "prefix": "AP", "user": {"location": {"city": "Atlanta", "state": "GA", "country": "United States"}}}}]}, "standing": {"placement": 2, "stats": {"score": {"value": 0}}}}], "games": [{"id": 31483791, "orderNum": 1, "winnerId": 20788784, "entrant1Score": null, "entrant2Score": 0, "stage": null, "selections": [{"id": 46346106, "selectionType": "CHARACTER", "selectionValue": 1405, "entrant": {"id": 20788784}, "character": {"id": 1405, "name": "Mr. Game & Watch"}}, {"id": 46346107, "selectionType": "CHARACTER", "selectionValue": 1325, "entrant": {"id": 20789874}, "character": {"id": 1325, "name": "Rosalina"}}]}, {"id": 31483792, "orderNum": 2, "winnerId": 20788784, "entrant1Score": null, "entrant2Score": 0, "stage": null, "selections": [{"id": 46346108, "selectionType": "CHARACTER", "selectionValue": 1405, "entrant": {"id": 20788784}, "character": {"id": 1405, "name": "Mr. Game & Watch"}}, {"id": 46346109, "selectionType": "CHARACTER", "selectionValue": 1325, "entrant": {"id": 20789874}, "character": {"id": 1325, "name": "Rosalina"}}]}]}, {"id": 91788334, "state": 3, "round": 1, "fullRoundText": "Winners Round 1", "completedAt": 1753403201, "winnerId": 20790796, "slots": [{"id": "91788334-0", "entrant": {"id": 20790796, "name": "ACE | Ace_CMH", "participants": [{"id": 19134201, "gamerTag": "Ace_CMH", "prefix": "ACE", "user": {"location": {"city": "Marietta", "state": "GA", "country": "United States"}}, "player": {"id": 1990149, "gamerTag": "Ace_CMH", "prefix": "ACE", "user": {"location": {"city": "Marietta", "state": "GA", "country": "United States"}}}}]}, "standing": {"placement": 1, "stats": {"score": {"value": 2}}}}, {"id": "91788334-1", "entrant": {"id": 20790868, "name": "LittleMac9494", "participants": [{"id": 19134268, "gamerTag": "LittleMac9494", "prefix": null, "user": {"location": {"city": "", "state": "GA", "country": "United States"}}, "player": {"id": 4890718, "gamerTag": "LittleMac9494", "prefix": null, "user": {"location": {"city": "", "state": "GA", "country": "United States"}}}}]}, "standing": {"placement": 2, "stats": {"score": {"value": 0}}}}], "games": [{"id": 31483836, "orderNum": 1, "winnerId": 20790796, "entrant1Score": null, "entrant2Score": 0, "stage": null, "selections": [{"id": 46346134, "selectionType": "CHARACTER", "selectionValue": 1322, "entrant": {"id": 20790796}, "character": {"id": 1322, "name": "Ridley"}}, {"id": 46346135, "selectionType": "CHARACTER", "selectionValue": 1326, "entrant": {"id": 20790868}, "character": {"id": 1326, "name": "Roy"}}]}, {"id": 31483837, "orderNum": 2, "winnerId": 20790796, "entrant1Score": null, "entrant2Score": 0, "stage": null, "selections": [{"id": 46346136, "selectionType": "CHARACTER", "selectionValue": 1322, "entrant": {"id": 20790796}, "character": {"id": 1322, "name": "Ridley"}}, {"id": 46346137, "selectionType": "CHARACTER", "selectionValue": 1897, "entrant": {"id": 20790868}, "character": {"id": 1897, "name": "Sora"}}]}]}, {"id": 91788336, "state": 3, "round": 1, "fullRoundText": "Winners Round 1", "completedAt": 1753403314, "winnerId": 20787357, "slots": [{"id": "91788336-0", "entrant": {"id": 20787357, "name": "Nikol", "participants": [{"id": 19130909, "gamerTag": "Nikol", "prefix": "", "user": {"location": {"city": "Stockbridge", "state": "GA", "country": "United States"}}, "player": {"id": 2152846, "gamerTag": "Nikol", "prefix": "", "user": {"location": {"city": "Stockbridge", "state": "GA", "country": "United States"}}}}]}, "standing": {"placement": 1, "stats": {"score": {"value": 2}}}}, {"id": "91788336-1", "entrant": {"id": 20791906, "name": "SamRice", "participants": [{"id": 19135206, "gamerTag": "SamRice", "prefix": "", "user": {"location": {"city": "Norcross", "state": "GA", "country": "United States"}}, "player": {"id": 2387403, "gamerTag": "SamRice", "prefix": "", "user": {"location": {"city": "Norcross", "state": "GA", "country": "United States"}}}}]}, "standing": {"placement": 2, "stats": {"score": {"value": 0}}}}], "games": [{"id": 31483943, "orderNum": 1, "winnerId": 20787357, "entrant1Score": null, "entrant2Score": 0, "stage": null, "selections": [{"id": 46346258, "selectionType": "CHARACTER", "selectionValue": 1897, "entrant": {"id": 20787357}, "character": {"id": 1897, "name": "Sora"}}, {"id": 46346259, "selectionType": "CHARACTER", "selectionValue": 1301, "entrant": {"id": 20791906}, "character": {"id": 1301, "name": "Luigi"}}]}, {"id": 31483944, "orderNum": 2, "winnerId": 20787357, "entrant1Score": null, "entrant2Score": 0, "stage": null, "selections": [{"id": 46346260, "selectionType": "CHARACTER", "selectionValue": 1897, "entrant": {"id": 20787357}, "character": {"id": 1897, "name": "Sora"}}, {"id": 46346261, "selectionType": "CHARACTER", "selectionValue": 1301, "entrant": {"id": 20791906}, "character": {"id": 1301, "name": "Luigi"}}]}]}, {"id": 91788340, "state": 3, "round": 1, "fullRoundText": "Winners Round 1", "completedAt": 1753403270, "winnerId": 20789502, "slots": [{"id": "91788340-0", "entrant": {"id": 20789502, "name": "Whaley", "participants": [{"id": 19132945, "gamerTag": "Whaley", "prefix": "", "user": {"location": {"city": "Stone Mountain", "state": "GA", "country": "United States"}}, "player": {"id": 2016149, "gamerTag": "Whaley", "prefix": "KSU|UTO|BLZE", "user": {"location": {"city": "Stone Mountain", "state": "GA", "country": "United States"}}}}]}, "standing": {"placement": 1, "stats": {"score": {"value": 2}}}}, {"id": "91788340-1", "entrant": {"id": 20791709, "name": "Acronix", "participants": [{"id": 19135029, "gamerTag": "Acronix", "prefix": null, "user": {"location": {"city": "Norcross", "state": "GA", "country": "United States"}}, "player": {"id": 4331091, "gamerTag": "Acronix", "prefix": null, "user": {"location": {"city": "Norcross", "state": "GA", "country": "United States"}}}}]}, "standing": {"placement": 2, "stats": {"score": {"value": 0}}}}], "games": [{"id": 31483905, "orderNum": 1, "winnerId": 20789502, "entrant1Score": null, "entrant2Score": 0, "stage": null, "selections": [{"id": 46346220, "selectionType": "CHARACTER", "selectionValue": 1294, "entrant": {"id": 20789502}, "character": {"id": 1294, "name": "King Dedede"}}, {"id": 46346221, "selectionType": "CHARACTER", "selectionValue": 1453, "entrant": {"id": 20791709}, "character": {"id": 1453, "name": "Joker"}}]}, {"id": 31483906, "orderNum": 2, "winnerId": 20789502, "entrant1Score": null, "entrant2Score": 0, "stage": null, "selections": [{"id": 46346222, "selectionType": "CHARACTER", "selectionValue": 1777, "entrant": {"id": 20789502}, "character": {"id": 1777, "name": "Sephiroth"}}, {"id": 46346223, "selectionType": "CHARACTER", "selectionValue": 1453, "entrant": {"id": 20791709}, "character": {"id": 1453, "name": "Joker"}}]}]}, {"id": 91788342, "state": 3, "round": 1, "fullRoundText": "Winners Round 1", "completedAt": 1753403057, "winnerId": 20786328, "slots": [{"id": "91788342-0", "entrant": {"id": 20786328, "name": "Rain~", "participants": [{"id": 19129860, "gamerTag": "Rain~", "prefix": null, "user": {"location": {"city": "Atlanta", "state": "GA", "country": "United States"}}, "player": {"id": 4240164, "gamerTag": "Rain~", "prefix": null, "user": {"location": {"city": "Atlanta", "state": "GA", "country": "United States"}}}}]}, "standing": {"placement": 1, "stats": {"score": {"value": 2}}}}, {"id": "91788342-1", "entrant": {"id": 20789715, "name": "Manburnot", "participants": [{"id": 19133142, "gamerTag": "Manburnot", "prefix": "", "user": {"location": {"city": "Norcross", "state": "GA", "country": "United States"}}, "player": {"id": 4831519, "gamerTag": "Manburnot", "prefix": "", "user": {"location": {"city": "Norcross", "state": "GA", "country": "United States"}}}}]}, "standing": {"placement": 2, "stats": {"score": {"value": 0}}}}], "games": [{"id": 31483680, "orderNum": 1, "winnerId": 20786328, "entrant1Score": null, "entrant2Score": 0, "stage": null, "selections": [{"id": 46345958, "selectionType": "CHARACTER", "selectionValue": 1292, "entrant": {"id": 20786328}, "character": {"id": 1292, "name": "Inkling"}}, {"id": 46345959, "selectionType": "CHARACTER", "selectionValue": 1326, "entrant": {"id": 20789715}, "character": {"id": 1326, "name": "Roy"}}]}, {"id": 31483681, "orderNum": 2, "winnerId": 20786328, "entrant1Score": 0, "entrant2Score": 0, "stage": null, "selections": [{"id": 46345960, "selectionType": "CHARACTER", "selectionValue": 1329, "entrant": {"id": 20786328}, "character": {"id": 1329, "name": "Sheik"}}, {"id": 46345961, "selectionType": "CHARACTER", "selectionValue": 1326, "entrant": {"id": 20789715}, "character": {"id": 1326, "name": "Roy"}}]}]}, {"id": 91788344, "state": 3, "round": 1, "fullRoundText": "Winners Round 1", "completedAt": 1753403644, "winnerId": 20791189, "slots": [{"id": "91788344-0", "entrant": {"id": 20791189, "name": "SIR | vivor", "participants": [{"id": 19134567, "gamerTag": "vivor", "prefix": "SIR", "user": {"location": {"city": "Atlanta", "state": "GA", "country": "United States"}}, "player": {"id": 3373990, "gamerTag": "vivor", "prefix": "SIR", "user": {"location": {"city": "Atlanta", "state": "GA", "country": "United States"}}}}]}, "standing": {"placement": 1, "stats": {"score": {"value": 2}}}}, {"id": "91788344-1", "entrant": {"id": 20790687, "name": "Pleeploploop", "participants": [{"id": 19134103, "gamerTag": "Pleeploploop", "prefix": "", "user": {"location": {"city": "Snellville", "state": null, "country": "United States"}}, "player": {"id": 1739676, "gamerTag": "Pleeploploop", "prefix": "", "user": {"location": {"city": "Snellville", "state": null, "country": "United States"}}}}]}, "standing": {"placement": 2, "stats": {"score": {"value": 1}}}}], "games": null}, {"id": 91788348, "state": 3, "round": 1, "fullRoundText": "Winners Round 1", "completedAt": 1753403121, "winnerId": 20789452, "slots": [{"id": "91788348-0", "entrant": {"id": 20789590, "name": "LVL? | VaR", "participants": [{"id": 19133026, "gamerTag": "VaR", "prefix": "LVL?", "user": {"location": {"city": "Atlanta", "state": "GA", "country": "United States"}}, "player": {"id": 329546, "gamerTag": "VaR", "prefix": "GG", "user": {"location": {"city": "Atlanta", "state": "GA", "country": "United States"}}}}]}, "standing": {"placement": 2, "stats": {"score": {"value": -1}}}}, {"id": "91788348-1", "entrant": {"id": 20789452, "name": "11D7", "participants": [{"id": 19132892, "gamerTag": "11D7", "prefix": null, "user": {"location": {"city": "Alpharetta", "state": "GA", "country": "United States"}}, "player": {"id": 4064891, "gamerTag": "11D7", "prefix": null, "user": {"location": {"city": "Alpharetta", "state": "GA", "country": "United States"}}}}]}, "standing": {"placement": 1, "stats": {"score": {"value": null}}}}], "games": null}, {"id": 91788350, "state": 3, "round": 1, "fullRoundText": "Winners Round 1", "completedAt": 1753403227, "winnerId": 20789986, "slots": [{"id": "91788350-0", "entrant": {"id": 20789986, "name": "WFF | Happy", "participants": [{"id": 19133414, "gamerTag": "Happy", "prefix": "WFF", "user": {"location": {"city": "Peachtree CIty", "state": "GA", "country": "United States"}}, "player": {"id": 1383907, "gamerTag": "Happy", "prefix": "WFF", "user": {"location": {"city": "Peachtree CIty", "state": "GA", "country": "United States"}}}}]}, "standing": {"placement": 1, "stats": {"score": {"value": 2}}}}, {"id": "91788350-1", "entrant": {"id": 20790619, "name": "AjaxAnonymous", "participants": [{"id": 19134034, "gamerTag": "AjaxAnonymous", "prefix": null, "user": {"location": {"city": "Atlanta", "state": "GA", "country": "United States"}}, "player": {"id": 4308428, "gamerTag": "AjaxAnonymous", "prefix": null, "user": {"location": {"city": "Atlanta", "state": "GA", "country": "United States"}}}}]}, "standing": {"placement": 2, "stats": {"score": {"value": 0}}}}], "games": [{"id": 31483863, "orderNum": 1, "winnerId": 20789986, "entrant1Score": null, "entrant2Score": 0, "stage": null, "selections": [{"id": 46346164, "selectionType": "CHARACTER", "selectionValue": 1276, "entrant": {"id": 20789986}, "character": {"id": 1276, "name": "Corrin"}}, {"id": 46346165, "selectionType": "CHARACTER", "selectionValue": 1276, "entrant": {"id": 20790619}, "character": {"id": 1276, "name": "Corrin"}}]}, {"id": 31483864, "orderNum": 2, "winnerId": 20789986, "entrant1Score": null, "entrant2Score": 0, "stage": null, "selections": [{"id": 46346166, "selectionType": "CHARACTER", "selectionValue": 1276, "entrant": {"id": 20789986}, "character": {"id": 1276, "name": "Corrin"}}, {"id": 46346167, "selectionType": "CHARACTER", "selectionValue": 1276, "entrant": {"id": 20790619}, "character": {"id": 1276, "name": "Corrin"}}]}]}]}}}