{"event": {"sets": {"pageInfo": {"totalPages": 3, "total": 33}, "nodes": [{"id": 92037734, "state": 3, "round": 2, "fullRoundText": "Winners Round 2", "completedAt": 1753837061, "winnerId": 20835473, "slots": [{"id": "92037734-0", "entrant": {"id": 20832093, "name": "Cromat", "participants": [{"id": 19170491, "gamerTag": "Cromat", "prefix": "", "user": {"location": {"city": "Savannah", "state": "GA", "country": "United States"}}, "player": {"id": 3055798, "gamerTag": "Cromat", "prefix": "", "user": {"location": {"city": "Savannah", "state": "GA", "country": "United States"}}}}]}, "standing": {"placement": 2, "stats": {"score": {"value": 0}}}}, {"id": "92037734-1", "entrant": {"id": 20835473, "name": "carlop", "participants": [{"id": 19173387, "gamerTag": "carlop", "prefix": null, "user": {"location": {"city": "Johns Creek", "state": "GA", "country": "United States"}}, "player": {"id": 3431919, "gamerTag": "carlop", "prefix": null, "user": {"location": {"city": "Johns Creek", "state": "GA", "country": "United States"}}}}]}, "standing": {"placement": 1, "stats": {"score": {"value": 2}}}}], "games": [{"id": 31610410, "orderNum": 1, "winnerId": 20835473, "entrant1Score": 0, "entrant2Score": null, "stage": null, "selections": [{"id": 46533833, "selectionType": "CHARACTER", "selectionValue": 1405, "entrant": {"id": 20832093}, "character": {"id": 1405, "name": "Mr. Game & Watch"}}, {"id": 46533834, "selectionType": "CHARACTER", "selectionValue": 1299, "entrant": {"id": 20835473}, "character": {"id": 1299, "name": "Lucas"}}]}, {"id": 31610411, "orderNum": 2, "winnerId": 20835473, "entrant1Score": 0, "entrant2Score": null, "stage": null, "selections": [{"id": 46533835, "selectionType": "CHARACTER", "selectionValue": 1405, "entrant": {"id": 20832093}, "character": {"id": 1405, "name": "Mr. Game & Watch"}}, {"id": 46533836, "selectionType": "CHARACTER", "selectionValue": 1299, "entrant": {"id": 20835473}, "character": {"id": 1299, "name": "Lucas"}}]}]}, {"id": 92037784, "state": 3, "round": -4, "fullRoundText": "Losers Round 1", "completedAt": 1753837854, "winnerId": 20832093, "slots": [{"id": "92037784-0", "entrant": {"id": 20832093, "name": "Cromat", "participants": [{"id": 19170491, "gamerTag": "Cromat", "prefix": "", "user": {"location": {"city": "Savannah", "state": "GA", "country": "United States"}}, "player": {"id": 3055798, "gamerTag": "Cromat", "prefix": "", "user": {"location": {"city": "Savannah", "state": "GA", "country": "United States"}}}}]}, "standing": {"placement": 1, "stats": {"score": {"value": 2}}}}, {"id": "92037784-1", "entrant": {"id": 20832153, "name": "Hq", "participants": [{"id": 19170541, "gamerTag": "Hq", "prefix": "", "user": {"location": {"city": "Suwanee", "state": "GA", "country": "United States"}}, "player": {"id": 4680916, "gamerTag": "Hq", "prefix": "", "user": {"location": {"city": "Suwanee", "state": "GA", "country": "United States"}}}}]}, "standing": {"placement": 2, "stats": {"score": {"value": 0}}}}], "games": null}, {"id": 92037712, "state": 3, "round": 1, "fullRoundText": "Winners Round 1", "completedAt": 1753836400, "winnerId": 20832824, "slots": [{"id": "92037712-0", "entrant": {"id": 20832153, "name": "Hq", "participants": [{"id": 19170541, "gamerTag": "Hq", "prefix": "", "user": {"location": {"city": "Suwanee", "state": "GA", "country": "United States"}}, "player": {"id": 4680916, "gamerTag": "Hq", "prefix": "", "user": {"location": {"city": "Suwanee", "state": "GA", "country": "United States"}}}}]}, "standing": {"placement": 2, "stats": {"score": {"value": 0}}}}, {"id": "92037712-1", "entrant": {"id": 20832824, "name": "PL | Shusui", "participants": [{"id": 19171139, "gamerTag": "Shusui", "prefix": "PL", "user": {"location": {"city": "Suwanee", "state": "GA", "country": "United States"}}, "player": {"id": 3465710, "gamerTag": "Shusui", "prefix": "", "user": {"location": {"city": "Suwanee", "state": "GA", "country": "United States"}}}}]}, "standing": {"placement": 1, "stats": {"score": {"value": 2}}}}], "games": [{"id": 31609779, "orderNum": 1, "winnerId": 20832824, "entrant1Score": 0, "entrant2Score": null, "stage": null, "selections": [{"id": 46533047, "selectionType": "CHARACTER", "selectionValue": 1746, "entrant": {"id": 20832153}, "character": {"id": 1746, "name": "Random Character"}}, {"id": 46533048, "selectionType": "CHARACTER", "selectionValue": 1746, "entrant": {"id": 20832824}, "character": {"id": 1746, "name": "Random Character"}}]}, {"id": 31609780, "orderNum": 2, "winnerId": 20832824, "entrant1Score": 0, "entrant2Score": null, "stage": null, "selections": [{"id": 46533049, "selectionType": "CHARACTER", "selectionValue": 1746, "entrant": {"id": 20832153}, "character": {"id": 1746, "name": "Random Character"}}, {"id": 46533050, "selectionType": "CHARACTER", "selectionValue": 1746, "entrant": {"id": 20832824}, "character": {"id": 1746, "name": "Random Character"}}]}]}]}}}