{"event": {"sets": {"pageInfo": {"totalPages": 4, "total": 59}, "nodes": [{"id": 92278074, "state": 3, "round": 1, "fullRoundText": "Winners Round 1", "completedAt": 1754268277, "winnerId": 20874905, "slots": [{"id": "92278074-0", "entrant": {"id": 20874905, "name": "TFT | Handsome Squidward", "participants": [{"id": 19208208, "gamerTag": "Handsome Squidward", "prefix": "TFT", "user": {"location": {"city": "Calhoun", "state": "GA", "country": "United States"}}, "player": {"id": 2241471, "gamerTag": "lil munch", "prefix": "TFT", "user": {"location": {"city": "Calhoun", "state": "GA", "country": "United States"}}}}]}, "standing": {"placement": 1, "stats": {"score": {"value": 2}}}}, {"id": "92278074-1", "entrant": {"id": 20875656, "name": "TnT | annamation", "participants": [{"id": 19208662, "gamerTag": "annamation", "prefix": "TnT", "user": {"location": {"city": "Atlanta", "state": "GA", "country": "United States"}}, "player": {"id": 1699369, "gamerTag": "annamation", "prefix": "TnT", "user": {"location": {"city": "Atlanta", "state": "GA", "country": "United States"}}}}]}, "standing": {"placement": 2, "stats": {"score": {"value": 0}}}}], "games": null}, {"id": 92278140, "state": 3, "round": 1, "fullRoundText": "Winners Round 1", "completedAt": 1754269566, "winnerId": 20849099, "slots": [{"id": "92278140-0", "entrant": {"id": 20872144, "name": "TFT | BigCheese", "participants": [{"id": 19205666, "gamerTag": "BigCheese", "prefix": "TFT", "user": {"location": {"city": null, "state": null, "country": null}}, "player": {"id": 3991446, "gamerTag": "BigCheese", "prefix": "TFT", "user": {"location": {"city": null, "state": null, "country": null}}}}]}, "standing": {"placement": 2, "stats": {"score": {"value": -1}}}}, {"id": "92278140-1", "entrant": {"id": 20849099, "name": "TFT | TFT - Guillotine", "participants": [{"id": 19185339, "gamerTag": "TFT - Guillotine", "prefix": "TFT", "user": {"location": {"city": "Atlanta", "state": "GA", "country": "United States"}}, "player": {"id": 4263821, "gamerTag": "TFT - Guillotine", "prefix": "TFT", "user": {"location": {"city": "Atlanta", "state": "GA", "country": "United States"}}}}]}, "standing": {"placement": 1, "stats": {"score": {"value": 0}}}}], "games": null}, {"id": 92278141, "state": 3, "round": 1, "fullRoundText": "Winners Round 1", "completedAt": 1754267973, "winnerId": 20875665, "slots": [{"id": "92278141-0", "entrant": {"id": 20875665, "name": "GUMP2 | RoKu", "participants": [{"id": 19208670, "gamerTag": "RoKu", "prefix": "GUMP2", "user": {"location": {"city": "Peachtree Corners", "state": "GA", "country": "United States"}}, "player": {"id": 1107285, "gamerTag": "RoKu", "prefix": "TFT", "user": {"location": {"city": "Peachtree Corners", "state": "GA", "country": "United States"}}}}]}, "standing": {"placement": 1, "stats": {"score": {"value": 2}}}}, {"id": "92278141-1", "entrant": {"id": 20872818, "name": "Cash", "participants": [{"id": 19206335, "gamerTag": "Cash", "prefix": "", "user": {"location": {"city": "Atlanta", "state": "GA", "country": "United States"}}, "player": {"id": 4879701, "gamerTag": "Cash", "prefix": "", "user": {"location": {"city": "Atlanta", "state": "GA", "country": "United States"}}}}]}, "standing": {"placement": 2, "stats": {"score": {"value": 0}}}}], "games": null}, {"id": 92278075, "state": 3, "round": 1, "fullRoundText": "Winners Round 1", "completedAt": 1754268741, "winnerId": 20822631, "slots": [{"id": "92278075-0", "entrant": {"id": 20822631, "name": "TFT | Frank", "participants": [{"id": 19161605, "gamerTag": "Frank", "prefix": "TFT", "user": {"location": {"city": "Doraville", "state": "GA", "country": "United States"}}, "player": {"id": 1227401, "gamerTag": "Terry Labonte", "prefix": "TFT", "user": {"location": {"city": "Doraville", "state": "GA", "country": "United States"}}}}]}, "standing": {"placement": 1, "stats": {"score": {"value": 2}}}}, {"id": "92278075-1", "entrant": {"id": 20874787, "name": "dalton0087", "participants": [{"id": 19208117, "gamerTag": "dalton0087", "prefix": "", "user": {"location": {"city": "atlanta", "state": "GA", "country": "United States"}}, "player": {"id": 4908853, "gamerTag": "dalton0087", "prefix": "", "user": {"location": {"city": "atlanta", "state": "GA", "country": "United States"}}}}]}, "standing": {"placement": 2, "stats": {"score": {"value": 0}}}}], "games": [{"id": 31703508, "orderNum": 1, "winnerId": 20822631, "entrant1Score": null, "entrant2Score": 0, "stage": null, "selections": [{"id": 46687995, "selectionType": "CHARACTER", "selectionValue": 1282, "entrant": {"id": 20822631}, "character": {"id": 1282, "name": "Dr. Mario"}}, {"id": 46687996, "selectionType": "CHARACTER", "selectionValue": 1274, "entrant": {"id": 20874787}, "character": {"id": 1274, "name": "Captain Falcon"}}]}, {"id": 31703509, "orderNum": 2, "winnerId": 20822631, "entrant1Score": null, "entrant2Score": 0, "stage": null, "selections": [{"id": 46687997, "selectionType": "CHARACTER", "selectionValue": 1282, "entrant": {"id": 20822631}, "character": {"id": 1282, "name": "Dr. Mario"}}, {"id": 46687998, "selectionType": "CHARACTER", "selectionValue": 1338, "entrant": {"id": 20874787}, "character": {"id": 1338, "name": "Yoshi"}}]}]}, {"id": 92278076, "state": 3, "round": 1, "fullRoundText": "Winners Round 1", "completedAt": 1754269458, "winnerId": 20875667, "slots": [{"id": "92278076-0", "entrant": {"id": 20875667, "name": "RAMS | Bragmuffin", "participants": [{"id": 19208672, "gamerTag": "Bragmuffin", "prefix": "RAMS", "user": {"location": {"city": "Alpharetta", "state": "GA", "country": "United States"}}, "player": {"id": 2354073, "gamerTag": "Bragmuffin", "prefix": "RAMS", "user": {"location": {"city": "Alpharetta", "state": "GA", "country": "United States"}}}}]}, "standing": {"placement": 1, "stats": {"score": {"value": 2}}}}, {"id": "92278076-1", "entrant": {"id": 20875419, "name": "Zarek", "participants": [{"id": 19208433, "gamerTag": "Zarek", "prefix": "", "user": {"location": {"city": "Atlanta", "state": "GA", "country": "United States"}}, "player": {"id": 405682, "gamerTag": "Zarek", "prefix": "", "user": {"location": {"city": "Atlanta", "state": "GA", "country": "United States"}}}}]}, "standing": {"placement": 2, "stats": {"score": {"value": 0}}}}], "games": [{"id": 31703796, "orderNum": 1, "winnerId": 20875667, "entrant1Score": null, "entrant2Score": 0, "stage": null, "selections": [{"id": 46688536, "selectionType": "CHARACTER", "selectionValue": 1338, "entrant": {"id": 20875419}, "character": {"id": 1338, "name": "Yoshi"}}, {"id": 46688537, "selectionType": "CHARACTER", "selectionValue": 1285, "entrant": {"id": 20875667}, "character": {"id": 1285, "name": "Falco"}}]}, {"id": 31703797, "orderNum": 2, "winnerId": 20875667, "entrant1Score": null, "entrant2Score": 0, "stage": null, "selections": [{"id": 46688538, "selectionType": "CHARACTER", "selectionValue": 1338, "entrant": {"id": 20875419}, "character": {"id": 1338, "name": "Yoshi"}}, {"id": 46688539, "selectionType": "CHARACTER", "selectionValue": 1285, "entrant": {"id": 20875667}, "character": {"id": 1285, "name": "Falco"}}]}]}, {"id": 92278142, "state": 3, "round": 1, "fullRoundText": "Winners Round 1", "completedAt": 1754268141, "winnerId": 20875429, "slots": [{"id": "92278142-0", "entrant": {"id": 20875429, "name": "TnT | Monologgue", "participants": [{"id": 19208439, "gamerTag": "Monologgue", "prefix": "TnT", "user": {"location": {"city": "Atlanta", "state": "GA", "country": "United States"}}, "player": {"id": 1135679, "gamerTag": "Monologgue", "prefix": "TnT", "user": {"location": {"city": "Atlanta", "state": "GA", "country": "United States"}}}}]}, "standing": {"placement": 1, "stats": {"score": {"value": 2}}}}, {"id": "92278142-1", "entrant": {"id": 20874470, "name": "Nurikami", "participants": [{"id": 19207793, "gamerTag": "Nurikami", "prefix": null, "user": {"location": {"city": "Sandy Springs", "state": "GA", "country": "United States"}}, "player": {"id": 2894467, "gamerTag": "Nurikami", "prefix": null, "user": {"location": {"city": "Sandy Springs", "state": "GA", "country": "United States"}}}}]}, "standing": {"placement": 2, "stats": {"score": {"value": 0}}}}], "games": null}, {"id": 92278143, "state": 3, "round": 1, "fullRoundText": "Winners Round 1", "completedAt": 1754268577, "winnerId": 20875607, "slots": [{"id": "92278143-0", "entrant": {"id": 20875607, "name": "WFF | Olive", "participants": [{"id": 19208623, "gamerTag": "Olive", "prefix": "WFF", "user": {"location": {"city": "Atlanta", "state": "GA", "country": "United States"}}, "player": {"id": 1810274, "gamerTag": "Planet Of Da", "prefix": "WeFarmFrank", "user": {"location": {"city": "Atlanta", "state": "GA", "country": "United States"}}}}]}, "standing": {"placement": 1, "stats": {"score": {"value": 2}}}}, {"id": "92278143-1", "entrant": {"id": 20875462, "name": "Kev", "participants": [{"id": 19208475, "gamerTag": "Kev", "prefix": "", "user": {"location": {"city": "Manhattan", "state": null, "country": "United States"}}, "player": {"id": 3824468, "gamerTag": "Kev", "prefix": "", "user": {"location": {"city": "Manhattan", "state": null, "country": "United States"}}}}]}, "standing": {"placement": 2, "stats": {"score": {"value": 0}}}}], "games": null}, {"id": 92278077, "state": 3, "round": 1, "fullRoundText": "Winners Round 1", "completedAt": 1754268172, "winnerId": 20874724, "slots": [{"id": "92278077-0", "entrant": {"id": 20874724, "name": "TnT | Damp\u00e9", "participants": [{"id": 19208058, "gamerTag": "Damp\u00e9", "prefix": "TnT", "user": {"location": {"city": "Atlanta", "state": "GA", "country": "United States"}}, "player": {"id": 1170738, "gamerTag": "Damp\u00e9", "prefix": "TnT", "user": {"location": {"city": "Atlanta", "state": "GA", "country": "United States"}}}}]}, "standing": {"placement": 1, "stats": {"score": {"value": 2}}}}, {"id": "92278077-1", "entrant": {"id": 20875646, "name": "Hollybot", "participants": [{"id": 19208655, "gamerTag": "Hollybot", "prefix": null, "user": {"location": {"city": "Atlanta", "state": "GA", "country": "United States"}}, "player": {"id": 4431125, "gamerTag": "Hollybot", "prefix": null, "user": {"location": {"city": "Atlanta", "state": "GA", "country": "United States"}}}}]}, "standing": {"placement": 2, "stats": {"score": {"value": 1}}}}], "games": null}, {"id": 92278144, "state": 3, "round": 1, "fullRoundText": "Winners Round 1", "completedAt": 1754269248, "winnerId": 20871676, "slots": [{"id": "92278144-0", "entrant": {"id": 20871676, "name": "RM | WFF | Sakruoi", "participants": [{"id": 19205264, "gamerTag": "Sakruoi", "prefix": "RM | WFF", "user": {"location": {"city": "atlanta", "state": "GA", "country": "United States"}}, "player": {"id": 1230555, "gamerTag": "Sakruoi", "prefix": "RM | WFF", "user": {"location": {"city": "atlanta", "state": "GA", "country": "United States"}}}}]}, "standing": {"placement": 1, "stats": {"score": {"value": 2}}}}, {"id": "92278144-1", "entrant": {"id": 20875634, "name": "millano", "participants": [{"id": 19208647, "gamerTag": "millano", "prefix": "", "user": null, "player": {"id": 4214682, "gamerTag": "millano", "prefix": "", "user": null}}]}, "standing": {"placement": 2, "stats": {"score": {"value": 0}}}}], "games": null}, {"id": 92278078, "state": 3, "round": 1, "fullRoundText": "Winners Round 1", "completedAt": 1754269230, "winnerId": 20874673, "slots": [{"id": "92278078-0", "entrant": {"id": 20874673, "name": "TFT | Juug$tarr", "participants": [{"id": 19208002, "gamerTag": "Juug$tarr", "prefix": "TFT", "user": {"location": {"city": "Atlanta", "state": "GA", "country": "United States"}}, "player": {"id": 3621035, "gamerTag": "Juug$tarr", "prefix": "TFT", "user": {"location": {"city": "Atlanta", "state": "GA", "country": "United States"}}}}]}, "standing": {"placement": 1, "stats": {"score": {"value": 2}}}}, {"id": "92278078-1", "entrant": {"id": 20875605, "name": "TFT | yxngcyborg", "participants": [{"id": 19208622, "gamerTag": "yxngcyborg", "prefix": "TFT", "user": {"location": {"city": "Atlanta", "state": "GA", "country": "United States"}}, "player": {"id": 1751817, "gamerTag": "Ricky Rudd", "prefix": "TFT", "user": {"location": {"city": "Atlanta", "state": "GA", "country": "United States"}}}}]}, "standing": {"placement": 2, "stats": {"score": {"value": 1}}}}], "games": [{"id": 31703700, "orderNum": 1, "winnerId": 20874673, "entrant1Score": null, "entrant2Score": 0, "stage": null, "selections": [{"id": 46688367, "selectionType": "CHARACTER", "selectionValue": 1406, "entrant": {"id": 20874673}, "character": {"id": 1406, "name": "Incineroar"}}, {"id": 46688368, "selectionType": "CHARACTER", "selectionValue": 1746, "entrant": {"id": 20875605}, "character": {"id": 1746, "name": "Random Character"}}]}, {"id": 31703701, "orderNum": 2, "winnerId": 20875605, "entrant1Score": 0, "entrant2Score": null, "stage": null, "selections": [{"id": 46688369, "selectionType": "CHARACTER", "selectionValue": 1406, "entrant": {"id": 20874673}, "character": {"id": 1406, "name": "Incineroar"}}, {"id": 46688370, "selectionType": "CHARACTER", "selectionValue": 1746, "entrant": {"id": 20875605}, "character": {"id": 1746, "name": "Random Character"}}]}, {"id": 31703702, "orderNum": 3, "winnerId": 20874673, "entrant1Score": null, "entrant2Score": 0, "stage": null, "selections": [{"id": 46688371, "selectionType": "CHARACTER", "selectionValue": 1406, "entrant": {"id": 20874673}, "character": {"id": 1406, "name": "Incineroar"}}, {"id": 46688372, "selectionType": "CHARACTER", "selectionValue": 1746, "entrant": {"id": 20875605}, "character": {"id": 1746, "name": "Random Character"}}]}]}, {"id": 92278133, "state": 3, "round": -4, "fullRoundText": "Losers Quarter-Final", "completedAt": 1754276325, "winnerId": 20874724, "slots": [{"id": "92278133-0", "entrant": {"id": 20874724, "name": "TnT | Damp\u00e9", "participants": [{"id": 19208058, "gamerTag": "Damp\u00e9", "prefix": "TnT", "user": {"location": {"city": "Atlanta", "state": "GA", "country": "United States"}}, "player": {"id": 1170738, "gamerTag": "Damp\u00e9", "prefix": "TnT", "user": {"location": {"city": "Atlanta", "state": "GA", "country": "United States"}}}}]}, "standing": {"placement": 1, "stats": {"score": {"value": 3}}}}, {"id": "92278133-1", "entrant": {"id": 20875429, "name": "TnT | Monologgue", "participants": [{"id": 19208439, "gamerTag": "Monologgue", "prefix": "TnT", "user": {"location": {"city": "Atlanta", "state": "GA", "country": "United States"}}, "player": {"id": 1135679, "gamerTag": "Monologgue", "prefix": "TnT", "user": {"location": {"city": "Atlanta", "state": "GA", "country": "United States"}}}}]}, "standing": {"placement": 2, "stats": {"score": {"value": 1}}}}], "games": null}, {"id": 92278134, "state": 3, "round": -4, "fullRoundText": "Losers Quarter-Final", "completedAt": 1754276305, "winnerId": 20822631, "slots": [{"id": "92278134-0", "entrant": {"id": 20875607, "name": "WFF | Olive", "participants": [{"id": 19208623, "gamerTag": "Olive", "prefix": "WFF", "user": {"location": {"city": "Atlanta", "state": "GA", "country": "United States"}}, "player": {"id": 1810274, "gamerTag": "Planet Of Da", "prefix": "WeFarmFrank", "user": {"location": {"city": "Atlanta", "state": "GA", "country": "United States"}}}}]}, "standing": {"placement": 2, "stats": {"score": {"value": -1}}}}, {"id": "92278134-1", "entrant": {"id": 20822631, "name": "TFT | Frank", "participants": [{"id": 19161605, "gamerTag": "Frank", "prefix": "TFT", "user": {"location": {"city": "Doraville", "state": "GA", "country": "United States"}}, "player": {"id": 1227401, "gamerTag": "Terry Labonte", "prefix": "TFT", "user": {"location": {"city": "Doraville", "state": "GA", "country": "United States"}}}}]}, "standing": {"placement": 1, "stats": {"score": {"value": 2}}}}], "games": null}, {"id": 92278131, "state": 3, "round": -3, "fullRoundText": "Losers Round 1", "completedAt": 1754274845, "winnerId": 20875429, "slots": [{"id": "92278131-0", "entrant": {"id": 20875642, "name": "MTM | Bob Weiner", "participants": [{"id": 19208653, "gamerTag": "Bob Weiner", "prefix": "MTM", "user": {"location": {"city": "Kennesaw", "state": "GA", "country": "United States"}}, "player": {"id": 2142601, "gamerTag": "Bob Weiner", "prefix": "MTM", "user": {"location": {"city": "Kennesaw", "state": "GA", "country": "United States"}}}}]}, "standing": {"placement": 2, "stats": {"score": {"value": 0}}}}, {"id": "92278131-1", "entrant": {"id": 20875429, "name": "TnT | Monologgue", "participants": [{"id": 19208439, "gamerTag": "Monologgue", "prefix": "TnT", "user": {"location": {"city": "Atlanta", "state": "GA", "country": "United States"}}, "player": {"id": 1135679, "gamerTag": "Monologgue", "prefix": "TnT", "user": {"location": {"city": "Atlanta", "state": "GA", "country": "United States"}}}}]}, "standing": {"placement": 1, "stats": {"score": {"value": 2}}}}], "games": null}, {"id": 92278132, "state": 3, "round": -3, "fullRoundText": "Losers Round 1", "completedAt": 1754275818, "winnerId": 20822631, "slots": [{"id": "92278132-0", "entrant": {"id": 20874193, "name": "Mrbray30", "participants": [{"id": 19207539, "gamerTag": "Mrbray30", "prefix": "", "user": {"location": {"city": "Atlanta", "state": "GA", "country": "United States"}}, "player": {"id": 4664413, "gamerTag": "Mrbray30", "prefix": "", "user": {"location": {"city": "Atlanta", "state": "GA", "country": "United States"}}}}]}, "standing": {"placement": 2, "stats": {"score": {"value": 0}}}}, {"id": "92278132-1", "entrant": {"id": 20822631, "name": "TFT | Frank", "participants": [{"id": 19161605, "gamerTag": "Frank", "prefix": "TFT", "user": {"location": {"city": "Doraville", "state": "GA", "country": "United States"}}, "player": {"id": 1227401, "gamerTag": "Terry Labonte", "prefix": "TFT", "user": {"location": {"city": "Doraville", "state": "GA", "country": "United States"}}}}]}, "standing": {"placement": 1, "stats": {"score": {"value": 2}}}}], "games": null}]}}}