{"phase": {"seeds": {"pageInfo": {"totalPages": 1, "total": 8}, "nodes": [{"id": 36900041, "seedNum": 1, "entrant": {"id": 21462584, "name": "Chance", "participants": [{"id": 19724926, "gamerTag": "Chance", "prefix": "", "user": {"location": {"city": "Savannah", "state": "GA", "country": "United States"}}, "player": {"id": 1442765, "gamerTag": "Chance", "prefix": "", "user": {"location": {"city": "Savannah", "state": "GA", "country": "United States"}}}}]}}, {"id": 36913568, "seedNum": 3, "entrant": {"id": 21472503, "name": "SQ1 | Drokifam", "participants": [{"id": 19732894, "gamerTag": "Drokifam", "prefix": "SQ1", "user": {"location": {"city": "Hardeeville", "state": "SC", "country": "United States"}}, "player": {"id": 2801389, "gamerTag": "Drokifam", "prefix": "SQ1", "user": {"location": {"city": "Hardeeville", "state": "SC", "country": "United States"}}}}]}}, {"id": 36913796, "seedNum": 2, "entrant": {"id": 21472599, "name": "SQ1 | Luff", "participants": [{"id": 19732986, "gamerTag": "Luff", "prefix": "SQ1", "user": {"location": {"city": "Savannah", "state": "GA", "country": "United States"}}, "player": {"id": 4102348, "gamerTag": "Luff", "prefix": "SQ1", "user": {"location": {"city": "Savannah", "state": "GA", "country": "United States"}}}}]}}, {"id": 36912025, "seedNum": 6, "entrant": {"id": 21471370, "name": "SQ1 | TheFamilyPanda", "participants": [{"id": 19731945, "gamerTag": "TheFamilyPanda", "prefix": "SQ1", "user": {"location": {"city": "Savannah", "state": "GA", "country": "United States"}}, "player": {"id": 2228673, "gamerTag": "TheFamilyPanda", "prefix": "SQ1", "user": {"location": {"city": "Savannah", "state": "GA", "country": "United States"}}}}]}}, {"id": 36913047, "seedNum": 4, "entrant": {"id": 21472123, "name": "Aloe", "participants": [{"id": 19732530, "gamerTag": "Aloe", "prefix": null, "user": {"location": {"city": "Savannah", "state": "WI", "country": "United States"}}, "player": {"id": 2656903, "gamerTag": "Aloe", "prefix": null, "user": {"location": {"city": "Savannah", "state": "WI", "country": "United States"}}}}]}}, {"id": 36913432, "seedNum": 5, "entrant": {"id": 21472404, "name": "dertdobber", "participants": [{"id": 19732789, "gamerTag": "dertdobber", "prefix": null, "user": {"location": {"city": "Savannah", "state": "GA", "country": "United States"}}, "player": {"id": 173899, "gamerTag": "dertdobber", "prefix": null, "user": {"location": {"city": "Savannah", "state": "GA", "country": "United States"}}}}]}}, {"id": 36913491, "seedNum": 7, "entrant": {"id": 21472463, "name": "YRDEN | Bwlingiant", "participants": [{"id": 19732850, "gamerTag": "Bwlingiant", "prefix": "YRDEN", "user": {"location": {"city": "Savannah", "state": null, "country": "United States"}}, "player": {"id": 3202213, "gamerTag": "Bwlingiant", "prefix": "YRDEN", "user": {"location": {"city": "Savannah", "state": null, "country": "United States"}}}}]}}, {"id": 36912145, "seedNum": 8, "entrant": {"id": 21471422, "name": "Drowsy", "participants": [{"id": 19731984, "gamerTag": "Drowsy", "prefix": "", "user": {"location": {"city": null, "state": null, "country": null}}, "player": {"id": 1600842, "gamerTag": "Drowsy", "prefix": "", "user": {"location": {"city": null, "state": null, "country": null}}}}]}}]}}}