{"phase": {"seeds": {"pageInfo": {"totalPages": 1, "total": 7}, "nodes": [{"id": 36751624, "seedNum": 1, "entrant": {"id": 21360987, "name": "KumaDusk", "participants": [{"id": 19636649, "gamerTag": "KumaDusk", "prefix": "", "user": {"location": {"city": "Lawrenceville", "state": "GA", "country": "United States"}}, "player": {"id": 253909, "gamerTag": "KumaDusk", "prefix": "", "user": {"location": {"city": "Lawrenceville", "state": "GA", "country": "United States"}}}}]}}, {"id": 36751552, "seedNum": 2, "entrant": {"id": 21360923, "name": "Jeni", "participants": [{"id": 19636587, "gamerTag": "Jeni", "prefix": "", "user": {"location": {"city": null, "state": null, "country": null}}, "player": {"id": 1499467, "gamerTag": "Jeni", "prefix": "", "user": {"location": {"city": null, "state": null, "country": null}}}}]}}, {"id": 36746106, "seedNum": 4, "entrant": {"id": 21356931, "name": "Kid Kaioken", "participants": [{"id": 19633025, "gamerTag": "Kid Kaioken", "prefix": "", "user": {"location": {"city": "Norcross", "state": "GA", "country": "United States"}}, "player": {"id": 2730912, "gamerTag": "Kid Kaioken", "prefix": "", "user": {"location": {"city": "Norcross", "state": "GA", "country": "United States"}}}}]}}, {"id": 36751898, "seedNum": 5, "entrant": {"id": 21361092, "name": "BC | Ozair", "participants": [{"id": 19636742, "gamerTag": "Ozair", "prefix": "BC", "user": {"location": {"city": "Atlanta", "state": "GA", "country": "United States"}}, "player": {"id": 540851, "gamerTag": "Ozair", "prefix": "BC", "user": {"location": {"city": "Atlanta", "state": "GA", "country": "United States"}}}}]}}, {"id": 36751454, "seedNum": 3, "entrant": {"id": 21360863, "name": "Typical!", "participants": [{"id": 19636536, "gamerTag": "Typical!", "prefix": "", "user": {"location": {"city": "Cumming", "state": "GA", "country": "United States"}}, "player": {"id": 1227171, "gamerTag": "Typical!", "prefix": "", "user": {"location": {"city": "Cumming", "state": "GA", "country": "United States"}}}}]}}, {"id": 36752208, "seedNum": 6, "entrant": {"id": 21361357, "name": "Hq", "participants": [{"id": 19636974, "gamerTag": "Hq", "prefix": "", "user": {"location": {"city": "Suwanee", "state": "GA", "country": "United States"}}, "player": {"id": 4680916, "gamerTag": "Hq", "prefix": "", "user": {"location": {"city": "Suwanee", "state": "GA", "country": "United States"}}}}]}}, {"id": 36751967, "seedNum": 7, "entrant": {"id": 21361131, "name": "Moopisegg", "participants": [{"id": 19636779, "gamerTag": "Moopisegg", "prefix": "", "user": {"location": {"city": null, "state": null, "country": "United States"}}, "player": {"id": 4680890, "gamerTag": "Moopisegg", "prefix": "", "user": {"location": {"city": null, "state": null, "country": "United States"}}}}]}}]}}}