{"event": {"sets": {"pageInfo": {"totalPages": 4, "total": 59}, "nodes": [{"id": 92211901, "state": 3, "round": 1, "fullRoundText": "Winners Round 1", "completedAt": 1754155992, "winnerId": 20604194, "slots": [{"id": "92211901-0", "entrant": {"id": 20604194, "name": "LITE | Sylver", "participants": [{"id": 18968365, "gamerTag": "Sylver", "prefix": "LITE", "user": {"location": {"city": null, "state": "GA", "country": "United States"}}, "player": {"id": 1410499, "gamerTag": "Sylver", "prefix": "LITE", "user": {"location": {"city": null, "state": "GA", "country": "United States"}}}}]}, "standing": {"placement": 1, "stats": {"score": {"value": 2}}}}, {"id": "92211901-1", "entrant": {"id": 20490250, "name": "DEMIURGE", "participants": [{"id": 18869005, "gamerTag": "DEMIURGE", "prefix": "", "user": {"location": {"city": "Rome", "state": null, "country": null}}, "player": {"id": 1227450, "gamerTag": "DEMIURGE", "prefix": "", "user": {"location": {"city": "Rome", "state": null, "country": null}}}}]}, "standing": {"placement": 2, "stats": {"score": {"value": 0}}}}], "games": null}, {"id": 92216694, "state": 3, "round": 1, "fullRoundText": "Winners Round 1", "completedAt": 1754159690, "winnerId": 20490277, "slots": [{"id": "92216694-0", "entrant": {"id": 20490277, "name": "SNRS | SmokePudding", "participants": [{"id": 18869015, "gamerTag": "SmokePudding", "prefix": "SNRS", "user": {"location": {"city": "Riverdale", "state": "GA", "country": "United States"}}, "player": {"id": 281776, "gamerTag": "SmokePudding", "prefix": "", "user": {"location": {"city": "Riverdale", "state": "GA", "country": "United States"}}}}]}, "standing": {"placement": 1, "stats": {"score": {"value": 2}}}}, {"id": "92216694-1", "entrant": {"id": 20803404, "name": "nokotanfan23", "participants": [{"id": 19145513, "gamerTag": "nokotanfan23", "prefix": "", "user": {"location": {"city": "Loganville", "state": "GA", "country": "United States"}}, "player": {"id": 1039731, "gamerTag": "nokotanfan23", "prefix": "", "user": {"location": {"city": "Loganville", "state": "GA", "country": "United States"}}}}]}, "standing": {"placement": 2, "stats": {"score": {"value": 0}}}}], "games": null}, {"id": 92216695, "state": 3, "round": 1, "fullRoundText": "Winners Round 1", "completedAt": 1754159818, "winnerId": 20492325, "slots": [{"id": "92216695-0", "entrant": {"id": 20492325, "name": "Jmac", "participants": [{"id": 18870846, "gamerTag": "Jmac", "prefix": "", "user": {"location": {"city": null, "state": null, "country": "United States"}}, "player": {"id": 947560, "gamerTag": "Jmac", "prefix": "", "user": {"location": {"city": null, "state": null, "country": "United States"}}}}]}, "standing": {"placement": 1, "stats": {"score": {"value": 2}}}}, {"id": "92216695-1", "entrant": {"id": 20860113, "name": "CoolCactuS", "participants": [{"id": 18892328, "gamerTag": "CoolCactuS", "prefix": null, "user": {"location": {"city": null, "state": null, "country": "United States"}}, "player": {"id": 1885346, "gamerTag": "CoolCactuS", "prefix": "CV", "user": {"location": {"city": null, "state": null, "country": "United States"}}}}]}, "standing": {"placement": 2, "stats": {"score": {"value": 0}}}}], "games": null}, {"id": 92211902, "state": 3, "round": 1, "fullRoundText": "Winners Round 1", "completedAt": 1754156187, "winnerId": 20501478, "slots": [{"id": "92211902-0", "entrant": {"id": 20501478, "name": "Adam", "participants": [{"id": 18878962, "gamerTag": "Adam", "prefix": "", "user": {"location": {"city": "Decatur", "state": "GA", "country": "United States"}}, "player": {"id": 1521410, "gamerTag": "Adam", "prefix": "", "user": {"location": {"city": "Decatur", "state": "GA", "country": "United States"}}}}]}, "standing": {"placement": 1, "stats": {"score": {"value": 2}}}}, {"id": "92211902-1", "entrant": {"id": 20489325, "name": "carlop", "participants": [{"id": 18868187, "gamerTag": "carlop", "prefix": null, "user": {"location": {"city": "Johns Creek", "state": "GA", "country": "United States"}}, "player": {"id": 3431919, "gamerTag": "carlop", "prefix": null, "user": {"location": {"city": "Johns Creek", "state": "GA", "country": "United States"}}}}]}, "standing": {"placement": 2, "stats": {"score": {"value": 0}}}}], "games": null}, {"id": 92216696, "state": 3, "round": 1, "fullRoundText": "Winners Round 1", "completedAt": 1754160010, "winnerId": 20490143, "slots": [{"id": "92216696-0", "entrant": {"id": 20490143, "name": "TRANS RIGHTS | TRANS RIGHTS", "participants": [{"id": 18868920, "gamerTag": "TRANS RIGHTS", "prefix": "TRANS RIGHTS", "user": {"location": {"city": null, "state": null, "country": "United States"}}, "player": {"id": 1407945, "gamerTag": "Whistle", "prefix": "TRANS RIGHTS", "user": {"location": {"city": null, "state": null, "country": "United States"}}}}]}, "standing": {"placement": 1, "stats": {"score": {"value": 2}}}}, {"id": "92216696-1", "entrant": {"id": 20488514, "name": "BE | Bumble", "participants": [{"id": 18867472, "gamerTag": "Bumble", "prefix": "BE", "user": {"location": {"city": "Savannah", "state": "GA", "country": "United States"}}, "player": {"id": 1169889, "gamerTag": "Bumble", "prefix": "", "user": {"location": {"city": "Savannah", "state": "GA", "country": "United States"}}}}]}, "standing": {"placement": 2, "stats": {"score": {"value": 0}}}}], "games": null}, {"id": 92211903, "state": 3, "round": 1, "fullRoundText": "Winners Round 1", "completedAt": 1754156903, "winnerId": 20530446, "slots": [{"id": "92211903-0", "entrant": {"id": 20530446, "name": "CR2 | baronkorvo", "participants": [{"id": 18904700, "gamerTag": "baronkorvo", "prefix": "CR2", "user": {"location": {"city": "Bethlehem", "state": "GA", "country": "United States"}}, "player": {"id": 1186009, "gamerTag": "baronkorvo", "prefix": "CR2", "user": {"location": {"city": "Bethlehem", "state": "GA", "country": "United States"}}}}]}, "standing": {"placement": 1, "stats": {"score": {"value": 2}}}}, {"id": "92211903-1", "entrant": {"id": 20828542, "name": "KageGato", "participants": [{"id": 19167093, "gamerTag": "KageGato", "prefix": "", "user": {"location": {"city": "Valdosta", "state": "GA", "country": "United States"}}, "player": {"id": 1392649, "gamerTag": "KageGato", "prefix": "", "user": {"location": {"city": "Valdosta", "state": "GA", "country": "United States"}}}}]}, "standing": {"placement": 2, "stats": {"score": {"value": 0}}}}], "games": null}, {"id": 92216697, "state": 3, "round": 1, "fullRoundText": "Winners Round 1", "completedAt": 1754159738, "winnerId": 20603930, "slots": [{"id": "92216697-0", "entrant": {"id": 20603930, "name": "SRN | Games & Flames", "participants": [{"id": 18968147, "gamerTag": "Games & Flames", "prefix": "SRN", "user": {"location": {"city": "Jonesboro", "state": null, "country": "United States"}}, "player": {"id": 1768109, "gamerTag": "Games & Flames", "prefix": "SRN", "user": {"location": {"city": "Jonesboro", "state": null, "country": "United States"}}}}]}, "standing": {"placement": 1, "stats": {"score": {"value": null}}}}, {"id": "92216697-1", "entrant": {"id": 20571260, "name": "Argon | Kage", "participants": [{"id": 18940107, "gamerTag": "Kage", "prefix": "Argon", "user": {"location": {"city": "Huntsville", "state": "AL", "country": "United States"}}, "player": {"id": 465685, "gamerTag": "OsamaBin-Ballin", "prefix": "Argon", "user": {"location": {"city": "Huntsville", "state": "AL", "country": "United States"}}}}]}, "standing": {"placement": 2, "stats": {"score": {"value": -1}}}}], "games": null}, {"id": 92211904, "state": 3, "round": 1, "fullRoundText": "Winners Round 1", "completedAt": 1754156596, "winnerId": 20602511, "slots": [{"id": "92211904-0", "entrant": {"id": 20602511, "name": "Dingo", "participants": [{"id": 18967220, "gamerTag": "Dingo", "prefix": null, "user": {"location": {"city": "Augusta", "state": "GA", "country": "United States"}}, "player": {"id": 35890, "gamerTag": "Dingo", "prefix": null, "user": {"location": {"city": "Augusta", "state": "GA", "country": "United States"}}}}]}, "standing": {"placement": 1, "stats": {"score": {"value": 2}}}}, {"id": "92211904-1", "entrant": {"id": 20732072, "name": "SgtCarson", "participants": [{"id": 19079580, "gamerTag": "SgtCarson", "prefix": null, "user": {"location": {"city": "Cumming", "state": "GA", "country": "United States"}}, "player": {"id": 68213, "gamerTag": "SgtCarson", "prefix": "", "user": {"location": {"city": "Cumming", "state": "GA", "country": "United States"}}}}]}, "standing": {"placement": 2, "stats": {"score": {"value": 0}}}}], "games": null}, {"id": 92216698, "state": 3, "round": 1, "fullRoundText": "Winners Round 1", "completedAt": 1754160365, "winnerId": 20602640, "slots": [{"id": "92216698-0", "entrant": {"id": 20602640, "name": "Shenron", "participants": [{"id": 18967340, "gamerTag": "Shenron", "prefix": null, "user": {"location": {"city": "roswell", "state": "GA", "country": "United States"}}, "player": {"id": 36501, "gamerTag": "Shenron", "prefix": "PH", "user": {"location": {"city": "roswell", "state": "GA", "country": "United States"}}}}]}, "standing": {"placement": 1, "stats": {"score": {"value": 2}}}}, {"id": "92216698-1", "entrant": {"id": 20490345, "name": "bradex", "participants": [{"id": 18869072, "gamerTag": "bradex", "prefix": "", "user": {"location": {"city": "Canton", "state": "GA", "country": "United States"}}, "player": {"id": 1585336, "gamerTag": "bradex", "prefix": "", "user": {"location": {"city": "Canton", "state": "GA", "country": "United States"}}}}]}, "standing": {"placement": 2, "stats": {"score": {"value": 1}}}}], "games": null}, {"id": 92211905, "state": 3, "round": 1, "fullRoundText": "Winners Round 1", "completedAt": 1754155855, "winnerId": 20564784, "slots": [{"id": "92211905-0", "entrant": {"id": 20564784, "name": "Flux", "participants": [{"id": 18934092, "gamerTag": "Flux", "prefix": "", "user": {"location": {"city": "Atlanta", "state": "GA", "country": "United States"}}, "player": {"id": 4392219, "gamerTag": "Flux", "prefix": "", "user": {"location": {"city": "Atlanta", "state": "GA", "country": "United States"}}}}]}, "standing": {"placement": 1, "stats": {"score": {"value": null}}}}, {"id": "92211905-1", "entrant": {"id": 20495796, "name": "KrobbleGoo", "participants": [{"id": 18873984, "gamerTag": "KrobbleGoo", "prefix": "", "user": {"location": {"city": null, "state": null, "country": "United States"}}, "player": {"id": 3276756, "gamerTag": "KrobbleGoo", "prefix": "", "user": {"location": {"city": null, "state": null, "country": "United States"}}}}]}, "standing": {"placement": 2, "stats": {"score": {"value": -1}}}}], "games": null}, {"id": 92219780, "state": 3, "round": -4, "fullRoundText": "Losers Quarter-Final", "completedAt": 1754165096, "winnerId": 20602511, "slots": [{"id": "92219780-0", "entrant": {"id": 20603930, "name": "SRN | Games & Flames", "participants": [{"id": 18968147, "gamerTag": "Games & Flames", "prefix": "SRN", "user": {"location": {"city": "Jonesboro", "state": null, "country": "United States"}}, "player": {"id": 1768109, "gamerTag": "Games & Flames", "prefix": "SRN", "user": {"location": {"city": "Jonesboro", "state": null, "country": "United States"}}}}]}, "standing": {"placement": 2, "stats": {"score": {"value": 1}}}}, {"id": "92219780-1", "entrant": {"id": 20602511, "name": "Dingo", "participants": [{"id": 18967220, "gamerTag": "Dingo", "prefix": null, "user": {"location": {"city": "Augusta", "state": "GA", "country": "United States"}}, "player": {"id": 35890, "gamerTag": "Dingo", "prefix": null, "user": {"location": {"city": "Augusta", "state": "GA", "country": "United States"}}}}]}, "standing": {"placement": 1, "stats": {"score": {"value": 3}}}}], "games": [{"id": 31677958, "orderNum": 1, "winnerId": 20602511, "entrant1Score": 0, "entrant2Score": null, "stage": null, "selections": null}, {"id": 31677959, "orderNum": 2, "winnerId": 20603930, "entrant1Score": null, "entrant2Score": 0, "stage": null, "selections": null}, {"id": 31677960, "orderNum": 3, "winnerId": 20602511, "entrant1Score": 0, "entrant2Score": null, "stage": null, "selections": null}, {"id": 31678067, "orderNum": 4, "winnerId": 20602511, "entrant1Score": null, "entrant2Score": null, "stage": null, "selections": null}]}, {"id": 92219781, "state": 3, "round": -4, "fullRoundText": "Losers Quarter-Final", "completedAt": 1754165373, "winnerId": 20500171, "slots": [{"id": "92219781-0", "entrant": {"id": 20500171, "name": "Teri", "participants": [{"id": 18877766, "gamerTag": "Teri", "prefix": "", "user": {"location": {"city": "Spartanburg", "state": "SC", "country": "United States"}}, "player": {"id": 63209, "gamerTag": "Teri", "prefix": "", "user": {"location": {"city": "Spartanburg", "state": "SC", "country": "United States"}}}}]}, "standing": {"placement": 1, "stats": {"score": {"value": 3}}}}, {"id": "92219781-1", "entrant": {"id": 20492325, "name": "Jmac", "participants": [{"id": 18870846, "gamerTag": "Jmac", "prefix": "", "user": {"location": {"city": null, "state": null, "country": "United States"}}, "player": {"id": 947560, "gamerTag": "Jmac", "prefix": "", "user": {"location": {"city": null, "state": null, "country": "United States"}}}}]}, "standing": {"placement": 2, "stats": {"score": {"value": 0}}}}], "games": [{"id": 31678168, "orderNum": 1, "winnerId": 20500171, "entrant1Score": null, "entrant2Score": null, "stage": null, "selections": null}, {"id": 31678169, "orderNum": 2, "winnerId": 20500171, "entrant1Score": null, "entrant2Score": null, "stage": null, "selections": null}, {"id": 31678170, "orderNum": 3, "winnerId": 20500171, "entrant1Score": null, "entrant2Score": null, "stage": null, "selections": null}]}, {"id": 92219778, "state": 3, "round": -3, "fullRoundText": "Losers Round 1", "completedAt": 1754162681, "winnerId": 20602511, "slots": [{"id": "92219778-0", "entrant": {"id": 20564784, "name": "Flux", "participants": [{"id": 18934092, "gamerTag": "Flux", "prefix": "", "user": {"location": {"city": "Atlanta", "state": "GA", "country": "United States"}}, "player": {"id": 4392219, "gamerTag": "Flux", "prefix": "", "user": {"location": {"city": "Atlanta", "state": "GA", "country": "United States"}}}}]}, "standing": {"placement": 2, "stats": {"score": {"value": 0}}}}, {"id": "92219778-1", "entrant": {"id": 20602511, "name": "Dingo", "participants": [{"id": 18967220, "gamerTag": "Dingo", "prefix": null, "user": {"location": {"city": "Augusta", "state": "GA", "country": "United States"}}, "player": {"id": 35890, "gamerTag": "Dingo", "prefix": null, "user": {"location": {"city": "Augusta", "state": "GA", "country": "United States"}}}}]}, "standing": {"placement": 1, "stats": {"score": {"value": 3}}}}], "games": [{"id": 31676773, "orderNum": 1, "winnerId": 20602511, "entrant1Score": null, "entrant2Score": null, "stage": null, "selections": [{"id": 46640868, "selectionType": "CHARACTER", "selectionValue": 2502, "entrant": {"id": 20564784}, "character": {"id": 2502, "name": "Maypul"}}, {"id": 46640869, "selectionType": "CHARACTER", "selectionValue": 2599, "entrant": {"id": 20602511}, "character": {"id": 2599, "name": "Forsburn"}}]}, {"id": 31676774, "orderNum": 2, "winnerId": 20602511, "entrant1Score": null, "entrant2Score": null, "stage": null, "selections": [{"id": 46640870, "selectionType": "CHARACTER", "selectionValue": 2502, "entrant": {"id": 20564784}, "character": {"id": 2502, "name": "Maypul"}}, {"id": 46640871, "selectionType": "CHARACTER", "selectionValue": 2599, "entrant": {"id": 20602511}, "character": {"id": 2599, "name": "Forsburn"}}]}, {"id": 31676775, "orderNum": 3, "winnerId": 20602511, "entrant1Score": null, "entrant2Score": null, "stage": null, "selections": [{"id": 46640872, "selectionType": "CHARACTER", "selectionValue": 2502, "entrant": {"id": 20564784}, "character": {"id": 2502, "name": "Maypul"}}, {"id": 46640873, "selectionType": "CHARACTER", "selectionValue": 2599, "entrant": {"id": 20602511}, "character": {"id": 2599, "name": "Forsburn"}}]}]}, {"id": 92219779, "state": 3, "round": -3, "fullRoundText": "Losers Round 1", "completedAt": 1754164582, "winnerId": 20492325, "slots": [{"id": "92219779-0", "entrant": {"id": 20490280, "name": "Taylor", "participants": [{"id": 18869026, "gamerTag": "Taylor", "prefix": null, "user": {"location": {"city": "", "state": "GA", "country": "United States"}}, "player": {"id": 926445, "gamerTag": "Taylor", "prefix": null, "user": {"location": {"city": "", "state": "GA", "country": "United States"}}}}]}, "standing": {"placement": 2, "stats": {"score": {"value": 0}}}}, {"id": "92219779-1", "entrant": {"id": 20492325, "name": "Jmac", "participants": [{"id": 18870846, "gamerTag": "Jmac", "prefix": "", "user": {"location": {"city": null, "state": null, "country": "United States"}}, "player": {"id": 947560, "gamerTag": "Jmac", "prefix": "", "user": {"location": {"city": null, "state": null, "country": "United States"}}}}]}, "standing": {"placement": 1, "stats": {"score": {"value": 3}}}}], "games": [{"id": 31677840, "orderNum": 1, "winnerId": 20492325, "entrant1Score": null, "entrant2Score": null, "stage": null, "selections": null}, {"id": 31677842, "orderNum": 2, "winnerId": 20492325, "entrant1Score": null, "entrant2Score": null, "stage": null, "selections": null}, {"id": 31677843, "orderNum": 3, "winnerId": 20492325, "entrant1Score": null, "entrant2Score": null, "stage": null, "selections": null}]}]}}}