{"phase": {"seeds": {"pageInfo": {"totalPages": 1, "total": 12}, "nodes": [{"id": 35981906, "seedNum": 2, "entrant": {"id": 20855912, "name": "vivesthesia", "participants": [{"id": 19191474, "gamerTag": "vivesthesia", "prefix": null, "user": {"location": {"city": "Atlanta", "state": "GA", "country": "United States"}}, "player": {"id": 4395171, "gamerTag": "vivesthesia", "prefix": null, "user": {"location": {"city": "Atlanta", "state": "GA", "country": "United States"}}}}]}}, {"id": 35990906, "seedNum": 3, "entrant": {"id": 20861687, "name": "natebug01", "participants": [{"id": 19196768, "gamerTag": "natebug01", "prefix": null, "user": {"location": {"city": "atl", "state": "GA", "country": "United States"}}, "player": {"id": 69973, "gamerTag": "natebug01", "prefix": null, "user": {"location": {"city": "atl", "state": "GA", "country": "United States"}}}}]}}, {"id": 35981991, "seedNum": 1, "entrant": {"id": 20855966, "name": "audrey", "participants": [{"id": 19191524, "gamerTag": "audrey", "prefix": null, "user": {"location": {"city": "Dunwoody", "state": "GA", "country": "United States"}}, "player": {"id": 1335864, "gamerTag": "audrey", "prefix": null, "user": {"location": {"city": "Dunwoody", "state": "GA", "country": "United States"}}}}]}}, {"id": 35991339, "seedNum": 4, "entrant": {"id": 20862014, "name": "skyguy | jetBBL", "participants": [{"id": 19196572, "gamerTag": "jetBBL", "prefix": "skyguy", "user": {"location": {"city": "Warner Robins", "state": "GA", "country": "United States"}}, "player": {"id": 679572, "gamerTag": "jetBBL", "prefix": "skyguy", "user": {"location": {"city": "Warner Robins", "state": "GA", "country": "United States"}}}}]}}, {"id": 35991218, "seedNum": 7, "entrant": {"id": 20861925, "name": "napkino jr", "participants": [{"id": 19196942, "gamerTag": "napkino jr", "prefix": "", "user": null, "player": {"id": 4905271, "gamerTag": "napkino jr", "prefix": "", "user": null}}]}}, {"id": 35988731, "seedNum": 9, "entrant": {"id": 20859810, "name": "tomguy", "participants": [{"id": 19195086, "gamerTag": "tomguy", "prefix": "", "user": {"location": {"city": "Atlanta", "state": "GA", "country": "United States"}}, "player": {"id": 147458, "gamerTag": "tomguy", "prefix": "", "user": {"location": {"city": "Atlanta", "state": "GA", "country": "United States"}}}}]}}, {"id": 35990877, "seedNum": 5, "entrant": {"id": 20861660, "name": "Erran", "participants": [{"id": 19196749, "gamerTag": "Erran", "prefix": "", "user": {"location": {"city": "Atlanta", "state": "GA", "country": "United States"}}, "player": {"id": 36706, "gamerTag": "Erran", "prefix": "", "user": {"location": {"city": "Atlanta", "state": "GA", "country": "United States"}}}}]}}, {"id": 35991341, "seedNum": 6, "entrant": {"id": 20862016, "name": "skyguy | Lover", "participants": [{"id": 19196571, "gamerTag": "Lover", "prefix": "skyguy", "user": {"location": {"city": "Atlanta", "state": "GA", "country": "United States"}}, "player": {"id": 53805, "gamerTag": "Lover", "prefix": "skyguy", "user": {"location": {"city": "Atlanta", "state": "GA", "country": "United States"}}}}]}}, {"id": 35991397, "seedNum": 8, "entrant": {"id": 20862044, "name": "Rail Tracer", "participants": [{"id": 19197028, "gamerTag": "Rail Tracer", "prefix": "", "user": null, "player": {"id": 4905282, "gamerTag": "Rail Tracer", "prefix": "", "user": null}}]}}, {"id": 35951717, "seedNum": 10, "entrant": {"id": 20838540, "name": "noided", "participants": [{"id": 19175844, "gamerTag": "noided", "prefix": "", "user": {"location": {"city": "Atlanta", "state": "GA", "country": "United States"}}, "player": {"id": 2586521, "gamerTag": "noided", "prefix": "", "user": {"location": {"city": "Atlanta", "state": "GA", "country": "United States"}}}}]}}, {"id": 35984714, "seedNum": 11, "entrant": {"id": 20857533, "name": "SCS | dougie2doinks", "participants": [{"id": 19192926, "gamerTag": "dougie2doinks", "prefix": "SCS", "user": {"location": {"city": "Atlanta", "state": "GA", "country": "United States"}}, "player": {"id": 1569735, "gamerTag": "dougie2doinks", "prefix": "SCS", "user": {"location": {"city": "Atlanta", "state": "GA", "country": "United States"}}}}]}}, {"id": 35946301, "seedNum": 12, "entrant": {"id": 20835693, "name": "afterimage", "participants": [{"id": 19173578, "gamerTag": "afterimage", "prefix": "", "user": {"location": {"city": "Atlanta", "state": "GA", "country": "United States"}}, "player": {"id": 4435133, "gamerTag": "popsicle", "prefix": "", "user": {"location": {"city": "Atlanta", "state": "GA", "country": "United States"}}}}]}}]}}}