{"event": {"sets": {"pageInfo": {"totalPages": 7, "total": 101}, "nodes": [{"id": 93362516, "state": 3, "round": 4, "fullRoundText": "Grand Final", "completedAt": 1756695544, "winnerId": 20734707, "slots": [{"id": "93362516-0", "entrant": {"id": 21091492, "name": "Hell Mode | ROB Slayer", "participants": [{"id": 19400829, "gamerTag": "ROB Slayer", "prefix": "Hell Mode", "user": {"location": {"city": "Atlanta", "state": "GA", "country": "United States"}}, "player": {"id": 2414381, "gamerTag": "ROB Slayer", "prefix": "Hell Mode", "user": {"location": {"city": "Atlanta", "state": "GA", "country": "United States"}}}}]}, "standing": {"placement": 2, "stats": {"score": {"value": 2}}}}, {"id": "93362516-1", "entrant": {"id": 20734707, "name": "Ave~", "participants": [{"id": 19081749, "gamerTag": "Ave~", "prefix": null, "user": {"location": {"city": null, "state": null, "country": null}}, "player": {"id": 38830, "gamerTag": "Ave~", "prefix": "", "user": {"location": {"city": null, "state": null, "country": null}}}}]}, "standing": {"placement": 1, "stats": {"score": {"value": 3}}}}], "games": null}, {"id": 93362517, "state": 3, "round": 4, "fullRoundText": "Grand Final Reset", "completedAt": 1756696605, "winnerId": 20734707, "slots": [{"id": "93362517-0", "entrant": {"id": 20734707, "name": "Ave~", "participants": [{"id": 19081749, "gamerTag": "Ave~", "prefix": null, "user": {"location": {"city": null, "state": null, "country": null}}, "player": {"id": 38830, "gamerTag": "Ave~", "prefix": "", "user": {"location": {"city": null, "state": null, "country": null}}}}]}, "standing": {"placement": 1, "stats": {"score": {"value": 3}}}}, {"id": "93362517-1", "entrant": {"id": 21091492, "name": "Hell Mode | ROB Slayer", "participants": [{"id": 19400829, "gamerTag": "ROB Slayer", "prefix": "Hell Mode", "user": {"location": {"city": "Atlanta", "state": "GA", "country": "United States"}}, "player": {"id": 2414381, "gamerTag": "ROB Slayer", "prefix": "Hell Mode", "user": {"location": {"city": "Atlanta", "state": "GA", "country": "United States"}}}}]}, "standing": {"placement": 2, "stats": {"score": {"value": 1}}}}], "games": null}, {"id": 93362515, "state": 3, "round": 3, "fullRoundText": "Winners Final", "completedAt": 1756692214, "winnerId": 21091492, "slots": [{"id": "93362515-0", "entrant": {"id": 21047863, "name": "PH | Nimbus", "participants": [{"id": 19361535, "gamerTag": "Nimbus", "prefix": "PH", "user": {"location": {"city": "Roswell", "state": "GA", "country": "United States"}}, "player": {"id": 36462, "gamerTag": "Nimbus", "prefix": "PH", "user": {"location": {"city": "Roswell", "state": "GA", "country": "United States"}}}}]}, "standing": {"placement": 2, "stats": {"score": {"value": 0}}}}, {"id": "93362515-1", "entrant": {"id": 21091492, "name": "Hell Mode | ROB Slayer", "participants": [{"id": 19400829, "gamerTag": "ROB Slayer", "prefix": "Hell Mode", "user": {"location": {"city": "Atlanta", "state": "GA", "country": "United States"}}, "player": {"id": 2414381, "gamerTag": "ROB Slayer", "prefix": "Hell Mode", "user": {"location": {"city": "Atlanta", "state": "GA", "country": "United States"}}}}]}, "standing": {"placement": 1, "stats": {"score": {"value": 3}}}}], "games": null}, {"id": 93357366, "state": 3, "round": 3, "fullRoundText": "Winners Semi-Final", "completedAt": 1756682244, "winnerId": 21047863, "slots": [{"id": "93357366-0", "entrant": {"id": 21047863, "name": "PH | Nimbus", "participants": [{"id": 19361535, "gamerTag": "Nimbus", "prefix": "PH", "user": {"location": {"city": "Roswell", "state": "GA", "country": "United States"}}, "player": {"id": 36462, "gamerTag": "Nimbus", "prefix": "PH", "user": {"location": {"city": "Roswell", "state": "GA", "country": "United States"}}}}]}, "standing": {"placement": 1, "stats": {"score": {"value": 2}}}}, {"id": "93357366-1", "entrant": {"id": 21078191, "name": "Heart", "participants": [{"id": 19388853, "gamerTag": "Heart", "prefix": "", "user": {"location": {"city": "Atlanta", "state": "GA", "country": "United States"}}, "player": {"id": 4287822, "gamerTag": "Heart", "prefix": "", "user": {"location": {"city": "Atlanta", "state": "GA", "country": "United States"}}}}]}, "standing": {"placement": 2, "stats": {"score": {"value": 0}}}}], "games": null}, {"id": 93351219, "state": 3, "round": 3, "fullRoundText": "Winners Semi-Final", "completedAt": 1756674581, "winnerId": 20734707, "slots": [{"id": "93351219-0", "entrant": {"id": 20734707, "name": "Ave~", "participants": [{"id": 19081749, "gamerTag": "Ave~", "prefix": null, "user": {"location": {"city": null, "state": null, "country": null}}, "player": {"id": 38830, "gamerTag": "Ave~", "prefix": "", "user": {"location": {"city": null, "state": null, "country": null}}}}]}, "standing": {"placement": 1, "stats": {"score": {"value": 2}}}}, {"id": "93351219-1", "entrant": {"id": 21083439, "name": "Fe | Atomic", "participants": [{"id": 19393668, "gamerTag": "Atomic", "prefix": "Fe", "user": {"location": {"city": "Atlanta", "state": "GA", "country": "United States"}}, "player": {"id": 1809403, "gamerTag": "Atomic", "prefix": "Fe", "user": {"location": {"city": "Atlanta", "state": "GA", "country": "United States"}}}}]}, "standing": {"placement": 2, "stats": {"score": {"value": 0}}}}], "games": null}, {"id": 93342872, "state": 3, "round": 3, "fullRoundText": "Winners Semi-Final", "completedAt": 1756667358, "winnerId": 21091492, "slots": [{"id": "93342872-0", "entrant": {"id": 21091492, "name": "Hell Mode | ROB Slayer", "participants": [{"id": 19400829, "gamerTag": "ROB Slayer", "prefix": "Hell Mode", "user": {"location": {"city": "Atlanta", "state": "GA", "country": "United States"}}, "player": {"id": 2414381, "gamerTag": "ROB Slayer", "prefix": "Hell Mode", "user": {"location": {"city": "Atlanta", "state": "GA", "country": "United States"}}}}]}, "standing": {"placement": 1, "stats": {"score": {"value": 2}}}}, {"id": "93342872-1", "entrant": {"id": 21116312, "name": "TnT | Sid", "participants": [{"id": 19423112, "gamerTag": "Sid", "prefix": "TnT", "user": {"location": {"city": "Powder Springs", "state": "GA", "country": "United States"}}, "player": {"id": 1229067, "gamerTag": "Sid", "prefix": "TnT", "user": {"location": {"city": "Powder Springs", "state": "GA", "country": "United States"}}}}]}, "standing": {"placement": 2, "stats": {"score": {"value": 0}}}}], "games": null}, {"id": 93337897, "state": 3, "round": 3, "fullRoundText": "Winners Semi-Final", "completedAt": 1756659362, "winnerId": 21100706, "slots": [{"id": "93337897-0", "entrant": {"id": 20808909, "name": "Chade | BonusOnus", "participants": [{"id": 19150135, "gamerTag": "BonusOnus", "prefix": "Chade", "user": {"location": {"city": "Detroit", "state": "MI", "country": "United States"}}, "player": {"id": 3656221, "gamerTag": "BonusOnus", "prefix": "Chade", "user": {"location": {"city": "Detroit", "state": "MI", "country": "United States"}}}}]}, "standing": {"placement": 2, "stats": {"score": {"value": 0}}}}, {"id": "93337897-1", "entrant": {"id": 21100706, "name": "Huggles", "participants": [{"id": 19409098, "gamerTag": "Huggles", "prefix": "", "user": {"location": {"city": "Irmo", "state": "SC", "country": "United States"}}, "player": {"id": 53024, "gamerTag": "Huggles", "prefix": "", "user": {"location": {"city": "Irmo", "state": "SC", "country": "United States"}}}}]}, "standing": {"placement": 1, "stats": {"score": {"value": 2}}}}], "games": null}, {"id": 93357367, "state": 3, "round": 3, "fullRoundText": "Winners Semi-Final", "completedAt": 1756683893, "winnerId": 21094406, "slots": [{"id": "93357367-0", "entrant": {"id": 21094406, "name": "pristinetao", "participants": [{"id": 19403485, "gamerTag": "pristinetao", "prefix": "", "user": {"location": {"city": null, "state": null, "country": null}}, "player": {"id": 2721225, "gamerTag": "pristinetao", "prefix": "", "user": {"location": {"city": null, "state": null, "country": null}}}}]}, "standing": {"placement": 1, "stats": {"score": {"value": 2}}}}, {"id": "93357367-1", "entrant": {"id": 21126806, "name": "ToBeFrank | FF | SLAYlor Moon", "participants": [{"id": 19432500, "gamerTag": "SLAYlor Moon", "prefix": "ToBeFrank | FF", "user": {"location": {"city": "Atlanta", "state": "GA", "country": "United States"}}, "player": {"id": 267007, "gamerTag": "SLAYlor Moon", "prefix": "ToBeFrank | FF", "user": {"location": {"city": "Atlanta", "state": "GA", "country": "United States"}}}}]}, "standing": {"placement": 2, "stats": {"score": {"value": 0}}}}], "games": null}, {"id": 93351220, "state": 3, "round": 3, "fullRoundText": "Winners Semi-Final", "completedAt": 1756675473, "winnerId": 21098320, "slots": [{"id": "93351220-0", "entrant": {"id": 21098320, "name": "KRU | CarbonCopies", "participants": [{"id": 19406775, "gamerTag": "CarbonCopies", "prefix": "KRU", "user": {"location": {"city": "Denver", "state": "CO", "country": "United States"}}, "player": {"id": 521097, "gamerTag": "CarbonCopies", "prefix": "KRU", "user": {"location": {"city": "Denver", "state": "CO", "country": "United States"}}}}]}, "standing": {"placement": 1, "stats": {"score": {"value": 2}}}}, {"id": "93351220-1", "entrant": {"id": 21088942, "name": "TFT | RoKu", "participants": [{"id": 19398449, "gamerTag": "RoKu", "prefix": "TFT", "user": {"location": {"city": "Peachtree Corners", "state": "GA", "country": "United States"}}, "player": {"id": 1107285, "gamerTag": "RoKu", "prefix": "TFT", "user": {"location": {"city": "Peachtree Corners", "state": "GA", "country": "United States"}}}}]}, "standing": {"placement": 2, "stats": {"score": {"value": 1}}}}], "games": null}, {"id": 93342873, "state": 3, "round": 3, "fullRoundText": "Winners Semi-Final", "completedAt": 1756668059, "winnerId": 21067634, "slots": [{"id": "93342873-0", "entrant": {"id": 21067634, "name": "Giizus", "participants": [{"id": 19379149, "gamerTag": "Giizus", "prefix": "", "user": {"location": {"city": "Spring City", "state": null, "country": "United States"}}, "player": {"id": 922274, "gamerTag": "Giizus", "prefix": "", "user": {"location": {"city": "Spring City", "state": null, "country": "United States"}}}}]}, "standing": {"placement": 1, "stats": {"score": {"value": 2}}}}, {"id": "93342873-1", "entrant": {"id": 21062207, "name": "Frank", "participants": [{"id": 19374337, "gamerTag": "Frank", "prefix": null, "user": {"location": {"city": "Doraville", "state": "GA", "country": "United States"}}, "player": {"id": 1227401, "gamerTag": "Terry Labonte", "prefix": "TFT", "user": {"location": {"city": "Doraville", "state": "GA", "country": "United States"}}}}]}, "standing": {"placement": 2, "stats": {"score": {"value": 0}}}}], "games": null}, {"id": 93337898, "state": 3, "round": 3, "fullRoundText": "Winners Semi-Final", "completedAt": 1756660115, "winnerId": 21126107, "slots": [{"id": "93337898-0", "entrant": {"id": 21125289, "name": "BigPlay", "participants": [{"id": 19431060, "gamerTag": "BigPlay", "prefix": "", "user": {"location": {"city": "Atlanta", "state": "GA", "country": "United States"}}, "player": {"id": 31308, "gamerTag": "BigPlay", "prefix": "", "user": {"location": {"city": "Atlanta", "state": "GA", "country": "United States"}}}}]}, "standing": {"placement": 2, "stats": {"score": {"value": 1}}}}, {"id": "93337898-1", "entrant": {"id": 21126107, "name": "Rain~", "participants": [{"id": 19431869, "gamerTag": "Rain~", "prefix": null, "user": {"location": {"city": "Atlanta", "state": "GA", "country": "United States"}}, "player": {"id": 4240164, "gamerTag": "Rain~", "prefix": null, "user": {"location": {"city": "Atlanta", "state": "GA", "country": "United States"}}}}]}, "standing": {"placement": 1, "stats": {"score": {"value": 2}}}}], "games": null}, {"id": 93362579, "state": 3, "round": -10, "fullRoundText": "Losers Final", "completedAt": 1756694373, "winnerId": 20734707, "slots": [{"id": "93362579-0", "entrant": {"id": 21047863, "name": "PH | Nimbus", "participants": [{"id": 19361535, "gamerTag": "Nimbus", "prefix": "PH", "user": {"location": {"city": "Roswell", "state": "GA", "country": "United States"}}, "player": {"id": 36462, "gamerTag": "Nimbus", "prefix": "PH", "user": {"location": {"city": "Roswell", "state": "GA", "country": "United States"}}}}]}, "standing": {"placement": 2, "stats": {"score": {"value": 0}}}}, {"id": "93362579-1", "entrant": {"id": 20734707, "name": "Ave~", "participants": [{"id": 19081749, "gamerTag": "Ave~", "prefix": null, "user": {"location": {"city": null, "state": null, "country": null}}, "player": {"id": 38830, "gamerTag": "Ave~", "prefix": "", "user": {"location": {"city": null, "state": null, "country": null}}}}]}, "standing": {"placement": 1, "stats": {"score": {"value": 3}}}}], "games": null}, {"id": 93362578, "state": 3, "round": -9, "fullRoundText": "Losers Semi-Final", "completedAt": 1756693333, "winnerId": 20734707, "slots": [{"id": "93362578-0", "entrant": {"id": 20734707, "name": "Ave~", "participants": [{"id": 19081749, "gamerTag": "Ave~", "prefix": null, "user": {"location": {"city": null, "state": null, "country": null}}, "player": {"id": 38830, "gamerTag": "Ave~", "prefix": "", "user": {"location": {"city": null, "state": null, "country": null}}}}]}, "standing": {"placement": 1, "stats": {"score": {"value": 3}}}}, {"id": "93362578-1", "entrant": {"id": 21126107, "name": "Rain~", "participants": [{"id": 19431869, "gamerTag": "Rain~", "prefix": null, "user": {"location": {"city": "Atlanta", "state": "GA", "country": "United States"}}, "player": {"id": 4240164, "gamerTag": "Rain~", "prefix": null, "user": {"location": {"city": "Atlanta", "state": "GA", "country": "United States"}}}}]}, "standing": {"placement": 2, "stats": {"score": {"value": 0}}}}], "games": null}, {"id": 93357395, "state": 3, "round": -5, "fullRoundText": "Losers Round 2", "completedAt": 1756683758, "winnerId": 21088449, "slots": [{"id": "93357395-0", "entrant": {"id": 21088449, "name": "WeleX", "participants": [{"id": 19398013, "gamerTag": "WeleX", "prefix": null, "user": {"location": {"city": "Atlanta", "state": "GA", "country": "United States"}}, "player": {"id": 2894975, "gamerTag": "WeleX", "prefix": null, "user": {"location": {"city": "Atlanta", "state": "GA", "country": "United States"}}}}]}, "standing": {"placement": 1, "stats": {"score": {"value": 2}}}}, {"id": "93357395-1", "entrant": {"id": 20992611, "name": "Par-i-dot Alpha", "participants": [{"id": 19311138, "gamerTag": "Par-i-dot Alpha", "prefix": "", "user": {"location": {"city": "Lithoina", "state": "GA", "country": "United States"}}, "player": {"id": 36418, "gamerTag": "Avalon", "prefix": "", "user": {"location": {"city": "Lithoina", "state": "GA", "country": "United States"}}}}]}, "standing": {"placement": 2, "stats": {"score": {"value": 0}}}}], "games": null}, {"id": 93357396, "state": 3, "round": -5, "fullRoundText": "Losers Round 2", "completedAt": 1756684755, "winnerId": 21121856, "slots": [{"id": "93357396-0", "entrant": {"id": 21121856, "name": "RAMS | RussianJesus", "participants": [{"id": 19428046, "gamerTag": "RussianJesus", "prefix": "RAMS", "user": {"location": {"city": "Atlanta", "state": "GA", "country": "United States"}}, "player": {"id": 1140567, "gamerTag": "RussianJesus", "prefix": "RAMS", "user": {"location": {"city": "Atlanta", "state": "GA", "country": "United States"}}}}]}, "standing": {"placement": 1, "stats": {"score": {"value": 2}}}}, {"id": "93357396-1", "entrant": {"id": 21059693, "name": "Bitazeee", "participants": [{"id": 19371927, "gamerTag": "Bitazeee", "prefix": null, "user": {"location": {"city": "Charlotte", "state": "NC", "country": "United States"}}, "player": {"id": 3817099, "gamerTag": "Bitazeee", "prefix": null, "user": {"location": {"city": "Charlotte", "state": "NC", "country": "United States"}}}}]}, "standing": {"placement": 2, "stats": {"score": {"value": 0}}}}], "games": null}]}}}