{"phase": {"seeds": {"pageInfo": {"totalPages": 1, "total": 7}, "nodes": [{"id": 36322079, "seedNum": 1, "entrant": {"id": 21069178, "name": "LBE | Savant", "participants": [{"id": 19380664, "gamerTag": "Savant", "prefix": "LBE", "user": {"location": {"city": "Athens", "state": "GA", "country": "United States"}}, "player": {"id": 1944044, "gamerTag": "Savant", "prefix": "LBE | CC", "user": {"location": {"city": "Athens", "state": "GA", "country": "United States"}}}}]}}, {"id": 36384594, "seedNum": 3, "entrant": {"id": 21109269, "name": "Omar", "participants": [{"id": 19416905, "gamerTag": "Omar", "prefix": "", "user": {"location": {"city": null, "state": "GA", "country": "United States"}}, "player": {"id": 4300029, "gamerTag": "Omar", "prefix": "", "user": {"location": {"city": null, "state": "GA", "country": "United States"}}}}]}}, {"id": 36335790, "seedNum": 5, "entrant": {"id": 21079743, "name": "jack | jazzman", "participants": [{"id": 19390296, "gamerTag": "jazzman", "prefix": "jack", "user": {"location": {"city": "Athens", "state": "GA", "country": "United States"}}, "player": {"id": 3883272, "gamerTag": "jazzman", "prefix": "jack", "user": {"location": {"city": "Athens", "state": "GA", "country": "United States"}}}}]}}, {"id": 36342835, "seedNum": 2, "entrant": {"id": 21084257, "name": "DeDeDeadly", "participants": [{"id": 19394414, "gamerTag": "DeDeDeadly", "prefix": "", "user": {"location": {"city": null, "state": null, "country": "United States"}}, "player": {"id": 2267772, "gamerTag": "DeDeDeadly", "prefix": "", "user": {"location": {"city": null, "state": null, "country": "United States"}}}}]}}, {"id": 36336273, "seedNum": 4, "entrant": {"id": 21080053, "name": "Vertebrae", "participants": [{"id": 19390589, "gamerTag": "Vertebrae", "prefix": "", "user": {"location": {"city": "Athens", "state": "GA", "country": "United States"}}, "player": {"id": 1583946, "gamerTag": "Vertebrae", "prefix": "CC", "user": {"location": {"city": "Athens", "state": "GA", "country": "United States"}}}}]}}, {"id": 36335539, "seedNum": 6, "entrant": {"id": 21079670, "name": "Infinite_Radiance", "participants": [{"id": 19390224, "gamerTag": "Infinite_Radiance", "prefix": "", "user": {"location": {"city": null, "state": "GA", "country": "United States"}}, "player": {"id": 4926508, "gamerTag": "Infinite_Radiance", "prefix": "CC UGA", "user": {"location": {"city": null, "state": "GA", "country": "United States"}}}}]}}, {"id": 36387213, "seedNum": 7, "entrant": {"id": 21111347, "name": "Fish", "participants": [{"id": 19418751, "gamerTag": "Fish", "prefix": "", "user": {"location": {"city": null, "state": null, "country": "United States"}}, "player": {"id": 4946347, "gamerTag": "Fish", "prefix": "", "user": {"location": {"city": null, "state": null, "country": "United States"}}}}]}}]}}}