{"phase": {"seeds": {"pageInfo": {"totalPages": 1, "total": 6}, "nodes": [{"id": 36651436, "seedNum": 6, "entrant": {"id": 21292672, "name": "KumaDusk", "participants": [{"id": 19575862, "gamerTag": "KumaDusk", "prefix": "", "user": {"location": {"city": "Lawrenceville", "state": "GA", "country": "United States"}}, "player": {"id": 253909, "gamerTag": "KumaDusk", "prefix": "", "user": {"location": {"city": "Lawrenceville", "state": "GA", "country": "United States"}}}}]}}, {"id": 36649938, "seedNum": 1, "entrant": {"id": 21291750, "name": "Typical!", "participants": [{"id": 19575087, "gamerTag": "Typical!", "prefix": "", "user": {"location": {"city": "Cumming", "state": "GA", "country": "United States"}}, "player": {"id": 1227171, "gamerTag": "Typical!", "prefix": "", "user": {"location": {"city": "Cumming", "state": "GA", "country": "United States"}}}}]}}, {"id": 36640558, "seedNum": 2, "entrant": {"id": 21284508, "name": "Jeni", "participants": [{"id": 19569255, "gamerTag": "Jeni", "prefix": "", "user": {"location": {"city": null, "state": null, "country": null}}, "player": {"id": 1499467, "gamerTag": "Jeni", "prefix": "", "user": {"location": {"city": null, "state": null, "country": null}}}}]}}, {"id": 36651256, "seedNum": 4, "entrant": {"id": 21292643, "name": "Billy Jones", "participants": [{"id": 19575832, "gamerTag": "Billy Jones", "prefix": "", "user": {"location": {"city": "Atlanta", "state": "GA", "country": "United States"}}, "player": {"id": 1004383, "gamerTag": "Billy Jones", "prefix": "", "user": {"location": {"city": "Atlanta", "state": "GA", "country": "United States"}}}}]}}, {"id": 36650036, "seedNum": 3, "entrant": {"id": 21291851, "name": "Hq", "participants": [{"id": 19575188, "gamerTag": "Hq", "prefix": "", "user": {"location": {"city": "Suwanee", "state": "GA", "country": "United States"}}, "player": {"id": 4680916, "gamerTag": "Hq", "prefix": "", "user": {"location": {"city": "Suwanee", "state": "GA", "country": "United States"}}}}]}}, {"id": 36651407, "seedNum": 5, "entrant": {"id": 21292645, "name": "Bik spoon", "participants": [{"id": 19575834, "gamerTag": "Bik spoon", "prefix": "", "user": {"location": {"city": "Auburn", "state": "AL", "country": "United States"}}, "player": {"id": 1191430, "gamerTag": "Bik spoon", "prefix": "", "user": {"location": {"city": "Auburn", "state": "AL", "country": "United States"}}}}]}}]}}}