{"event": {"sets": {"pageInfo": {"totalPages": 2, "total": 30}, "nodes": [{"id": 92320766, "state": 3, "round": 5, "fullRoundText": "Grand Final", "completedAt": 1754488877, "winnerId": 20890928, "slots": [{"id": "92320766-0", "entrant": {"id": 20890928, "name": "4o4 | MessatsuIM", "participants": [{"id": 19222271, "gamerTag": "MessatsuIM", "prefix": "4o4", "user": {"location": {"city": "Kennesaw", "state": "GA", "country": "United States"}}, "player": {"id": 3564235, "gamerTag": "MessatsuIM", "prefix": "4o4", "user": {"location": {"city": "Kennesaw", "state": "GA", "country": "United States"}}}}]}, "standing": {"placement": 1, "stats": {"score": {"value": 3}}}}, {"id": "92320766-1", "entrant": {"id": 20890558, "name": "4o4 | Musa", "participants": [{"id": 19221929, "gamerTag": "Musa", "prefix": "4o4", "user": {"location": {"city": null, "state": null, "country": "United States"}}, "player": {"id": 131537, "gamerTag": "Musa", "prefix": "4o4", "user": {"location": {"city": null, "state": null, "country": "United States"}}}}]}, "standing": {"placement": 2, "stats": {"score": {"value": 1}}}}], "games": null}, {"id": 92320765, "state": 3, "round": 4, "fullRoundText": "Winners Final", "completedAt": 1754446981, "winnerId": 20890928, "slots": [{"id": "92320765-0", "entrant": {"id": 20890928, "name": "4o4 | MessatsuIM", "participants": [{"id": 19222271, "gamerTag": "MessatsuIM", "prefix": "4o4", "user": {"location": {"city": "Kennesaw", "state": "GA", "country": "United States"}}, "player": {"id": 3564235, "gamerTag": "MessatsuIM", "prefix": "4o4", "user": {"location": {"city": "Kennesaw", "state": "GA", "country": "United States"}}}}]}, "standing": {"placement": 1, "stats": {"score": {"value": 3}}}}, {"id": "92320765-1", "entrant": {"id": 20890558, "name": "4o4 | Musa", "participants": [{"id": 19221929, "gamerTag": "Musa", "prefix": "4o4", "user": {"location": {"city": null, "state": null, "country": "United States"}}, "player": {"id": 131537, "gamerTag": "Musa", "prefix": "4o4", "user": {"location": {"city": null, "state": null, "country": "United States"}}}}]}, "standing": {"placement": 2, "stats": {"score": {"value": 2}}}}], "games": null}, {"id": 92320797, "state": 3, "round": -8, "fullRoundText": "Losers Final", "completedAt": 1754448818, "winnerId": 20890558, "slots": [{"id": "92320797-0", "entrant": {"id": 20890558, "name": "4o4 | Musa", "participants": [{"id": 19221929, "gamerTag": "Musa", "prefix": "4o4", "user": {"location": {"city": null, "state": null, "country": "United States"}}, "player": {"id": 131537, "gamerTag": "Musa", "prefix": "4o4", "user": {"location": {"city": null, "state": null, "country": "United States"}}}}]}, "standing": {"placement": 1, "stats": {"score": {"value": 3}}}}, {"id": "92320797-1", "entrant": {"id": 20891058, "name": "Burboovas", "participants": [{"id": 19222386, "gamerTag": "Burboovas", "prefix": null, "user": {"location": {"city": null, "state": null, "country": null}}, "player": {"id": 3927191, "gamerTag": "Burboovas", "prefix": null, "user": {"location": {"city": null, "state": null, "country": null}}}}]}, "standing": {"placement": 2, "stats": {"score": {"value": 1}}}}], "games": null}, {"id": 92320796, "state": 3, "round": -7, "fullRoundText": "Losers Semi-Final", "completedAt": 1754448020, "winnerId": 20891058, "slots": [{"id": "92320796-0", "entrant": {"id": 20890829, "name": "Noodle", "participants": [{"id": 19222184, "gamerTag": "Noodle", "prefix": null, "user": {"location": {"city": "McDonough", "state": "GA", "country": "United States"}}, "player": {"id": 3029288, "gamerTag": "Noodle", "prefix": "", "user": {"location": {"city": "McDonough", "state": "GA", "country": "United States"}}}}]}, "standing": {"placement": 2, "stats": {"score": {"value": 2}}}}, {"id": "92320796-1", "entrant": {"id": 20891058, "name": "Burboovas", "participants": [{"id": 19222386, "gamerTag": "Burboovas", "prefix": null, "user": {"location": {"city": null, "state": null, "country": null}}, "player": {"id": 3927191, "gamerTag": "Burboovas", "prefix": null, "user": {"location": {"city": null, "state": null, "country": null}}}}]}, "standing": {"placement": 1, "stats": {"score": {"value": 3}}}}], "games": null}, {"id": 92320763, "state": 3, "round": 3, "fullRoundText": "Winners Semi-Final", "completedAt": 1754442815, "winnerId": 20890928, "slots": [{"id": "92320763-0", "entrant": {"id": 20890928, "name": "4o4 | MessatsuIM", "participants": [{"id": 19222271, "gamerTag": "MessatsuIM", "prefix": "4o4", "user": {"location": {"city": "Kennesaw", "state": "GA", "country": "United States"}}, "player": {"id": 3564235, "gamerTag": "MessatsuIM", "prefix": "4o4", "user": {"location": {"city": "Kennesaw", "state": "GA", "country": "United States"}}}}]}, "standing": {"placement": 1, "stats": {"score": {"value": 3}}}}, {"id": "92320763-1", "entrant": {"id": 20890829, "name": "Noodle", "participants": [{"id": 19222184, "gamerTag": "Noodle", "prefix": null, "user": {"location": {"city": "McDonough", "state": "GA", "country": "United States"}}, "player": {"id": 3029288, "gamerTag": "Noodle", "prefix": "", "user": {"location": {"city": "McDonough", "state": "GA", "country": "United States"}}}}]}, "standing": {"placement": 2, "stats": {"score": {"value": 0}}}}], "games": null}, {"id": 92320764, "state": 3, "round": 3, "fullRoundText": "Winners Semi-Final", "completedAt": 1754443292, "winnerId": 20890558, "slots": [{"id": "92320764-0", "entrant": {"id": 20890558, "name": "4o4 | Musa", "participants": [{"id": 19221929, "gamerTag": "Musa", "prefix": "4o4", "user": {"location": {"city": null, "state": null, "country": "United States"}}, "player": {"id": 131537, "gamerTag": "Musa", "prefix": "4o4", "user": {"location": {"city": null, "state": null, "country": "United States"}}}}]}, "standing": {"placement": 1, "stats": {"score": {"value": 3}}}}, {"id": "92320764-1", "entrant": {"id": 20879401, "name": "Buddylikefriend", "participants": [{"id": 19212206, "gamerTag": "Buddylikefriend", "prefix": null, "user": {"location": {"city": "Atlanta", "state": "GA", "country": "United States"}}, "player": {"id": 785557, "gamerTag": "Buddylikefriend", "prefix": null, "user": {"location": {"city": "Atlanta", "state": "GA", "country": "United States"}}}}]}, "standing": {"placement": 2, "stats": {"score": {"value": 0}}}}], "games": null}, {"id": 92320794, "state": 3, "round": -6, "fullRoundText": "Losers Quarter-Final", "completedAt": 1754446241, "winnerId": 20890829, "slots": [{"id": "92320794-0", "entrant": {"id": 20890829, "name": "Noodle", "participants": [{"id": 19222184, "gamerTag": "Noodle", "prefix": null, "user": {"location": {"city": "McDonough", "state": "GA", "country": "United States"}}, "player": {"id": 3029288, "gamerTag": "Noodle", "prefix": "", "user": {"location": {"city": "McDonough", "state": "GA", "country": "United States"}}}}]}, "standing": {"placement": 1, "stats": {"score": {"value": 3}}}}, {"id": "92320794-1", "entrant": {"id": 20887685, "name": "4o4 | Yugo", "participants": [{"id": 19219509, "gamerTag": "Yugo", "prefix": "4o4", "user": {"location": {"city": "Sandy springs", "state": "GA", "country": "United States"}}, "player": {"id": 338020, "gamerTag": "Yugo", "prefix": "4o4", "user": {"location": {"city": "Sandy springs", "state": "GA", "country": "United States"}}}}]}, "standing": {"placement": 2, "stats": {"score": {"value": 1}}}}], "games": null}, {"id": 92320795, "state": 3, "round": -6, "fullRoundText": "Losers Quarter-Final", "completedAt": 1754445504, "winnerId": 20891058, "slots": [{"id": "92320795-0", "entrant": {"id": 20879401, "name": "Buddylikefriend", "participants": [{"id": 19212206, "gamerTag": "Buddylikefriend", "prefix": null, "user": {"location": {"city": "Atlanta", "state": "GA", "country": "United States"}}, "player": {"id": 785557, "gamerTag": "Buddylikefriend", "prefix": null, "user": {"location": {"city": "Atlanta", "state": "GA", "country": "United States"}}}}]}, "standing": {"placement": 2, "stats": {"score": {"value": 1}}}}, {"id": "92320795-1", "entrant": {"id": 20891058, "name": "Burboovas", "participants": [{"id": 19222386, "gamerTag": "Burboovas", "prefix": null, "user": {"location": {"city": null, "state": null, "country": null}}, "player": {"id": 3927191, "gamerTag": "Burboovas", "prefix": null, "user": {"location": {"city": null, "state": null, "country": null}}}}]}, "standing": {"placement": 1, "stats": {"score": {"value": 3}}}}], "games": null}, {"id": 92320793, "state": 3, "round": -5, "fullRoundText": "Losers Round 3", "completedAt": 1754444146, "winnerId": 20891058, "slots": [{"id": "92320793-0", "entrant": {"id": 20891058, "name": "Burboovas", "participants": [{"id": 19222386, "gamerTag": "Burboovas", "prefix": null, "user": {"location": {"city": null, "state": null, "country": null}}, "player": {"id": 3927191, "gamerTag": "Burboovas", "prefix": null, "user": {"location": {"city": null, "state": null, "country": null}}}}]}, "standing": {"placement": 1, "stats": {"score": {"value": 3}}}}, {"id": "92320793-1", "entrant": {"id": 20891471, "name": "Air | Airplanes", "participants": [{"id": 19222749, "gamerTag": "Airplanes", "prefix": "Air", "user": {"location": {"city": "Dacula", "state": "GA", "country": "United States"}}, "player": {"id": 3872614, "gamerTag": "Airplanes", "prefix": "Air", "user": {"location": {"city": "Dacula", "state": "GA", "country": "United States"}}}}]}, "standing": {"placement": 2, "stats": {"score": {"value": 1}}}}], "games": null}, {"id": 92320792, "state": 3, "round": -5, "fullRoundText": "Losers Round 3", "completedAt": 1754444761, "winnerId": 20887685, "slots": [{"id": "92320792-0", "entrant": {"id": 20887685, "name": "4o4 | Yugo", "participants": [{"id": 19219509, "gamerTag": "Yugo", "prefix": "4o4", "user": {"location": {"city": "Sandy springs", "state": "GA", "country": "United States"}}, "player": {"id": 338020, "gamerTag": "Yugo", "prefix": "4o4", "user": {"location": {"city": "Sandy springs", "state": "GA", "country": "United States"}}}}]}, "standing": {"placement": 1, "stats": {"score": {"value": 3}}}}, {"id": "92320792-1", "entrant": {"id": 20891661, "name": "LukeWarm", "participants": [{"id": 19222913, "gamerTag": "LukeWarm", "prefix": "", "user": {"location": {"city": "Alpharetta", "state": "GA", "country": "United States"}}, "player": {"id": 1348903, "gamerTag": "LukeWarm", "prefix": "", "user": {"location": {"city": "Alpharetta", "state": "GA", "country": "United States"}}}}]}, "standing": {"placement": 2, "stats": {"score": {"value": 1}}}}], "games": null}, {"id": 92320759, "state": 3, "round": 2, "fullRoundText": "Winners Quarter-Final", "completedAt": 1754441361, "winnerId": 20890928, "slots": [{"id": "92320759-0", "entrant": {"id": 20890928, "name": "4o4 | MessatsuIM", "participants": [{"id": 19222271, "gamerTag": "MessatsuIM", "prefix": "4o4", "user": {"location": {"city": "Kennesaw", "state": "GA", "country": "United States"}}, "player": {"id": 3564235, "gamerTag": "MessatsuIM", "prefix": "4o4", "user": {"location": {"city": "Kennesaw", "state": "GA", "country": "United States"}}}}]}, "standing": {"placement": 1, "stats": {"score": {"value": 3}}}}, {"id": "92320759-1", "entrant": {"id": 20891083, "name": "MBossProductions", "participants": [{"id": 19222407, "gamerTag": "MBossProductions", "prefix": "", "user": {"location": {"city": "Norcross", "state": "GA", "country": "United States"}}, "player": {"id": 1997490, "gamerTag": "MBossProductions", "prefix": "", "user": {"location": {"city": "Norcross", "state": "GA", "country": "United States"}}}}]}, "standing": {"placement": 2, "stats": {"score": {"value": 1}}}}], "games": null}, {"id": 92320760, "state": 3, "round": 2, "fullRoundText": "Winners Quarter-Final", "completedAt": 1754441676, "winnerId": 20890829, "slots": [{"id": "92320760-0", "entrant": {"id": 20891058, "name": "Burboovas", "participants": [{"id": 19222386, "gamerTag": "Burboovas", "prefix": null, "user": {"location": {"city": null, "state": null, "country": null}}, "player": {"id": 3927191, "gamerTag": "Burboovas", "prefix": null, "user": {"location": {"city": null, "state": null, "country": null}}}}]}, "standing": {"placement": 2, "stats": {"score": {"value": 2}}}}, {"id": "92320760-1", "entrant": {"id": 20890829, "name": "Noodle", "participants": [{"id": 19222184, "gamerTag": "Noodle", "prefix": null, "user": {"location": {"city": "McDonough", "state": "GA", "country": "United States"}}, "player": {"id": 3029288, "gamerTag": "Noodle", "prefix": "", "user": {"location": {"city": "McDonough", "state": "GA", "country": "United States"}}}}]}, "standing": {"placement": 1, "stats": {"score": {"value": 3}}}}], "games": null}, {"id": 92320761, "state": 3, "round": 2, "fullRoundText": "Winners Quarter-Final", "completedAt": 1754441791, "winnerId": 20890558, "slots": [{"id": "92320761-0", "entrant": {"id": 20890558, "name": "4o4 | Musa", "participants": [{"id": 19221929, "gamerTag": "Musa", "prefix": "4o4", "user": {"location": {"city": null, "state": null, "country": "United States"}}, "player": {"id": 131537, "gamerTag": "Musa", "prefix": "4o4", "user": {"location": {"city": null, "state": null, "country": "United States"}}}}]}, "standing": {"placement": 1, "stats": {"score": {"value": 3}}}}, {"id": "92320761-1", "entrant": {"id": 20891583, "name": "Enn Vee", "participants": [{"id": 19222838, "gamerTag": "Enn Vee", "prefix": null, "user": {"location": {"city": "111 Glenridge Point Parkway", "state": "GA", "country": "United States"}}, "player": {"id": 4725571, "gamerTag": "Enn Vee", "prefix": null, "user": {"location": {"city": "111 Glenridge Point Parkway", "state": "GA", "country": "United States"}}}}]}, "standing": {"placement": 2, "stats": {"score": {"value": 0}}}}], "games": null}, {"id": 92320762, "state": 3, "round": 2, "fullRoundText": "Winners Quarter-Final", "completedAt": 1754442322, "winnerId": 20879401, "slots": [{"id": "92320762-0", "entrant": {"id": 20879401, "name": "Buddylikefriend", "participants": [{"id": 19212206, "gamerTag": "Buddylikefriend", "prefix": null, "user": {"location": {"city": "Atlanta", "state": "GA", "country": "United States"}}, "player": {"id": 785557, "gamerTag": "Buddylikefriend", "prefix": null, "user": {"location": {"city": "Atlanta", "state": "GA", "country": "United States"}}}}]}, "standing": {"placement": 1, "stats": {"score": {"value": 3}}}}, {"id": "92320762-1", "entrant": {"id": 20887685, "name": "4o4 | Yugo", "participants": [{"id": 19219509, "gamerTag": "Yugo", "prefix": "4o4", "user": {"location": {"city": "Sandy springs", "state": "GA", "country": "United States"}}, "player": {"id": 338020, "gamerTag": "Yugo", "prefix": "4o4", "user": {"location": {"city": "Sandy springs", "state": "GA", "country": "United States"}}}}]}, "standing": {"placement": 2, "stats": {"score": {"value": 0}}}}], "games": null}, {"id": 92320788, "state": 3, "round": -4, "fullRoundText": "Losers Round 2", "completedAt": 1754443151, "winnerId": 20887685, "slots": [{"id": "92320788-0", "entrant": {"id": 20887685, "name": "4o4 | Yugo", "participants": [{"id": 19219509, "gamerTag": "Yugo", "prefix": "4o4", "user": {"location": {"city": "Sandy springs", "state": "GA", "country": "United States"}}, "player": {"id": 338020, "gamerTag": "Yugo", "prefix": "4o4", "user": {"location": {"city": "Sandy springs", "state": "GA", "country": "United States"}}}}]}, "standing": {"placement": 1, "stats": {"score": {"value": 3}}}}, {"id": "92320788-1", "entrant": {"id": 20891736, "name": "Leon Nights", "participants": [{"id": 19222981, "gamerTag": "Leon Nights", "prefix": null, "user": {"location": {"city": "Atlanta", "state": "GA", "country": "United States"}}, "player": {"id": 4752335, "gamerTag": "Leon Nights", "prefix": null, "user": {"location": {"city": "Atlanta", "state": "GA", "country": "United States"}}}}]}, "standing": {"placement": 2, "stats": {"score": {"value": 1}}}}], "games": null}]}}}