{"phase": {"seeds": {"pageInfo": {"totalPages": 1, "total": 8}, "nodes": [{"id": 36260403, "seedNum": 1, "entrant": {"id": 21026515, "name": "WDKL | Suture", "participants": [{"id": 19342033, "gamerTag": "Suture", "prefix": "WDKL", "user": {"location": {"city": "Athens", "state": "GA", "country": "United States"}}, "player": {"id": 1938868, "gamerTag": "Suture", "prefix": "WDKL", "user": {"location": {"city": "Athens", "state": "GA", "country": "United States"}}}}]}}, {"id": 36260463, "seedNum": 2, "entrant": {"id": 21026576, "name": "Nia", "participants": [{"id": 19342093, "gamerTag": "Nia", "prefix": null, "user": {"location": {"city": "Buford", "state": "GA", "country": "United States"}}, "player": {"id": 428070, "gamerTag": "Nia", "prefix": null, "user": {"location": {"city": "Buford", "state": "GA", "country": "United States"}}}}]}}, {"id": 36311908, "seedNum": 3, "entrant": {"id": 21062535, "name": "Copper", "participants": [{"id": 19350094, "gamerTag": "Copper", "prefix": "", "user": {"location": {"city": "Athens", "state": "GA", "country": "United States"}}, "player": {"id": 1288306, "gamerTag": "Copper", "prefix": "417", "user": {"location": {"city": "Athens", "state": "GA", "country": "United States"}}}}]}}, {"id": 36311914, "seedNum": 4, "entrant": {"id": 21062541, "name": "UGA | Gene", "participants": [{"id": 19373999, "gamerTag": "Gene", "prefix": "UGA", "user": {"location": {"city": "Athens", "state": null, "country": "United States"}}, "player": {"id": 2440362, "gamerTag": "Gene", "prefix": "UGA", "user": {"location": {"city": "Athens", "state": null, "country": "United States"}}}}]}}, {"id": 36302756, "seedNum": 5, "entrant": {"id": 21055769, "name": "zors3y", "participants": [{"id": 19368601, "gamerTag": "zors3y", "prefix": null, "user": {"location": {"city": "Eatonton", "state": "GA", "country": "United States"}}, "player": {"id": 994539, "gamerTag": "zors3y", "prefix": "417", "user": {"location": {"city": "Eatonton", "state": "GA", "country": "United States"}}}}]}}, {"id": 36269793, "seedNum": 6, "entrant": {"id": 21032764, "name": "Random Nom", "participants": [{"id": 19347888, "gamerTag": "Random Nom", "prefix": null, "user": {"location": {"city": "Athens", "state": "GA", "country": "United States"}}, "player": {"id": 3389982, "gamerTag": "Random Nom", "prefix": null, "user": {"location": {"city": "Athens", "state": "GA", "country": "United States"}}}}]}}, {"id": 36312543, "seedNum": 7, "entrant": {"id": 21062787, "name": "Hippo", "participants": [{"id": 19373727, "gamerTag": "Hippo", "prefix": "", "user": {"location": {"city": null, "state": null, "country": "United States"}}, "player": {"id": 4869379, "gamerTag": "Hippo", "prefix": "", "user": {"location": {"city": null, "state": null, "country": "United States"}}}}]}}, {"id": 36266541, "seedNum": 8, "entrant": {"id": 21030200, "name": "drimys", "participants": [{"id": 19345348, "gamerTag": "drimys", "prefix": null, "user": {"location": {"city": "Cumming", "state": "GA", "country": "United States"}}, "player": {"id": 2436958, "gamerTag": "drimys", "prefix": null, "user": {"location": {"city": "Cumming", "state": "GA", "country": "United States"}}}}]}}]}}}