{"phase": {"seeds": {"pageInfo": {"totalPages": 1, "total": 17}, "nodes": [{"id": 36633467, "seedNum": 2, "entrant": {"id": 21279416, "name": "FreeDubs", "participants": [{"id": 19564706, "gamerTag": "FreeDubs", "prefix": "", "user": {"location": {"city": "Atlanta", "state": null, "country": "United States"}}, "player": {"id": 4888408, "gamerTag": "FreeDubs", "prefix": "", "user": {"location": {"city": "Atlanta", "state": null, "country": "United States"}}}}]}}, {"id": 36631086, "seedNum": 1, "entrant": {"id": 21277452, "name": "Rain~", "participants": [{"id": 19563692, "gamerTag": "Rain~", "prefix": null, "user": {"location": {"city": "Atlanta", "state": "GA", "country": "United States"}}, "player": {"id": 4240164, "gamerTag": "Rain~", "prefix": null, "user": {"location": {"city": "Atlanta", "state": "GA", "country": "United States"}}}}]}}, {"id": 36629259, "seedNum": 3, "entrant": {"id": 21276338, "name": "AO5 | 2ndWonder", "participants": [{"id": 19563164, "gamerTag": "2ndWonder", "prefix": "AO5", "user": {"location": {"city": "Atlanta", "state": "GA", "country": "United States"}}, "player": {"id": 3255312, "gamerTag": "2ndWonder", "prefix": "AO5", "user": {"location": {"city": "Atlanta", "state": "GA", "country": "United States"}}}}]}}, {"id": 36624331, "seedNum": 4, "entrant": {"id": 21272693, "name": "AO5 | ImPhenyl", "participants": [{"id": 19560078, "gamerTag": "ImPhenyl", "prefix": "AO5", "user": {"location": {"city": "Lawrenceville", "state": "GA", "country": "United States"}}, "player": {"id": 3256876, "gamerTag": "ImPhenyl", "prefix": "AO5", "user": {"location": {"city": "Lawrenceville", "state": "GA", "country": "United States"}}}}]}}, {"id": 36628322, "seedNum": 13, "entrant": {"id": 21275653, "name": "KSU | Subzero", "participants": [{"id": 19562589, "gamerTag": "Subzero", "prefix": "KSU", "user": {"location": {"city": "Acworth", "state": "GA", "country": "United States"}}, "player": {"id": 1808159, "gamerTag": "Subzero", "prefix": "KSU", "user": {"location": {"city": "Acworth", "state": "GA", "country": "United States"}}}}]}}, {"id": 36624325, "seedNum": 15, "entrant": {"id": 21272687, "name": "SaintK", "participants": [{"id": 19560073, "gamerTag": "SaintK", "prefix": "", "user": {"location": {"city": "Atlanta", "state": "GA", "country": "United States"}}, "player": {"id": 4963363, "gamerTag": "SaintK", "prefix": "", "user": {"location": {"city": "Atlanta", "state": "GA", "country": "United States"}}}}]}}, {"id": 36625698, "seedNum": 8, "entrant": {"id": 21273685, "name": "RM | PrincePeach", "participants": [{"id": 19560773, "gamerTag": "PrincePeach", "prefix": "RM", "user": {"location": {"city": "Stone Mountain", "state": "GA", "country": "United States"}}, "player": {"id": 3003562, "gamerTag": "Prince Peach", "prefix": "RM", "user": {"location": {"city": "Stone Mountain", "state": "GA", "country": "United States"}}}}]}}, {"id": 36628739, "seedNum": 14, "entrant": {"id": 21275973, "name": "Starsmash", "participants": [{"id": 19562864, "gamerTag": "Starsmash", "prefix": null, "user": {"location": {"city": null, "state": "GA", "country": "United States"}}, "player": {"id": 4978465, "gamerTag": "Starsmash", "prefix": null, "user": {"location": {"city": null, "state": "GA", "country": "United States"}}}}]}}, {"id": 36625800, "seedNum": 5, "entrant": {"id": 21273715, "name": "CHOsen", "participants": [{"id": 19560789, "gamerTag": "CHOsen", "prefix": null, "user": {"location": {"city": "Atlanta", "state": "GA", "country": "United States"}}, "player": {"id": 1478704, "gamerTag": "CHOsen", "prefix": null, "user": {"location": {"city": "Atlanta", "state": "GA", "country": "United States"}}}}]}}, {"id": 36628589, "seedNum": 6, "entrant": {"id": 21275887, "name": "Sol | Octo", "participants": [{"id": 19562786, "gamerTag": "Octo", "prefix": "Sol", "user": {"location": {"city": "Atlanta", "state": "GA", "country": "United States"}}, "player": {"id": 977123, "gamerTag": "Octo", "prefix": "Sol", "user": {"location": {"city": "Atlanta", "state": "GA", "country": "United States"}}}}]}}, {"id": 36628338, "seedNum": 9, "entrant": {"id": 21275661, "name": "KSU | colorful\u029a\u025e", "participants": [{"id": 19562599, "gamerTag": "colorful\u029a\u025e", "prefix": "KSU", "user": {"location": {"city": "Kennesaw", "state": "GA", "country": "United States"}}, "player": {"id": 1783074, "gamerTag": "colorful\u029a\u025e", "prefix": "KSU | RM", "user": {"location": {"city": "Kennesaw", "state": "GA", "country": "United States"}}}}]}}, {"id": 36624298, "seedNum": 10, "entrant": {"id": 21272659, "name": "4o4 | CoNavySeal", "participants": [{"id": 19560049, "gamerTag": "CoNavySeal", "prefix": "4o4", "user": {"location": {"city": "Alpharetta", "state": "GA", "country": "United States"}}, "player": {"id": 3818891, "gamerTag": "CoNavySeal", "prefix": "4o4", "user": {"location": {"city": "Alpharetta", "state": "GA", "country": "United States"}}}}]}}, {"id": 36624481, "seedNum": 7, "entrant": {"id": 21272764, "name": "MTM | Bob Weiner", "participants": [{"id": 19560140, "gamerTag": "Bob Weiner", "prefix": "MTM", "user": {"location": {"city": "Kennesaw", "state": "GA", "country": "United States"}}, "player": {"id": 2142601, "gamerTag": "Bob Weiner", "prefix": "MTM", "user": {"location": {"city": "Kennesaw", "state": "GA", "country": "United States"}}}}]}}, {"id": 36633320, "seedNum": 11, "entrant": {"id": 21279278, "name": "SaggyMilkJug", "participants": [{"id": 19564592, "gamerTag": "SaggyMilkJug", "prefix": "", "user": {"location": {"city": "Atlanta", "state": "GA", "country": "United States"}}, "player": {"id": 4651404, "gamerTag": "SaggyMilkJug", "prefix": "", "user": {"location": {"city": "Atlanta", "state": "GA", "country": "United States"}}}}]}}, {"id": 36633214, "seedNum": 12, "entrant": {"id": 21279242, "name": "CDFAMTHEONE", "participants": [{"id": 19564555, "gamerTag": "CDFAMTHEONE", "prefix": "", "user": {"location": {"city": null, "state": null, "country": "United States"}}, "player": {"id": 4978622, "gamerTag": "CDFAMTHEONE", "prefix": "", "user": {"location": {"city": null, "state": null, "country": "United States"}}}}]}}, {"id": 36624300, "seedNum": 16, "entrant": {"id": 21272661, "name": "United", "participants": [{"id": 19560052, "gamerTag": "United", "prefix": null, "user": {"location": {"city": "Atlanta", "state": "GA", "country": "United States"}}, "player": {"id": 4416768, "gamerTag": "United", "prefix": null, "user": {"location": {"city": "Atlanta", "state": "GA", "country": "United States"}}}}]}}, {"id": 36633722, "seedNum": 17, "entrant": {"id": 21279669, "name": "0W38L | Jayrunner", "participants": [{"id": 19564907, "gamerTag": "Jayrunner", "prefix": "0W38L", "user": {"location": {"city": null, "state": null, "country": "United States"}}, "player": {"id": 621036, "gamerTag": "Jayrunner", "prefix": "0W39L", "user": {"location": {"city": null, "state": null, "country": "United States"}}}}]}}]}}}