{"phase": {"seeds": {"pageInfo": {"totalPages": 1, "total": 6}, "nodes": [{"id": 36779315, "seedNum": 1, "entrant": {"id": 21380022, "name": "sanrio enjoyer", "participants": [{"id": 19653538, "gamerTag": "sanrio enjoyer", "prefix": "", "user": {"location": {"city": "Atlanta", "state": "GA", "country": "United States"}}, "player": {"id": 3792585, "gamerTag": "sanrio enjoyer", "prefix": "", "user": {"location": {"city": "Atlanta", "state": "GA", "country": "United States"}}}}]}}, {"id": 36749079, "seedNum": 2, "entrant": {"id": 21359002, "name": "EVIL | Alas", "participants": [{"id": 19634869, "gamerTag": "Alas", "prefix": "EVIL", "user": {"location": {"city": null, "state": null, "country": null}}, "player": {"id": 25946, "gamerTag": "Alas", "prefix": "EVIL", "user": {"location": {"city": null, "state": null, "country": null}}}}]}}, {"id": 36749245, "seedNum": 3, "entrant": {"id": 21359173, "name": "DD | Kingpoyothefirst", "participants": [{"id": 19635028, "gamerTag": "Kingpoyothefirst", "prefix": "DD", "user": {"location": {"city": null, "state": null, "country": null}}, "player": {"id": 2934299, "gamerTag": "Kingpoyothefirst", "prefix": "DD", "user": {"location": {"city": null, "state": null, "country": null}}}}]}}, {"id": 36749598, "seedNum": 4, "entrant": {"id": 21359466, "name": "The Hive | braxton", "participants": [{"id": 19635286, "gamerTag": "braxton", "prefix": "The Hive", "user": {"location": {"city": "Atlanta", "state": "GA", "country": "United States"}}, "player": {"id": 1037821, "gamerTag": "braxton", "prefix": "The Hive", "user": {"location": {"city": "Atlanta", "state": "GA", "country": "United States"}}}}]}}, {"id": 36774751, "seedNum": 5, "entrant": {"id": 21376679, "name": "Joey Christ", "participants": [{"id": 19650633, "gamerTag": "Joey Christ", "prefix": "", "user": {"location": {"city": "perry", "state": "GA", "country": "United States"}}, "player": {"id": 1920484, "gamerTag": "Joey Christ", "prefix": "", "user": {"location": {"city": "perry", "state": "GA", "country": "United States"}}}}]}}, {"id": 36769972, "seedNum": 6, "entrant": {"id": 21373492, "name": "popsicle", "participants": [{"id": 19647723, "gamerTag": "popsicle", "prefix": "", "user": {"location": {"city": "Atlanta", "state": "GA", "country": "United States"}}, "player": {"id": 4435133, "gamerTag": "popsicle", "prefix": "", "user": {"location": {"city": "Atlanta", "state": "GA", "country": "United States"}}}}]}}]}}}