{"event": {"sets": {"pageInfo": {"totalPages": 1, "total": 6}, "nodes": [{"id": 91555195, "state": 3, "round": 3, "fullRoundText": "Round 3", "completedAt": 1752892445, "winnerId": 20731845, "slots": [{"id": "91555195-0", "entrant": {"id": 20731713, "name": "TPS | cryptonic", "participants": [{"id": 19079269, "gamerTag": "cryptonic", "prefix": "TPS", "user": {"location": {"city": "Kennesaw", "state": "GA", "country": "United States"}}, "player": {"id": 3422494, "gamerTag": "$CAITLIN", "prefix": "TPS", "user": {"location": {"city": "Kennesaw", "state": "GA", "country": "United States"}}}}]}, "standing": {"placement": 2, "stats": {"score": {"value": 0}}}}, {"id": "91555195-1", "entrant": {"id": 20731845, "name": "Mouse", "participants": [{"id": 19079387, "gamerTag": "Mouse", "prefix": "", "user": {"location": {"city": "Atlanta", "state": "GA", "country": "United States"}}, "player": {"id": 264732, "gamerTag": "Mouse", "prefix": "", "user": {"location": {"city": "Atlanta", "state": "GA", "country": "United States"}}}}]}, "standing": {"placement": 1, "stats": {"score": {"value": 3}}}}], "games": null}, {"id": 91555196, "state": 3, "round": 3, "fullRoundText": "Round 3", "completedAt": 1752892453, "winnerId": 20733758, "slots": [{"id": "91555196-0", "entrant": {"id": 20731858, "name": "2BEERSANDIMTRON", "participants": [{"id": 19079397, "gamerTag": "2BEERSANDIMTRON", "prefix": null, "user": {"location": {"city": null, "state": "GA", "country": "United States"}}, "player": {"id": 3041721, "gamerTag": "2BEERSANDIMTRON", "prefix": null, "user": {"location": {"city": null, "state": "GA", "country": "United States"}}}}]}, "standing": {"placement": 2, "stats": {"score": {"value": 1}}}}, {"id": "91555196-1", "entrant": {"id": 20733758, "name": "MSU | transrights420", "participants": [{"id": 19081006, "gamerTag": "transrights420", "prefix": "MSU", "user": {"location": {"city": "Starkville", "state": "MS", "country": "United States"}}, "player": {"id": 1479899, "gamerTag": "transrights420", "prefix": "", "user": {"location": {"city": "Starkville", "state": "MS", "country": "United States"}}}}]}, "standing": {"placement": 1, "stats": {"score": {"value": 3}}}}], "games": null}, {"id": 91555193, "state": 3, "round": 2, "fullRoundText": "Round 2", "completedAt": 1752893909, "winnerId": 20731713, "slots": [{"id": "91555193-0", "entrant": {"id": 20731713, "name": "TPS | cryptonic", "participants": [{"id": 19079269, "gamerTag": "cryptonic", "prefix": "TPS", "user": {"location": {"city": "Kennesaw", "state": "GA", "country": "United States"}}, "player": {"id": 3422494, "gamerTag": "$CAITLIN", "prefix": "TPS", "user": {"location": {"city": "Kennesaw", "state": "GA", "country": "United States"}}}}]}, "standing": {"placement": 1, "stats": {"score": {"value": 3}}}}, {"id": "91555193-1", "entrant": {"id": 20731858, "name": "2BEERSANDIMTRON", "participants": [{"id": 19079397, "gamerTag": "2BEERSANDIMTRON", "prefix": null, "user": {"location": {"city": null, "state": "GA", "country": "United States"}}, "player": {"id": 3041721, "gamerTag": "2BEERSANDIMTRON", "prefix": null, "user": {"location": {"city": null, "state": "GA", "country": "United States"}}}}]}, "standing": {"placement": 2, "stats": {"score": {"value": 0}}}}], "games": null}, {"id": 91555194, "state": 3, "round": 2, "fullRoundText": "Round 2", "completedAt": 1752893900, "winnerId": 20731845, "slots": [{"id": "91555194-0", "entrant": {"id": 20733758, "name": "MSU | transrights420", "participants": [{"id": 19081006, "gamerTag": "transrights420", "prefix": "MSU", "user": {"location": {"city": "Starkville", "state": "MS", "country": "United States"}}, "player": {"id": 1479899, "gamerTag": "transrights420", "prefix": "", "user": {"location": {"city": "Starkville", "state": "MS", "country": "United States"}}}}]}, "standing": {"placement": 2, "stats": {"score": {"value": 0}}}}, {"id": "91555194-1", "entrant": {"id": 20731845, "name": "Mouse", "participants": [{"id": 19079387, "gamerTag": "Mouse", "prefix": "", "user": {"location": {"city": "Atlanta", "state": "GA", "country": "United States"}}, "player": {"id": 264732, "gamerTag": "Mouse", "prefix": "", "user": {"location": {"city": "Atlanta", "state": "GA", "country": "United States"}}}}]}, "standing": {"placement": 1, "stats": {"score": {"value": 3}}}}], "games": null}, {"id": 91555191, "state": 3, "round": 1, "fullRoundText": "Round 1", "completedAt": 1752894915, "winnerId": 20733758, "slots": [{"id": "91555191-0", "entrant": {"id": 20731713, "name": "TPS | cryptonic", "participants": [{"id": 19079269, "gamerTag": "cryptonic", "prefix": "TPS", "user": {"location": {"city": "Kennesaw", "state": "GA", "country": "United States"}}, "player": {"id": 3422494, "gamerTag": "$CAITLIN", "prefix": "TPS", "user": {"location": {"city": "Kennesaw", "state": "GA", "country": "United States"}}}}]}, "standing": {"placement": 2, "stats": {"score": {"value": 1}}}}, {"id": "91555191-1", "entrant": {"id": 20733758, "name": "MSU | transrights420", "participants": [{"id": 19081006, "gamerTag": "transrights420", "prefix": "MSU", "user": {"location": {"city": "Starkville", "state": "MS", "country": "United States"}}, "player": {"id": 1479899, "gamerTag": "transrights420", "prefix": "", "user": {"location": {"city": "Starkville", "state": "MS", "country": "United States"}}}}]}, "standing": {"placement": 1, "stats": {"score": {"value": 3}}}}], "games": null}, {"id": 91555192, "state": 3, "round": 1, "fullRoundText": "Round 1", "completedAt": 1752893895, "winnerId": 20731845, "slots": [{"id": "91555192-0", "entrant": {"id": 20731845, "name": "Mouse", "participants": [{"id": 19079387, "gamerTag": "Mouse", "prefix": "", "user": {"location": {"city": "Atlanta", "state": "GA", "country": "United States"}}, "player": {"id": 264732, "gamerTag": "Mouse", "prefix": "", "user": {"location": {"city": "Atlanta", "state": "GA", "country": "United States"}}}}]}, "standing": {"placement": 1, "stats": {"score": {"value": 3}}}}, {"id": "91555192-1", "entrant": {"id": 20731858, "name": "2BEERSANDIMTRON", "participants": [{"id": 19079397, "gamerTag": "2BEERSANDIMTRON", "prefix": null, "user": {"location": {"city": null, "state": "GA", "country": "United States"}}, "player": {"id": 3041721, "gamerTag": "2BEERSANDIMTRON", "prefix": null, "user": {"location": {"city": null, "state": "GA", "country": "United States"}}}}]}, "standing": {"placement": 2, "stats": {"score": {"value": 0}}}}], "games": null}]}}}