{"event": {"sets": {"pageInfo": {"totalPages": 1, "total": 5}, "nodes": [{"id": "preview_2992792_1_1", "state": 1, "round": 1, "fullRoundText": "Winners Round 1", "completedAt": null, "winnerId": null, "slots": [{"id": "preview_2992792_1_1-0", "entrant": {"id": 21261416, "name": "Nero", "participants": [{"id": 19547970, "gamerTag": "Nero", "prefix": "", "user": {"location": {"city": "Calgary", "state": "AB", "country": "Canada"}}, "player": {"id": 175669, "gamerTag": "Nero", "prefix": "", "user": {"location": {"city": "Calgary", "state": "AB", "country": "Canada"}}}}]}, "standing": null}, {"id": "preview_2992792_1_1-1", "entrant": {"id": 21265210, "name": "STEEZY", "participants": [{"id": 19553922, "gamerTag": "STEEZY", "prefix": null, "user": {"location": {"city": "HELL", "state": "GA", "country": "United States"}}, "player": {"id": 2496238, "gamerTag": "STEEZY", "prefix": null, "user": {"location": {"city": "HELL", "state": "GA", "country": "United States"}}}}]}, "standing": null}], "games": null}, {"id": "preview_2992792_-4_0", "state": 1, "round": -4, "fullRoundText": "Losers Final", "completedAt": null, "winnerId": null, "slots": [{"id": "preview_2992792_-4_0-0", "entrant": null, "standing": null}, {"id": "preview_2992792_-4_0-1", "entrant": null, "standing": null}], "games": null}, {"id": "preview_2992792_2_0", "state": 1, "round": 2, "fullRoundText": "Winners Final", "completedAt": null, "winnerId": null, "slots": [{"id": "preview_2992792_2_0-0", "entrant": {"id": 21241698, "name": "natebug01", "participants": [{"id": 19533864, "gamerTag": "natebug01", "prefix": null, "user": {"location": {"city": "atl", "state": "GA", "country": "United States"}}, "player": {"id": 69973, "gamerTag": "natebug01", "prefix": null, "user": {"location": {"city": "atl", "state": "GA", "country": "United States"}}}}]}, "standing": null}, {"id": "preview_2992792_2_0-1", "entrant": null, "standing": null}], "games": null}, {"id": "preview_2992792_3_0", "state": 1, "round": 3, "fullRoundText": "Grand Final", "completedAt": null, "winnerId": null, "slots": [{"id": "preview_2992792_3_0-0", "entrant": null, "standing": null}, {"id": "preview_2992792_3_0-1", "entrant": null, "standing": null}], "games": null}, {"id": "preview_2992792_3_1", "state": 1, "round": 3, "fullRoundText": "Grand Final Reset", "completedAt": null, "winnerId": null, "slots": [{"id": "preview_2992792_3_1-0", "entrant": null, "standing": null}, {"id": "preview_2992792_3_1-1", "entrant": null, "standing": null}], "games": null}]}}}