{"event": {"sets": {"pageInfo": {"totalPages": 6, "total": 88}, "nodes": [{"id": 93317576, "state": 3, "round": -6, "fullRoundText": "Losers Round 3", "completedAt": 1756604165, "winnerId": 20745468, "slots": [{"id": "93317576-0", "entrant": {"id": 20745468, "name": "AXPS420", "participants": [{"id": 19091173, "gamerTag": "AXPS420", "prefix": null, "user": {"location": {"city": "Atlanta", "state": "GA", "country": "United States"}}, "player": {"id": 3573620, "gamerTag": "AXPS420", "prefix": null, "user": {"location": {"city": "Atlanta", "state": "GA", "country": "United States"}}}}]}, "standing": {"placement": 1, "stats": {"score": {"value": 2}}}}, {"id": "93317576-1", "entrant": {"id": 21115637, "name": "EXC | Blinduv", "participants": [{"id": 19422556, "gamerTag": "Blinduv", "prefix": "EXC", "user": {"location": {"city": "Richmond", "state": "VA", "country": "United States"}}, "player": {"id": 1236931, "gamerTag": "Blinduv", "prefix": "EXC", "user": {"location": {"city": "Richmond", "state": "VA", "country": "United States"}}}}]}, "standing": {"placement": 2, "stats": {"score": {"value": 0}}}}], "games": null}, {"id": 93317577, "state": 3, "round": -6, "fullRoundText": "Losers Round 3", "completedAt": 1756603763, "winnerId": 21119146, "slots": [{"id": "93317577-0", "entrant": {"id": 21124286, "name": "YoshiAteMyPizza", "participants": [{"id": 19430127, "gamerTag": "YoshiAteMyPizza", "prefix": "", "user": {"location": {"city": "Norcross", "state": "GA", "country": "United States"}}, "player": {"id": 2364649, "gamerTag": "YoshiAteMyPizza", "prefix": "", "user": {"location": {"city": "Norcross", "state": "GA", "country": "United States"}}}}]}, "standing": {"placement": 2, "stats": {"score": {"value": 0}}}}, {"id": "93317577-1", "entrant": {"id": 21119146, "name": "Manhattan205", "participants": [{"id": 19425717, "gamerTag": "Manhattan205", "prefix": null, "user": {"location": {"city": null, "state": null, "country": null}}, "player": {"id": 3873973, "gamerTag": "Manhattan205", "prefix": null, "user": {"location": {"city": null, "state": null, "country": null}}}}]}, "standing": {"placement": 1, "stats": {"score": {"value": 2}}}}], "games": null}, {"id": 93317578, "state": 3, "round": -6, "fullRoundText": "Losers Round 3", "completedAt": 1756603523, "winnerId": 21088530, "slots": [{"id": "93317578-0", "entrant": {"id": 21089314, "name": "Archway", "participants": [{"id": 19398797, "gamerTag": "Archway", "prefix": "", "user": {"location": {"city": "Sandy Springs", "state": "GA", "country": "United States"}}, "player": {"id": 1435251, "gamerTag": "Archway", "prefix": "", "user": {"location": {"city": "Sandy Springs", "state": "GA", "country": "United States"}}}}]}, "standing": {"placement": 2, "stats": {"score": {"value": 0}}}}, {"id": "93317578-1", "entrant": {"id": 21088530, "name": "Fl0wchart", "participants": [{"id": 19398080, "gamerTag": "Fl0wchart", "prefix": null, "user": {"location": {"city": "Burnsville", "state": null, "country": null}}, "player": {"id": 864596, "gamerTag": "Fl0wchart", "prefix": null, "user": {"location": {"city": "Burnsville", "state": null, "country": null}}}}]}, "standing": {"placement": 1, "stats": {"score": {"value": 2}}}}], "games": null}, {"id": 93317579, "state": 3, "round": -6, "fullRoundText": "Losers Round 3", "completedAt": 1756604487, "winnerId": 20903541, "slots": [{"id": "93317579-0", "entrant": {"id": 20903541, "name": "Phloppie", "participants": [{"id": 19233165, "gamerTag": "Phloppie", "prefix": "", "user": {"location": {"city": "Land O Lakes", "state": "FL", "country": "United States"}}, "player": {"id": 598375, "gamerTag": "Phloppie", "prefix": "", "user": {"location": {"city": "Land O Lakes", "state": "FL", "country": "United States"}}}}]}, "standing": {"placement": 1, "stats": {"score": {"value": 2}}}}, {"id": "93317579-1", "entrant": {"id": 21114781, "name": "AKTN | P1kaso", "participants": [{"id": 19421855, "gamerTag": "P1kaso", "prefix": "AKTN", "user": {"location": {"city": null, "state": null, "country": null}}, "player": {"id": 561673, "gamerTag": "P1kaso", "prefix": "AKTN", "user": {"location": {"city": null, "state": null, "country": null}}}}]}, "standing": {"placement": 2, "stats": {"score": {"value": 0}}}}], "games": null}, {"id": 93317580, "state": 3, "round": -6, "fullRoundText": "Losers Round 3", "completedAt": 1756604993, "winnerId": 21069251, "slots": [{"id": "93317580-0", "entrant": {"id": 21069251, "name": "Caleko", "participants": [{"id": 19380729, "gamerTag": "Caleko", "prefix": null, "user": {"location": {"city": "Cookeville", "state": "TN", "country": "United States"}}, "player": {"id": 3460600, "gamerTag": "Caleko", "prefix": null, "user": {"location": {"city": "Cookeville", "state": "TN", "country": "United States"}}}}]}, "standing": {"placement": 1, "stats": {"score": {"value": 2}}}}, {"id": "93317580-1", "entrant": {"id": 21094597, "name": "CHINGU | Dires", "participants": [{"id": 19403668, "gamerTag": "Dires", "prefix": "CHINGU", "user": {"location": {"city": "Savannah", "state": "GA", "country": "United States"}}, "player": {"id": 1780650, "gamerTag": "Dires", "prefix": "CHINGU", "user": {"location": {"city": "Savannah", "state": "GA", "country": "United States"}}}}]}, "standing": {"placement": 2, "stats": {"score": {"value": 0}}}}], "games": null}, {"id": 93317581, "state": 3, "round": -6, "fullRoundText": "Losers Round 3", "completedAt": 1756604535, "winnerId": 21096752, "slots": [{"id": "93317581-0", "entrant": {"id": 20974570, "name": "Jel-Sensei", "participants": [{"id": 19295829, "gamerTag": "Jel-Sensei", "prefix": "", "user": {"location": {"city": "birmingham", "state": "AL", "country": "United States"}}, "player": {"id": 1966345, "gamerTag": "Jel-Sensei", "prefix": "", "user": {"location": {"city": "birmingham", "state": "AL", "country": "United States"}}}}]}, "standing": {"placement": 2, "stats": {"score": {"value": 1}}}}, {"id": "93317581-1", "entrant": {"id": 21096752, "name": "The Scary Door", "participants": [{"id": 19405341, "gamerTag": "The Scary Door", "prefix": "", "user": {"location": {"city": "Atlanta", "state": "GA", "country": "United States"}}, "player": {"id": 4944131, "gamerTag": "The Scary Door", "prefix": "", "user": {"location": {"city": "Atlanta", "state": "GA", "country": "United States"}}}}]}, "standing": {"placement": 1, "stats": {"score": {"value": 2}}}}], "games": null}, {"id": 93317582, "state": 3, "round": -6, "fullRoundText": "Losers Round 3", "completedAt": 1756604774, "winnerId": 21108077, "slots": [{"id": "93317582-0", "entrant": {"id": 21108077, "name": "4o4 | Noodle", "participants": [{"id": 19415755, "gamerTag": "Noodle", "prefix": "4o4", "user": {"location": {"city": "McDonough", "state": "GA", "country": "United States"}}, "player": {"id": 3029288, "gamerTag": "Noodle", "prefix": "", "user": {"location": {"city": "McDonough", "state": "GA", "country": "United States"}}}}]}, "standing": {"placement": 1, "stats": {"score": {"value": 2}}}}, {"id": "93317582-1", "entrant": {"id": 21073424, "name": "aScells", "participants": [{"id": 19384555, "gamerTag": "aScells", "prefix": null, "user": {"location": {"city": "Atlanta", "state": "GA", "country": "United States"}}, "player": {"id": 3775729, "gamerTag": "aScells", "prefix": null, "user": {"location": {"city": "Atlanta", "state": "GA", "country": "United States"}}}}]}, "standing": {"placement": 2, "stats": {"score": {"value": 0}}}}], "games": null}, {"id": 93317583, "state": 3, "round": -6, "fullRoundText": "Losers Round 3", "completedAt": 1756604193, "winnerId": 21094160, "slots": [{"id": "93317583-0", "entrant": {"id": 20919743, "name": "JDG | NoBrainThinker", "participants": [{"id": 19247795, "gamerTag": "NoBrainThinker", "prefix": "JDG", "user": {"location": {"city": "Marietta", "state": "GA", "country": "United States"}}, "player": {"id": 4912998, "gamerTag": "NoBrainer", "prefix": "JDG", "user": {"location": {"city": "Marietta", "state": "GA", "country": "United States"}}}}]}, "standing": {"placement": 2, "stats": {"score": {"value": 0}}}}, {"id": "93317583-1", "entrant": {"id": 21094160, "name": "1STPAI", "participants": [{"id": 19403243, "gamerTag": "1STPAI", "prefix": "", "user": {"location": {"city": "Atlanta", "state": "GA", "country": "United States"}}, "player": {"id": 2355717, "gamerTag": "1STPAI", "prefix": "", "user": {"location": {"city": "Atlanta", "state": "GA", "country": "United States"}}}}]}, "standing": {"placement": 1, "stats": {"score": {"value": 2}}}}], "games": null}, {"id": 93317568, "state": 3, "round": -5, "fullRoundText": "Losers Round 2", "completedAt": 1756602919, "winnerId": 21115637, "slots": [{"id": "93317568-0", "entrant": {"id": 21104811, "name": "WFG | ChaosDunk", "participants": [{"id": 19412853, "gamerTag": "ChaosDunk", "prefix": "WFG", "user": {"location": {"city": "Woodstock", "state": "GA", "country": "United States"}}, "player": {"id": 24721, "gamerTag": "ChaosDunk", "prefix": "WFG", "user": {"location": {"city": "Woodstock", "state": "GA", "country": "United States"}}}}]}, "standing": {"placement": 2, "stats": {"score": {"value": 0}}}}, {"id": "93317568-1", "entrant": {"id": 21115637, "name": "EXC | Blinduv", "participants": [{"id": 19422556, "gamerTag": "Blinduv", "prefix": "EXC", "user": {"location": {"city": "Richmond", "state": "VA", "country": "United States"}}, "player": {"id": 1236931, "gamerTag": "Blinduv", "prefix": "EXC", "user": {"location": {"city": "Richmond", "state": "VA", "country": "United States"}}}}]}, "standing": {"placement": 1, "stats": {"score": {"value": 2}}}}], "games": null}, {"id": 93317569, "state": 3, "round": -5, "fullRoundText": "Losers Round 2", "completedAt": 1756602945, "winnerId": 21119146, "slots": [{"id": "93317569-0", "entrant": {"id": 20755230, "name": "ShadowWork", "participants": [{"id": 19100876, "gamerTag": "ShadowWork", "prefix": "", "user": {"location": {"city": "Decatur", "state": "GA", "country": "United States"}}, "player": {"id": 3584711, "gamerTag": "ShadowWork", "prefix": "", "user": {"location": {"city": "Decatur", "state": "GA", "country": "United States"}}}}]}, "standing": {"placement": 2, "stats": {"score": {"value": 0}}}}, {"id": "93317569-1", "entrant": {"id": 21119146, "name": "Manhattan205", "participants": [{"id": 19425717, "gamerTag": "Manhattan205", "prefix": null, "user": {"location": {"city": null, "state": null, "country": null}}, "player": {"id": 3873973, "gamerTag": "Manhattan205", "prefix": null, "user": {"location": {"city": null, "state": null, "country": null}}}}]}, "standing": {"placement": 1, "stats": {"score": {"value": 2}}}}], "games": null}, {"id": 93317570, "state": 3, "round": -5, "fullRoundText": "Losers Round 2", "completedAt": 1756603001, "winnerId": 21088530, "slots": [{"id": "93317570-0", "entrant": {"id": 21038666, "name": "Xangief", "participants": [{"id": 19353145, "gamerTag": "Xangief", "prefix": null, "user": {"location": {"city": "Atlanta", "state": "GA", "country": "United States"}}, "player": {"id": 135082, "gamerTag": "Xangief", "prefix": null, "user": {"location": {"city": "Atlanta", "state": "GA", "country": "United States"}}}}]}, "standing": {"placement": 2, "stats": {"score": {"value": 0}}}}, {"id": "93317570-1", "entrant": {"id": 21088530, "name": "Fl0wchart", "participants": [{"id": 19398080, "gamerTag": "Fl0wchart", "prefix": null, "user": {"location": {"city": "Burnsville", "state": null, "country": null}}, "player": {"id": 864596, "gamerTag": "Fl0wchart", "prefix": null, "user": {"location": {"city": "Burnsville", "state": null, "country": null}}}}]}, "standing": {"placement": 1, "stats": {"score": {"value": 2}}}}], "games": null}, {"id": 93317571, "state": 3, "round": -5, "fullRoundText": "Losers Round 2", "completedAt": 1756603044, "winnerId": 21114781, "slots": [{"id": "93317571-0", "entrant": {"id": 21114781, "name": "AKTN | P1kaso", "participants": [{"id": 19421855, "gamerTag": "P1kaso", "prefix": "AKTN", "user": {"location": {"city": null, "state": null, "country": null}}, "player": {"id": 561673, "gamerTag": "P1kaso", "prefix": "AKTN", "user": {"location": {"city": null, "state": null, "country": null}}}}]}, "standing": {"placement": 1, "stats": {"score": {"value": 2}}}}, {"id": "93317571-1", "entrant": {"id": 21100717, "name": "CHINGU | Bahamut", "participants": [{"id": 19409109, "gamerTag": "Bahamut", "prefix": "CHINGU", "user": {"location": {"city": "Atlanta", "state": "GA", "country": "United States"}}, "player": {"id": 3598331, "gamerTag": "Bahamut", "prefix": "", "user": {"location": {"city": "Atlanta", "state": "GA", "country": "United States"}}}}]}, "standing": {"placement": 2, "stats": {"score": {"value": 0}}}}], "games": null}, {"id": 93317572, "state": 3, "round": -5, "fullRoundText": "Losers Round 2", "completedAt": 1756604335, "winnerId": 21094597, "slots": [{"id": "93317572-0", "entrant": {"id": 21050481, "name": "Vincenzo", "participants": [{"id": 19363924, "gamerTag": "Vincenzo", "prefix": "", "user": {"location": {"city": "Raleigh", "state": "NC", "country": "United States"}}, "player": {"id": 4381443, "gamerTag": "SirBacon", "prefix": null, "user": {"location": {"city": "Raleigh", "state": "NC", "country": "United States"}}}}]}, "standing": {"placement": 2, "stats": {"score": {"value": 0}}}}, {"id": "93317572-1", "entrant": {"id": 21094597, "name": "CHINGU | Dires", "participants": [{"id": 19403668, "gamerTag": "Dires", "prefix": "CHINGU", "user": {"location": {"city": "Savannah", "state": "GA", "country": "United States"}}, "player": {"id": 1780650, "gamerTag": "Dires", "prefix": "CHINGU", "user": {"location": {"city": "Savannah", "state": "GA", "country": "United States"}}}}]}, "standing": {"placement": 1, "stats": {"score": {"value": 2}}}}], "games": null}, {"id": 93317573, "state": 3, "round": -5, "fullRoundText": "Losers Round 2", "completedAt": 1756602504, "winnerId": 21096752, "slots": [{"id": "93317573-0", "entrant": {"id": 20750467, "name": "ARK | Foxloaf", "participants": [{"id": 19095956, "gamerTag": "Foxloaf", "prefix": "ARK", "user": {"location": {"city": "Batesville", "state": "AR", "country": "United States"}}, "player": {"id": 2729162, "gamerTag": "Foxloaf", "prefix": null, "user": {"location": {"city": "Batesville", "state": "AR", "country": "United States"}}}}]}, "standing": {"placement": 2, "stats": {"score": {"value": -1}}}}, {"id": "93317573-1", "entrant": {"id": 21096752, "name": "The Scary Door", "participants": [{"id": 19405341, "gamerTag": "The Scary Door", "prefix": "", "user": {"location": {"city": "Atlanta", "state": "GA", "country": "United States"}}, "player": {"id": 4944131, "gamerTag": "The Scary Door", "prefix": "", "user": {"location": {"city": "Atlanta", "state": "GA", "country": "United States"}}}}]}, "standing": {"placement": 1, "stats": {"score": {"value": null}}}}], "games": null}, {"id": 93317574, "state": 3, "round": -5, "fullRoundText": "Losers Round 2", "completedAt": 1756603115, "winnerId": 21073424, "slots": [{"id": "93317574-0", "entrant": {"id": 21073424, "name": "aScells", "participants": [{"id": 19384555, "gamerTag": "aScells", "prefix": null, "user": {"location": {"city": "Atlanta", "state": "GA", "country": "United States"}}, "player": {"id": 3775729, "gamerTag": "aScells", "prefix": null, "user": {"location": {"city": "Atlanta", "state": "GA", "country": "United States"}}}}]}, "standing": {"placement": 1, "stats": {"score": {"value": 2}}}}, {"id": "93317574-1", "entrant": {"id": 21079580, "name": "Royal Gamers | Breaka", "participants": [{"id": 19390140, "gamerTag": "Breaka", "prefix": "Royal Gamers", "user": {"location": {"city": "Jacksonville", "state": "FL", "country": "United States"}}, "player": {"id": 4328686, "gamerTag": "Breaka", "prefix": "Royal Blunts", "user": {"location": {"city": "Jacksonville", "state": "FL", "country": "United States"}}}}]}, "standing": {"placement": 2, "stats": {"score": {"value": 0}}}}], "games": null}]}}}