{"phase": {"seeds": {"pageInfo": {"totalPages": 1, "total": 16}, "nodes": [{"id": 36443723, "seedNum": 1, "entrant": {"id": 21150410, "name": "jack | jazzman", "participants": [{"id": 19453751, "gamerTag": "jazzman", "prefix": "jack", "user": {"location": {"city": "Athens", "state": "GA", "country": "United States"}}, "player": {"id": 3883272, "gamerTag": "jazzman", "prefix": "jack", "user": {"location": {"city": "Athens", "state": "GA", "country": "United States"}}}}]}}, {"id": 36359910, "seedNum": 3, "entrant": {"id": 21093940, "name": "Vitamin C", "participants": [{"id": 19403040, "gamerTag": "Vitamin C", "prefix": null, "user": {"location": {"city": "Lawrenceville", "state": "GA", "country": "United States"}}, "player": {"id": 4943785, "gamerTag": "Vitamin C", "prefix": null, "user": {"location": {"city": "Lawrenceville", "state": "GA", "country": "United States"}}}}]}}, {"id": 36371853, "seedNum": 4, "entrant": {"id": 21100275, "name": "Iceee", "participants": [{"id": 19408723, "gamerTag": "Iceee", "prefix": "", "user": {"location": {"city": "Atlanta", "state": "GA", "country": "United States"}}, "player": {"id": 4944595, "gamerTag": "Iceee", "prefix": "", "user": {"location": {"city": "Atlanta", "state": "GA", "country": "United States"}}}}]}}, {"id": 36444546, "seedNum": 12, "entrant": {"id": 21151148, "name": "Zer0ed", "participants": [{"id": 19454405, "gamerTag": "Zer0ed", "prefix": "", "user": {"location": {"city": null, "state": null, "country": "United States"}}, "player": {"id": 4955092, "gamerTag": "Zer0ed", "prefix": "", "user": {"location": {"city": null, "state": null, "country": "United States"}}}}]}}, {"id": 36379923, "seedNum": 2, "entrant": {"id": 21106315, "name": "MossyCharger", "participants": [{"id": 19414105, "gamerTag": "MossyCharger", "prefix": null, "user": {"location": {"city": "Atlanta", "state": "GA", "country": "United States"}}, "player": {"id": 4945351, "gamerTag": "MossyCharger", "prefix": null, "user": {"location": {"city": "Atlanta", "state": "GA", "country": "United States"}}}}]}}, {"id": 36444453, "seedNum": 6, "entrant": {"id": 21151056, "name": "v;f | Sanctity", "participants": [{"id": 19454320, "gamerTag": "Sanctity", "prefix": "v;f", "user": {"location": {"city": "Atlanta", "state": "GA", "country": "United States"}}, "player": {"id": 4955081, "gamerTag": "Sanctity", "prefix": "v;f", "user": {"location": {"city": "Atlanta", "state": "GA", "country": "United States"}}}}]}}, {"id": 36372134, "seedNum": 8, "entrant": {"id": 21100536, "name": "SD | Delta", "participants": [{"id": 19408929, "gamerTag": "Delta", "prefix": "SD", "user": {"location": {"city": "Atlanta", "state": "GA", "country": "United States"}}, "player": {"id": 4944609, "gamerTag": "Delta", "prefix": "SD", "user": {"location": {"city": "Atlanta", "state": "GA", "country": "United States"}}}}]}}, {"id": 36444571, "seedNum": 10, "entrant": {"id": 21151167, "name": "HateRain", "participants": [{"id": 19454424, "gamerTag": "HateRain", "prefix": null, "user": {"location": {"city": "Fitzgerald", "state": "GA", "country": "United States"}}, "player": {"id": 4145184, "gamerTag": "HateRain", "prefix": null, "user": {"location": {"city": "Fitzgerald", "state": "GA", "country": "United States"}}}}]}}, {"id": 36444448, "seedNum": 5, "entrant": {"id": 21151049, "name": "Idk | Ant-on-the-block", "participants": [{"id": 19454315, "gamerTag": "Ant-on-the-block", "prefix": "Idk", "user": {"location": {"city": null, "state": null, "country": "United States"}}, "player": {"id": 4955080, "gamerTag": "Ant-on-the-block", "prefix": "Idk", "user": {"location": {"city": null, "state": null, "country": "United States"}}}}]}}, {"id": 36444612, "seedNum": 9, "entrant": {"id": 21151202, "name": "JumpyGiddyCowbird", "participants": [{"id": 19454452, "gamerTag": "JumpyGiddyCowbird", "prefix": "", "user": {"location": {"city": null, "state": null, "country": "United States"}}, "player": {"id": 4955100, "gamerTag": "JumpyGiddyCowbird", "prefix": "", "user": {"location": {"city": null, "state": null, "country": "United States"}}}}]}}, {"id": 36444565, "seedNum": 11, "entrant": {"id": 21151161, "name": "Illude_z", "participants": [{"id": 19454417, "gamerTag": "Illude_z", "prefix": null, "user": {"location": {"city": "Fitzgerald", "state": "GA", "country": "United States"}}, "player": {"id": 4144962, "gamerTag": "Illude_z", "prefix": null, "user": {"location": {"city": "Fitzgerald", "state": "GA", "country": "United States"}}}}]}}, {"id": 36379740, "seedNum": 15, "entrant": {"id": 21106142, "name": "FF | Milex", "participants": [{"id": 19413972, "gamerTag": "Milex", "prefix": "FF", "user": {"location": {"city": null, "state": "FL", "country": "United States"}}, "player": {"id": 4945217, "gamerTag": "Milex", "prefix": "FF", "user": {"location": {"city": null, "state": "FL", "country": "United States"}}}}]}}, {"id": 36379359, "seedNum": 7, "entrant": {"id": 21105875, "name": "thegreatsma", "participants": [{"id": 19413744, "gamerTag": "thegreatsma", "prefix": null, "user": {"location": {"city": "Atlanta", "state": "GA", "country": "United States"}}, "player": {"id": 4945276, "gamerTag": "thegreatsma", "prefix": null, "user": {"location": {"city": "Atlanta", "state": "GA", "country": "United States"}}}}]}}, {"id": 36444148, "seedNum": 13, "entrant": {"id": 21150788, "name": "CashGG6", "participants": [{"id": 19454091, "gamerTag": "CashGG6", "prefix": "", "user": {"location": {"city": null, "state": null, "country": "United States"}}, "player": {"id": 4955055, "gamerTag": "CashGG6", "prefix": "", "user": {"location": {"city": null, "state": null, "country": "United States"}}}}]}}, {"id": 36394685, "seedNum": 14, "entrant": {"id": 21117061, "name": "Astrum", "participants": [{"id": 19423765, "gamerTag": "Astrum", "prefix": null, "user": {"location": {"city": null, "state": "GA", "country": "United States"}}, "player": {"id": 4943691, "gamerTag": "Astrum", "prefix": null, "user": {"location": {"city": null, "state": "GA", "country": "United States"}}}}]}}, {"id": 36373599, "seedNum": 16, "entrant": {"id": 21101470, "name": "H212 | Hsquared12", "participants": [{"id": 19409812, "gamerTag": "Hsquared12", "prefix": "H212", "user": {"location": {"city": "Lawrenceville", "state": "GA", "country": "United States"}}, "player": {"id": 4944697, "gamerTag": "Hsquared12", "prefix": "H212", "user": {"location": {"city": "Lawrenceville", "state": "GA", "country": "United States"}}}}]}}]}}}