{"event": {"sets": {"pageInfo": {"totalPages": 1, "total": 13}, "nodes": [{"id": 94254003, "state": 3, "round": 5, "fullRoundText": "5th Place Tiebreak", "completedAt": 1758680240, "winnerId": 21360863, "slots": [{"id": "94254003-0", "entrant": {"id": 21361357, "name": "Hq", "participants": [{"id": 19636974, "gamerTag": "Hq", "prefix": "", "user": {"location": {"city": "Suwanee", "state": "GA", "country": "United States"}}, "player": {"id": 4680916, "gamerTag": "Hq", "prefix": "", "user": {"location": {"city": "Suwanee", "state": "GA", "country": "United States"}}}}]}, "standing": {"placement": 2, "stats": {"score": {"value": 1}}}}, {"id": "94254003-1", "entrant": {"id": 21360863, "name": "Typical!", "participants": [{"id": 19636536, "gamerTag": "Typical!", "prefix": "", "user": {"location": {"city": "Cumming", "state": "GA", "country": "United States"}}, "player": {"id": 1227171, "gamerTag": "Typical!", "prefix": "", "user": {"location": {"city": "Cumming", "state": "GA", "country": "United States"}}}}]}, "standing": {"placement": 1, "stats": {"score": {"value": 3}}}}], "games": null}, {"id": 94253987, "state": 3, "round": 4, "fullRoundText": "Grand Final", "completedAt": 1758681678, "winnerId": 21360987, "slots": [{"id": "94253987-0", "entrant": {"id": 21360987, "name": "KumaDusk", "participants": [{"id": 19636649, "gamerTag": "KumaDusk", "prefix": "", "user": {"location": {"city": "Lawrenceville", "state": "GA", "country": "United States"}}, "player": {"id": 253909, "gamerTag": "KumaDusk", "prefix": "", "user": {"location": {"city": "Lawrenceville", "state": "GA", "country": "United States"}}}}]}, "standing": {"placement": 1, "stats": {"score": {"value": 3}}}}, {"id": "94253987-1", "entrant": {"id": 21360923, "name": "Jeni", "participants": [{"id": 19636587, "gamerTag": "Jeni", "prefix": "", "user": {"location": {"city": null, "state": null, "country": null}}, "player": {"id": 1499467, "gamerTag": "Jeni", "prefix": "", "user": {"location": {"city": null, "state": null, "country": null}}}}]}, "standing": {"placement": 2, "stats": {"score": {"value": 1}}}}], "games": null}, {"id": 94253986, "state": 3, "round": 3, "fullRoundText": "Winners Final", "completedAt": 1758679187, "winnerId": 21360987, "slots": [{"id": "94253986-0", "entrant": {"id": 21360987, "name": "KumaDusk", "participants": [{"id": 19636649, "gamerTag": "KumaDusk", "prefix": "", "user": {"location": {"city": "Lawrenceville", "state": "GA", "country": "United States"}}, "player": {"id": 253909, "gamerTag": "KumaDusk", "prefix": "", "user": {"location": {"city": "Lawrenceville", "state": "GA", "country": "United States"}}}}]}, "standing": {"placement": 1, "stats": {"score": {"value": 3}}}}, {"id": "94253986-1", "entrant": {"id": 21360923, "name": "Jeni", "participants": [{"id": 19636587, "gamerTag": "Jeni", "prefix": "", "user": {"location": {"city": null, "state": null, "country": null}}, "player": {"id": 1499467, "gamerTag": "Jeni", "prefix": "", "user": {"location": {"city": null, "state": null, "country": null}}}}]}, "standing": {"placement": 2, "stats": {"score": {"value": 1}}}}], "games": null}, {"id": 94254002, "state": 3, "round": -6, "fullRoundText": "Losers Final", "completedAt": 1758680729, "winnerId": 21360923, "slots": [{"id": "94254002-0", "entrant": {"id": 21360923, "name": "Jeni", "participants": [{"id": 19636587, "gamerTag": "Jeni", "prefix": "", "user": {"location": {"city": null, "state": null, "country": null}}, "player": {"id": 1499467, "gamerTag": "Jeni", "prefix": "", "user": {"location": {"city": null, "state": null, "country": null}}}}]}, "standing": {"placement": 1, "stats": {"score": {"value": 3}}}}, {"id": "94254002-1", "entrant": {"id": 21356931, "name": "Kid Kaioken", "participants": [{"id": 19633025, "gamerTag": "Kid Kaioken", "prefix": "", "user": {"location": {"city": "Norcross", "state": "GA", "country": "United States"}}, "player": {"id": 2730912, "gamerTag": "Kid Kaioken", "prefix": "", "user": {"location": {"city": "Norcross", "state": "GA", "country": "United States"}}}}]}, "standing": {"placement": 2, "stats": {"score": {"value": 0}}}}], "games": null}, {"id": 94254001, "state": 3, "round": -5, "fullRoundText": "Losers Semi-Final", "completedAt": 1758679679, "winnerId": 21356931, "slots": [{"id": "94254001-0", "entrant": {"id": 21361092, "name": "BC | Ozair", "participants": [{"id": 19636742, "gamerTag": "Ozair", "prefix": "BC", "user": {"location": {"city": "Atlanta", "state": "GA", "country": "United States"}}, "player": {"id": 540851, "gamerTag": "Ozair", "prefix": "BC", "user": {"location": {"city": "Atlanta", "state": "GA", "country": "United States"}}}}]}, "standing": {"placement": 2, "stats": {"score": {"value": 1}}}}, {"id": "94254001-1", "entrant": {"id": 21356931, "name": "Kid Kaioken", "participants": [{"id": 19633025, "gamerTag": "Kid Kaioken", "prefix": "", "user": {"location": {"city": "Norcross", "state": "GA", "country": "United States"}}, "player": {"id": 2730912, "gamerTag": "Kid Kaioken", "prefix": "", "user": {"location": {"city": "Norcross", "state": "GA", "country": "United States"}}}}]}, "standing": {"placement": 1, "stats": {"score": {"value": 3}}}}], "games": null}, {"id": 94253984, "state": 3, "round": 2, "fullRoundText": "Winners Semi-Final", "completedAt": 1758676373, "winnerId": 21360987, "slots": [{"id": "94253984-0", "entrant": {"id": 21360987, "name": "KumaDusk", "participants": [{"id": 19636649, "gamerTag": "KumaDusk", "prefix": "", "user": {"location": {"city": "Lawrenceville", "state": "GA", "country": "United States"}}, "player": {"id": 253909, "gamerTag": "KumaDusk", "prefix": "", "user": {"location": {"city": "Lawrenceville", "state": "GA", "country": "United States"}}}}]}, "standing": {"placement": 1, "stats": {"score": {"value": 3}}}}, {"id": "94253984-1", "entrant": {"id": 21356931, "name": "Kid Kaioken", "participants": [{"id": 19633025, "gamerTag": "Kid Kaioken", "prefix": "", "user": {"location": {"city": "Norcross", "state": "GA", "country": "United States"}}, "player": {"id": 2730912, "gamerTag": "Kid Kaioken", "prefix": "", "user": {"location": {"city": "Norcross", "state": "GA", "country": "United States"}}}}]}, "standing": {"placement": 2, "stats": {"score": {"value": 1}}}}], "games": null}, {"id": 94253985, "state": 3, "round": 2, "fullRoundText": "Winners Semi-Final", "completedAt": 1758677021, "winnerId": 21360923, "slots": [{"id": "94253985-0", "entrant": {"id": 21360923, "name": "Jeni", "participants": [{"id": 19636587, "gamerTag": "Jeni", "prefix": "", "user": {"location": {"city": null, "state": null, "country": null}}, "player": {"id": 1499467, "gamerTag": "Jeni", "prefix": "", "user": {"location": {"city": null, "state": null, "country": null}}}}]}, "standing": {"placement": 1, "stats": {"score": {"value": 3}}}}, {"id": "94253985-1", "entrant": {"id": 21360863, "name": "Typical!", "participants": [{"id": 19636536, "gamerTag": "Typical!", "prefix": "", "user": {"location": {"city": "Cumming", "state": "GA", "country": "United States"}}, "player": {"id": 1227171, "gamerTag": "Typical!", "prefix": "", "user": {"location": {"city": "Cumming", "state": "GA", "country": "United States"}}}}]}, "standing": {"placement": 2, "stats": {"score": {"value": 0}}}}], "games": null}, {"id": 94253999, "state": 3, "round": -4, "fullRoundText": "Losers Quarter-Final", "completedAt": 1758678360, "winnerId": 21361092, "slots": [{"id": "94253999-0", "entrant": {"id": 21360863, "name": "Typical!", "participants": [{"id": 19636536, "gamerTag": "Typical!", "prefix": "", "user": {"location": {"city": "Cumming", "state": "GA", "country": "United States"}}, "player": {"id": 1227171, "gamerTag": "Typical!", "prefix": "", "user": {"location": {"city": "Cumming", "state": "GA", "country": "United States"}}}}]}, "standing": {"placement": 2, "stats": {"score": {"value": 2}}}}, {"id": "94253999-1", "entrant": {"id": 21361092, "name": "BC | Ozair", "participants": [{"id": 19636742, "gamerTag": "Ozair", "prefix": "BC", "user": {"location": {"city": "Atlanta", "state": "GA", "country": "United States"}}, "player": {"id": 540851, "gamerTag": "Ozair", "prefix": "BC", "user": {"location": {"city": "Atlanta", "state": "GA", "country": "United States"}}}}]}, "standing": {"placement": 1, "stats": {"score": {"value": 3}}}}], "games": null}, {"id": 94254000, "state": 3, "round": -4, "fullRoundText": "Losers Quarter-Final", "completedAt": 1758677859, "winnerId": 21356931, "slots": [{"id": "94254000-0", "entrant": {"id": 21356931, "name": "Kid Kaioken", "participants": [{"id": 19633025, "gamerTag": "Kid Kaioken", "prefix": "", "user": {"location": {"city": "Norcross", "state": "GA", "country": "United States"}}, "player": {"id": 2730912, "gamerTag": "Kid Kaioken", "prefix": "", "user": {"location": {"city": "Norcross", "state": "GA", "country": "United States"}}}}]}, "standing": {"placement": 1, "stats": {"score": {"value": 3}}}}, {"id": "94254000-1", "entrant": {"id": 21361357, "name": "Hq", "participants": [{"id": 19636974, "gamerTag": "Hq", "prefix": "", "user": {"location": {"city": "Suwanee", "state": "GA", "country": "United States"}}, "player": {"id": 4680916, "gamerTag": "Hq", "prefix": "", "user": {"location": {"city": "Suwanee", "state": "GA", "country": "United States"}}}}]}, "standing": {"placement": 2, "stats": {"score": {"value": 0}}}}], "games": null}, {"id": 94253998, "state": 3, "round": -3, "fullRoundText": "Losers Round 1", "completedAt": 1758677136, "winnerId": 21361357, "slots": [{"id": "94253998-0", "entrant": {"id": 21361131, "name": "Moopisegg", "participants": [{"id": 19636779, "gamerTag": "Moopisegg", "prefix": "", "user": {"location": {"city": null, "state": null, "country": "United States"}}, "player": {"id": 4680890, "gamerTag": "Moopisegg", "prefix": "", "user": {"location": {"city": null, "state": null, "country": "United States"}}}}]}, "standing": {"placement": 2, "stats": {"score": {"value": 2}}}}, {"id": "94253998-1", "entrant": {"id": 21361357, "name": "Hq", "participants": [{"id": 19636974, "gamerTag": "Hq", "prefix": "", "user": {"location": {"city": "Suwanee", "state": "GA", "country": "United States"}}, "player": {"id": 4680916, "gamerTag": "Hq", "prefix": "", "user": {"location": {"city": "Suwanee", "state": "GA", "country": "United States"}}}}]}, "standing": {"placement": 1, "stats": {"score": {"value": 3}}}}], "games": null}, {"id": 94253981, "state": 3, "round": 1, "fullRoundText": "Winners Quarter-Final", "completedAt": 1758675675, "winnerId": 21356931, "slots": [{"id": "94253981-0", "entrant": {"id": 21356931, "name": "Kid Kaioken", "participants": [{"id": 19633025, "gamerTag": "Kid Kaioken", "prefix": "", "user": {"location": {"city": "Norcross", "state": "GA", "country": "United States"}}, "player": {"id": 2730912, "gamerTag": "Kid Kaioken", "prefix": "", "user": {"location": {"city": "Norcross", "state": "GA", "country": "United States"}}}}]}, "standing": {"placement": 1, "stats": {"score": {"value": 3}}}}, {"id": "94253981-1", "entrant": {"id": 21361092, "name": "BC | Ozair", "participants": [{"id": 19636742, "gamerTag": "Ozair", "prefix": "BC", "user": {"location": {"city": "Atlanta", "state": "GA", "country": "United States"}}, "player": {"id": 540851, "gamerTag": "Ozair", "prefix": "BC", "user": {"location": {"city": "Atlanta", "state": "GA", "country": "United States"}}}}]}, "standing": {"placement": 2, "stats": {"score": {"value": 2}}}}], "games": null}, {"id": 94253982, "state": 3, "round": 1, "fullRoundText": "Winners Quarter-Final", "completedAt": 1758675120, "winnerId": 21360923, "slots": [{"id": "94253982-0", "entrant": {"id": 21360923, "name": "Jeni", "participants": [{"id": 19636587, "gamerTag": "Jeni", "prefix": "", "user": {"location": {"city": null, "state": null, "country": null}}, "player": {"id": 1499467, "gamerTag": "Jeni", "prefix": "", "user": {"location": {"city": null, "state": null, "country": null}}}}]}, "standing": {"placement": 1, "stats": {"score": {"value": 3}}}}, {"id": "94253982-1", "entrant": {"id": 21361131, "name": "Moopisegg", "participants": [{"id": 19636779, "gamerTag": "Moopisegg", "prefix": "", "user": {"location": {"city": null, "state": null, "country": "United States"}}, "player": {"id": 4680890, "gamerTag": "Moopisegg", "prefix": "", "user": {"location": {"city": null, "state": null, "country": "United States"}}}}]}, "standing": {"placement": 2, "stats": {"score": {"value": 0}}}}], "games": null}, {"id": 94253983, "state": 3, "round": 1, "fullRoundText": "Winners Quarter-Final", "completedAt": 1758675960, "winnerId": 21360863, "slots": [{"id": "94253983-0", "entrant": {"id": 21360863, "name": "Typical!", "participants": [{"id": 19636536, "gamerTag": "Typical!", "prefix": "", "user": {"location": {"city": "Cumming", "state": "GA", "country": "United States"}}, "player": {"id": 1227171, "gamerTag": "Typical!", "prefix": "", "user": {"location": {"city": "Cumming", "state": "GA", "country": "United States"}}}}]}, "standing": {"placement": 1, "stats": {"score": {"value": 3}}}}, {"id": "94253983-1", "entrant": {"id": 21361357, "name": "Hq", "participants": [{"id": 19636974, "gamerTag": "Hq", "prefix": "", "user": {"location": {"city": "Suwanee", "state": "GA", "country": "United States"}}, "player": {"id": 4680916, "gamerTag": "Hq", "prefix": "", "user": {"location": {"city": "Suwanee", "state": "GA", "country": "United States"}}}}]}, "standing": {"placement": 2, "stats": {"score": {"value": 1}}}}], "games": null}]}}}