{"phase": {"seeds": {"pageInfo": {"totalPages": 1, "total": 5}, "nodes": [{"id": 35784026, "seedNum": 4, "entrant": {"id": 20738830, "name": "Phanpy Bogard", "participants": [{"id": 19084982, "gamerTag": "Phanpy Bogard", "prefix": "", "user": {"location": {"city": "SUWANEE", "state": "GA", "country": "United States"}}, "player": {"id": 1141386, "gamerTag": "Phanpy Bogard", "prefix": "", "user": {"location": {"city": "SUWANEE", "state": "GA", "country": "United States"}}}}]}}, {"id": 35781187, "seedNum": 2, "entrant": {"id": 20736720, "name": "Zohma", "participants": [{"id": 19083334, "gamerTag": "Zohma", "prefix": "", "user": {"location": {"city": null, "state": null, "country": null}}, "player": {"id": 1388221, "gamerTag": "Zohma", "prefix": "", "user": {"location": {"city": null, "state": null, "country": null}}}}]}}, {"id": 35786496, "seedNum": 5, "entrant": {"id": 20740676, "name": "Xerker", "participants": [{"id": 19086668, "gamerTag": "Xerker", "prefix": null, "user": {"location": {"city": "Johns Creek", "state": "GA", "country": "United States"}}, "player": {"id": 852371, "gamerTag": "Xerker", "prefix": null, "user": {"location": {"city": "Johns Creek", "state": "GA", "country": "United States"}}}}]}}, {"id": 35783662, "seedNum": 3, "entrant": {"id": 20738538, "name": "PF420", "participants": [{"id": 19084759, "gamerTag": "PF420", "prefix": null, "user": {"location": {"city": "Cumming", "state": "GA", "country": "United States"}}, "player": {"id": 61615, "gamerTag": "PF420", "prefix": "DATA", "user": {"location": {"city": "Cumming", "state": "GA", "country": "United States"}}}}]}}, {"id": 35711647, "seedNum": 1, "entrant": {"id": 20687389, "name": "Toph The Goat", "participants": [{"id": 19040468, "gamerTag": "Toph The Goat", "prefix": null, "user": {"location": {"city": "Anderson", "state": "SC", "country": "United States"}}, "player": {"id": 3462084, "gamerTag": "Toph The Goat", "prefix": null, "user": {"location": {"city": "Anderson", "state": "SC", "country": "United States"}}}}]}}]}}}