{"phase": {"seeds": {"pageInfo": {"totalPages": 1, "total": 20}, "nodes": [{"id": 35843670, "seedNum": 1, "entrant": {"id": 20771596, "name": "Ave~", "participants": [{"id": 19116344, "gamerTag": "Ave~", "prefix": "", "user": {"location": {"city": null, "state": null, "country": null}}, "player": {"id": 38830, "gamerTag": "Ave~", "prefix": "", "user": {"location": {"city": null, "state": null, "country": null}}}}]}}, {"id": 35838838, "seedNum": 2, "entrant": {"id": 20768571, "name": "Nia", "participants": [{"id": 19113740, "gamerTag": "Nia", "prefix": null, "user": {"location": {"city": "Buford", "state": "GA", "country": "United States"}}, "player": {"id": 428070, "gamerTag": "Nia", "prefix": null, "user": {"location": {"city": "Buford", "state": "GA", "country": "United States"}}}}]}}, {"id": 35842676, "seedNum": 4, "entrant": {"id": 20770747, "name": "UGA | Krishna", "participants": [{"id": 19115583, "gamerTag": "Krishna", "prefix": "UGA", "user": {"location": {"city": null, "state": null, "country": "United States"}}, "player": {"id": 2282949, "gamerTag": "Krishna", "prefix": "417", "user": {"location": {"city": null, "state": null, "country": "United States"}}}}]}}, {"id": 35843989, "seedNum": 3, "entrant": {"id": 20771901, "name": "Impluvio", "participants": [{"id": 19116622, "gamerTag": "Impluvio", "prefix": "", "user": {"location": {"city": null, "state": null, "country": null}}, "player": {"id": 2175953, "gamerTag": "Impluvio", "prefix": "417", "user": {"location": {"city": null, "state": null, "country": null}}}}]}}, {"id": 35843557, "seedNum": 6, "entrant": {"id": 20771533, "name": "Typical!", "participants": [{"id": 19116285, "gamerTag": "Typical!", "prefix": "", "user": {"location": {"city": "Cumming", "state": "GA", "country": "United States"}}, "player": {"id": 1227171, "gamerTag": "Typical!", "prefix": "", "user": {"location": {"city": "Cumming", "state": "GA", "country": "United States"}}}}]}}, {"id": 35832032, "seedNum": 9, "entrant": {"id": 20766543, "name": "Penguin", "participants": [{"id": 19111823, "gamerTag": "Penguin", "prefix": "", "user": {"location": {"city": "Atlanta", "state": "GA", "country": "United States"}}, "player": {"id": 4287822, "gamerTag": "Heart", "prefix": "", "user": {"location": {"city": "Atlanta", "state": "GA", "country": "United States"}}}}]}}, {"id": 35843884, "seedNum": 7, "entrant": {"id": 20771789, "name": "PitchingAce33", "participants": [{"id": 19116519, "gamerTag": "PitchingAce33", "prefix": "", "user": {"location": {"city": null, "state": "GA", "country": "United States"}}, "player": {"id": 1198327, "gamerTag": "PitchingAce33", "prefix": "", "user": {"location": {"city": null, "state": "GA", "country": "United States"}}}}]}}, {"id": 35842394, "seedNum": 13, "entrant": {"id": 20770486, "name": "Vertebrae", "participants": [{"id": 19115352, "gamerTag": "Vertebrae", "prefix": "", "user": {"location": {"city": "Athens", "state": "GA", "country": "United States"}}, "player": {"id": 1583946, "gamerTag": "Vertebrae", "prefix": "CC", "user": {"location": {"city": "Athens", "state": "GA", "country": "United States"}}}}]}}, {"id": 35844322, "seedNum": 5, "entrant": {"id": 20772205, "name": "Jeni", "participants": [{"id": 19116879, "gamerTag": "Jeni", "prefix": "", "user": {"location": {"city": null, "state": null, "country": null}}, "player": {"id": 1499467, "gamerTag": "Jeni", "prefix": "", "user": {"location": {"city": null, "state": null, "country": null}}}}]}}, {"id": 35843653, "seedNum": 8, "entrant": {"id": 20771582, "name": "Bik spoon", "participants": [{"id": 19116330, "gamerTag": "Bik spoon", "prefix": "", "user": {"location": {"city": "Auburn", "state": "AL", "country": "United States"}}, "player": {"id": 1191430, "gamerTag": "Bik spoon", "prefix": "", "user": {"location": {"city": "Auburn", "state": "AL", "country": "United States"}}}}]}}, {"id": 35840860, "seedNum": 10, "entrant": {"id": 20769463, "name": "Boo", "participants": [{"id": 19114409, "gamerTag": "Boo", "prefix": "", "user": {"location": {"city": "Cumming", "state": "GA", "country": "United States"}}, "player": {"id": 2647915, "gamerTag": "Boo", "prefix": "", "user": {"location": {"city": "Cumming", "state": "GA", "country": "United States"}}}}]}}, {"id": 35844397, "seedNum": 11, "entrant": {"id": 20772250, "name": "Mellow", "participants": [{"id": 19116922, "gamerTag": "Mellow", "prefix": "", "user": {"location": {"city": null, "state": null, "country": null}}, "player": {"id": 951859, "gamerTag": "Mellow", "prefix": "", "user": {"location": {"city": null, "state": null, "country": null}}}}]}}, {"id": 35842977, "seedNum": 12, "entrant": {"id": 20771035, "name": "RM | WFF | Sakruoi", "participants": [{"id": 19115832, "gamerTag": "Sakruoi", "prefix": "RM | WFF", "user": {"location": {"city": "atlanta", "state": "GA", "country": "United States"}}, "player": {"id": 1230555, "gamerTag": "Sakruoi", "prefix": "RM | WFF", "user": {"location": {"city": "atlanta", "state": "GA", "country": "United States"}}}}]}}, {"id": 35831977, "seedNum": 14, "entrant": {"id": 20766485, "name": "Billy Jones", "participants": [{"id": 19111764, "gamerTag": "Billy Jones", "prefix": "", "user": {"location": {"city": "Atlanta", "state": "GA", "country": "United States"}}, "player": {"id": 1004383, "gamerTag": "Billy Jones", "prefix": "", "user": {"location": {"city": "Atlanta", "state": "GA", "country": "United States"}}}}]}}, {"id": 35831974, "seedNum": 15, "entrant": {"id": 20766482, "name": "Mighty Morfin", "participants": [{"id": 19111761, "gamerTag": "Mighty Morfin", "prefix": "", "user": {"location": {"city": "Gainesville", "state": "GA", "country": "United States"}}, "player": {"id": 1630530, "gamerTag": "Mighty Morfin", "prefix": "", "user": {"location": {"city": "Gainesville", "state": "GA", "country": "United States"}}}}]}}, {"id": 35832455, "seedNum": 16, "entrant": {"id": 20766896, "name": "ThatUser183", "participants": [{"id": 19112167, "gamerTag": "ThatUser183", "prefix": null, "user": {"location": {"city": "Suwanee", "state": "GA", "country": "United States"}}, "player": {"id": 2807415, "gamerTag": "ThatUser183", "prefix": null, "user": {"location": {"city": "Suwanee", "state": "GA", "country": "United States"}}}}]}}, {"id": 35843032, "seedNum": 17, "entrant": {"id": 20771068, "name": "Envexity", "participants": [{"id": 19115866, "gamerTag": "Envexity", "prefix": null, "user": {"location": {"city": "", "state": "GA", "country": "United States"}}, "player": {"id": 4003882, "gamerTag": "Envexity", "prefix": null, "user": {"location": {"city": "", "state": "GA", "country": "United States"}}}}]}}, {"id": 35823611, "seedNum": 18, "entrant": {"id": 20764173, "name": "Mc'Plow", "participants": [{"id": 19109447, "gamerTag": "Mc'Plow", "prefix": null, "user": {"location": {"city": "Athens", "state": "GA", "country": "United States"}}, "player": {"id": 4060815, "gamerTag": "Mc'Plow", "prefix": null, "user": {"location": {"city": "Athens", "state": "GA", "country": "United States"}}}}]}}, {"id": 35834779, "seedNum": 19, "entrant": {"id": 20767097, "name": "Hq", "participants": [{"id": 19112348, "gamerTag": "Hq", "prefix": "", "user": {"location": {"city": "Suwanee", "state": "GA", "country": "United States"}}, "player": {"id": 4680916, "gamerTag": "Hq", "prefix": "", "user": {"location": {"city": "Suwanee", "state": "GA", "country": "United States"}}}}]}}, {"id": 35839461, "seedNum": 20, "entrant": {"id": 20769018, "name": "PL | Shusui", "participants": [{"id": 19114140, "gamerTag": "Shusui", "prefix": "PL", "user": {"location": {"city": "Suwanee", "state": "GA", "country": "United States"}}, "player": {"id": 3465710, "gamerTag": "Shusui", "prefix": "", "user": {"location": {"city": "Suwanee", "state": "GA", "country": "United States"}}}}]}}]}}}