{"event": {"sets": {"pageInfo": {"totalPages": 3, "total": 33}, "nodes": [{"id": 92037799, "state": 3, "round": -6, "fullRoundText": "Losers Round 3", "completedAt": 1753839158, "winnerId": 20836532, "slots": [{"id": "92037799-0", "entrant": {"id": 20836532, "name": "Typical!", "participants": [{"id": 19174279, "gamerTag": "Typical!", "prefix": "", "user": {"location": {"city": "Cumming", "state": "GA", "country": "United States"}}, "player": {"id": 1227171, "gamerTag": "Typical!", "prefix": "", "user": {"location": {"city": "Cumming", "state": "GA", "country": "United States"}}}}]}, "standing": {"placement": 1, "stats": {"score": {"value": 2}}}}, {"id": "92037799-1", "entrant": {"id": 20832824, "name": "PL | Shusui", "participants": [{"id": 19171139, "gamerTag": "Shusui", "prefix": "PL", "user": {"location": {"city": "Suwanee", "state": "GA", "country": "United States"}}, "player": {"id": 3465710, "gamerTag": "Shusui", "prefix": "", "user": {"location": {"city": "Suwanee", "state": "GA", "country": "United States"}}}}]}, "standing": {"placement": 2, "stats": {"score": {"value": 0}}}}], "games": null}, {"id": 92037796, "state": 3, "round": -6, "fullRoundText": "Losers Round 3", "completedAt": 1753839362, "winnerId": 20832121, "slots": [{"id": "92037796-0", "entrant": {"id": 20832121, "name": "PitchingAce33", "participants": [{"id": 19170513, "gamerTag": "PitchingAce33", "prefix": "", "user": {"location": {"city": null, "state": "GA", "country": "United States"}}, "player": {"id": 1198327, "gamerTag": "PitchingAce33", "prefix": "", "user": {"location": {"city": null, "state": "GA", "country": "United States"}}}}]}, "standing": {"placement": 1, "stats": {"score": {"value": 2}}}}, {"id": "92037796-1", "entrant": {"id": 20832093, "name": "Cromat", "participants": [{"id": 19170491, "gamerTag": "Cromat", "prefix": "", "user": {"location": {"city": "Savannah", "state": "GA", "country": "United States"}}, "player": {"id": 3055798, "gamerTag": "Cromat", "prefix": "", "user": {"location": {"city": "Savannah", "state": "GA", "country": "United States"}}}}]}, "standing": {"placement": 2, "stats": {"score": {"value": 1}}}}], "games": null}, {"id": 92037797, "state": 3, "round": -6, "fullRoundText": "Losers Round 3", "completedAt": 1753839075, "winnerId": 20824596, "slots": [{"id": "92037797-0", "entrant": {"id": 20824596, "name": "Free Puli | Maverick", "participants": [{"id": 19163533, "gamerTag": "Maverick", "prefix": "Free Puli", "user": {"location": {"city": "Columbus", "state": "GA", "country": "United States"}}, "player": {"id": 1058777, "gamerTag": "Maverick", "prefix": "", "user": {"location": {"city": "Columbus", "state": "GA", "country": "United States"}}}}]}, "standing": {"placement": 1, "stats": {"score": {"value": 2}}}}, {"id": "92037797-1", "entrant": {"id": 20835846, "name": "CHEESE", "participants": [{"id": 19173697, "gamerTag": "CHEESE", "prefix": null, "user": {"location": {"city": "Buford", "state": "GA", "country": "United States"}}, "player": {"id": 3429754, "gamerTag": "CHEESE", "prefix": null, "user": {"location": {"city": "Buford", "state": "GA", "country": "United States"}}}}]}, "standing": {"placement": 2, "stats": {"score": {"value": 1}}}}], "games": [{"id": 31612024, "orderNum": 1, "winnerId": 20835846, "entrant1Score": 0, "entrant2Score": 0, "stage": null, "selections": [{"id": 46535763, "selectionType": "CHARACTER", "selectionValue": 1279, "entrant": {"id": 20824596}, "character": {"id": 1279, "name": "Diddy Kong"}}, {"id": 46535764, "selectionType": "CHARACTER", "selectionValue": 1279, "entrant": {"id": 20835846}, "character": {"id": 1279, "name": "Diddy Kong"}}]}, {"id": 31612025, "orderNum": 2, "winnerId": 20824596, "entrant1Score": null, "entrant2Score": 0, "stage": null, "selections": [{"id": 46535765, "selectionType": "CHARACTER", "selectionValue": 1279, "entrant": {"id": 20824596}, "character": {"id": 1279, "name": "Diddy Kong"}}, {"id": 46535766, "selectionType": "CHARACTER", "selectionValue": 1279, "entrant": {"id": 20835846}, "character": {"id": 1279, "name": "Diddy Kong"}}]}, {"id": 31612026, "orderNum": 3, "winnerId": 20824596, "entrant1Score": null, "entrant2Score": 0, "stage": null, "selections": [{"id": 46535767, "selectionType": "CHARACTER", "selectionValue": 1279, "entrant": {"id": 20824596}, "character": {"id": 1279, "name": "Diddy Kong"}}, {"id": 46535768, "selectionType": "CHARACTER", "selectionValue": 1279, "entrant": {"id": 20835846}, "character": {"id": 1279, "name": "Diddy Kong"}}]}]}, {"id": 92037798, "state": 3, "round": -6, "fullRoundText": "Losers Round 3", "completedAt": 1753839324, "winnerId": 20835782, "slots": [{"id": "92037798-0", "entrant": {"id": 20835782, "name": "Jeni", "participants": [{"id": 19173642, "gamerTag": "Jeni", "prefix": "", "user": {"location": {"city": null, "state": null, "country": null}}, "player": {"id": 1499467, "gamerTag": "Jeni", "prefix": "", "user": {"location": {"city": null, "state": null, "country": null}}}}]}, "standing": {"placement": 1, "stats": {"score": {"value": 2}}}}, {"id": "92037798-1", "entrant": {"id": 20832113, "name": "Billy Jones", "participants": [{"id": 19170506, "gamerTag": "Billy Jones", "prefix": "", "user": {"location": {"city": "Atlanta", "state": "GA", "country": "United States"}}, "player": {"id": 1004383, "gamerTag": "Billy Jones", "prefix": "", "user": {"location": {"city": "Atlanta", "state": "GA", "country": "United States"}}}}]}, "standing": {"placement": 2, "stats": {"score": {"value": 1}}}}], "games": null}, {"id": 92037792, "state": 3, "round": -5, "fullRoundText": "Losers Round 2", "completedAt": 1753838557, "winnerId": 20832093, "slots": [{"id": "92037792-0", "entrant": {"id": 20832093, "name": "Cromat", "participants": [{"id": 19170491, "gamerTag": "Cromat", "prefix": "", "user": {"location": {"city": "Savannah", "state": "GA", "country": "United States"}}, "player": {"id": 3055798, "gamerTag": "Cromat", "prefix": "", "user": {"location": {"city": "Savannah", "state": "GA", "country": "United States"}}}}]}, "standing": {"placement": 1, "stats": {"score": {"value": 2}}}}, {"id": "92037792-1", "entrant": {"id": 20832362, "name": "ThatUser183", "participants": [{"id": 19170737, "gamerTag": "ThatUser183", "prefix": null, "user": {"location": {"city": "Suwanee", "state": "GA", "country": "United States"}}, "player": {"id": 2807415, "gamerTag": "ThatUser183", "prefix": null, "user": {"location": {"city": "Suwanee", "state": "GA", "country": "United States"}}}}]}, "standing": {"placement": 2, "stats": {"score": {"value": 0}}}}], "games": [{"id": 31611611, "orderNum": 1, "winnerId": 20832093, "entrant1Score": null, "entrant2Score": 0, "stage": null, "selections": [{"id": 46535251, "selectionType": "CHARACTER", "selectionValue": 1405, "entrant": {"id": 20832093}, "character": {"id": 1405, "name": "Mr. Game & Watch"}}, {"id": 46535252, "selectionType": "CHARACTER", "selectionValue": 1795, "entrant": {"id": 20832362}, "character": {"id": 1795, "name": "Pyra & Mythra"}}]}, {"id": 31611612, "orderNum": 2, "winnerId": 20832093, "entrant1Score": null, "entrant2Score": 0, "stage": null, "selections": [{"id": 46535253, "selectionType": "CHARACTER", "selectionValue": 1405, "entrant": {"id": 20832093}, "character": {"id": 1405, "name": "Mr. Game & Watch"}}, {"id": 46535254, "selectionType": "CHARACTER", "selectionValue": 1795, "entrant": {"id": 20832362}, "character": {"id": 1795, "name": "Pyra & Mythra"}}]}]}, {"id": 92037793, "state": 3, "round": -5, "fullRoundText": "Losers Round 2", "completedAt": 1753837662, "winnerId": 20835846, "slots": [{"id": "92037793-0", "entrant": {"id": 20835846, "name": "CHEESE", "participants": [{"id": 19173697, "gamerTag": "CHEESE", "prefix": null, "user": {"location": {"city": "Buford", "state": "GA", "country": "United States"}}, "player": {"id": 3429754, "gamerTag": "CHEESE", "prefix": null, "user": {"location": {"city": "Buford", "state": "GA", "country": "United States"}}}}]}, "standing": {"placement": 1, "stats": {"score": {"value": 2}}}}, {"id": "92037793-1", "entrant": {"id": 20828629, "name": "jack | jazzman", "participants": [{"id": 19167164, "gamerTag": "jazzman", "prefix": "jack", "user": {"location": {"city": "Athens", "state": "GA", "country": "United States"}}, "player": {"id": 3883272, "gamerTag": "jazzman", "prefix": "jack", "user": {"location": {"city": "Athens", "state": "GA", "country": "United States"}}}}]}, "standing": {"placement": 2, "stats": {"score": {"value": 0}}}}], "games": null}, {"id": 92037794, "state": 3, "round": -5, "fullRoundText": "Losers Round 2", "completedAt": 1753837611, "winnerId": 20832113, "slots": [{"id": "92037794-0", "entrant": {"id": 20833630, "name": "Vertebrae", "participants": [{"id": 19171839, "gamerTag": "Vertebrae", "prefix": "", "user": {"location": {"city": "Athens", "state": "GA", "country": "United States"}}, "player": {"id": 1583946, "gamerTag": "Vertebrae", "prefix": "CC", "user": {"location": {"city": "Athens", "state": "GA", "country": "United States"}}}}]}, "standing": {"placement": 2, "stats": {"score": {"value": 1}}}}, {"id": "92037794-1", "entrant": {"id": 20832113, "name": "Billy Jones", "participants": [{"id": 19170506, "gamerTag": "Billy Jones", "prefix": "", "user": {"location": {"city": "Atlanta", "state": "GA", "country": "United States"}}, "player": {"id": 1004383, "gamerTag": "Billy Jones", "prefix": "", "user": {"location": {"city": "Atlanta", "state": "GA", "country": "United States"}}}}]}, "standing": {"placement": 1, "stats": {"score": {"value": 2}}}}], "games": null}, {"id": 92037795, "state": 3, "round": -5, "fullRoundText": "Losers Round 2", "completedAt": 1753838752, "winnerId": 20832824, "slots": [{"id": "92037795-0", "entrant": {"id": 20836646, "name": "Bik spoon", "participants": [{"id": 19174372, "gamerTag": "Bik spoon", "prefix": "", "user": {"location": {"city": "Auburn", "state": "AL", "country": "United States"}}, "player": {"id": 1191430, "gamerTag": "Bik spoon", "prefix": "", "user": {"location": {"city": "Auburn", "state": "AL", "country": "United States"}}}}]}, "standing": {"placement": 2, "stats": {"score": {"value": 1}}}}, {"id": "92037795-1", "entrant": {"id": 20832824, "name": "PL | Shusui", "participants": [{"id": 19171139, "gamerTag": "Shusui", "prefix": "PL", "user": {"location": {"city": "Suwanee", "state": "GA", "country": "United States"}}, "player": {"id": 3465710, "gamerTag": "Shusui", "prefix": "", "user": {"location": {"city": "Suwanee", "state": "GA", "country": "United States"}}}}]}, "standing": {"placement": 1, "stats": {"score": {"value": 2}}}}], "games": [{"id": 31611759, "orderNum": 1, "winnerId": 20836646, "entrant1Score": 0, "entrant2Score": 0, "stage": null, "selections": [{"id": 46535437, "selectionType": "CHARACTER", "selectionValue": 1746, "entrant": {"id": 20832824}, "character": {"id": 1746, "name": "Random Character"}}, {"id": 46535438, "selectionType": "CHARACTER", "selectionValue": 1746, "entrant": {"id": 20836646}, "character": {"id": 1746, "name": "Random Character"}}]}, {"id": 31611760, "orderNum": 2, "winnerId": 20832824, "entrant1Score": 0, "entrant2Score": 0, "stage": null, "selections": [{"id": 46535439, "selectionType": "CHARACTER", "selectionValue": 1746, "entrant": {"id": 20832824}, "character": {"id": 1746, "name": "Random Character"}}, {"id": 46535440, "selectionType": "CHARACTER", "selectionValue": 1746, "entrant": {"id": 20836646}, "character": {"id": 1746, "name": "Random Character"}}]}, {"id": 31611761, "orderNum": 3, "winnerId": 20832824, "entrant1Score": 0, "entrant2Score": null, "stage": null, "selections": [{"id": 46535441, "selectionType": "CHARACTER", "selectionValue": 1746, "entrant": {"id": 20832824}, "character": {"id": 1746, "name": "Random Character"}}, {"id": 46535442, "selectionType": "CHARACTER", "selectionValue": 1746, "entrant": {"id": 20836646}, "character": {"id": 1746, "name": "Random Character"}}]}]}, {"id": 92037727, "state": 3, "round": 2, "fullRoundText": "Winners Round 2", "completedAt": 1753837296, "winnerId": 20824596, "slots": [{"id": "92037727-0", "entrant": {"id": 20824596, "name": "Free Puli | Maverick", "participants": [{"id": 19163533, "gamerTag": "Maverick", "prefix": "Free Puli", "user": {"location": {"city": "Columbus", "state": "GA", "country": "United States"}}, "player": {"id": 1058777, "gamerTag": "Maverick", "prefix": "", "user": {"location": {"city": "Columbus", "state": "GA", "country": "United States"}}}}]}, "standing": {"placement": 1, "stats": {"score": {"value": 2}}}}, {"id": "92037727-1", "entrant": {"id": 20832824, "name": "PL | Shusui", "participants": [{"id": 19171139, "gamerTag": "Shusui", "prefix": "PL", "user": {"location": {"city": "Suwanee", "state": "GA", "country": "United States"}}, "player": {"id": 3465710, "gamerTag": "Shusui", "prefix": "", "user": {"location": {"city": "Suwanee", "state": "GA", "country": "United States"}}}}]}, "standing": {"placement": 2, "stats": {"score": {"value": 0}}}}], "games": null}, {"id": 92037728, "state": 3, "round": 2, "fullRoundText": "Winners Round 2", "completedAt": 1753836862, "winnerId": 20835419, "slots": [{"id": "92037728-0", "entrant": {"id": 20836646, "name": "Bik spoon", "participants": [{"id": 19174372, "gamerTag": "Bik spoon", "prefix": "", "user": {"location": {"city": "Auburn", "state": "AL", "country": "United States"}}, "player": {"id": 1191430, "gamerTag": "Bik spoon", "prefix": "", "user": {"location": {"city": "Auburn", "state": "AL", "country": "United States"}}}}]}, "standing": {"placement": 2, "stats": {"score": {"value": 1}}}}, {"id": "92037728-1", "entrant": {"id": 20835419, "name": "Whaley", "participants": [{"id": 19173339, "gamerTag": "Whaley", "prefix": null, "user": {"location": {"city": "Stone Mountain", "state": "GA", "country": "United States"}}, "player": {"id": 2016149, "gamerTag": "Whaley", "prefix": "KSU|UTO|BLZE", "user": {"location": {"city": "Stone Mountain", "state": "GA", "country": "United States"}}}}]}, "standing": {"placement": 1, "stats": {"score": {"value": 2}}}}], "games": [{"id": 31610211, "orderNum": 1, "winnerId": 20835419, "entrant1Score": 0, "entrant2Score": null, "stage": null, "selections": [{"id": 46533563, "selectionType": "CHARACTER", "selectionValue": 1777, "entrant": {"id": 20835419}, "character": {"id": 1777, "name": "Sephiroth"}}, {"id": 46533564, "selectionType": "CHARACTER", "selectionValue": 1331, "entrant": {"id": 20836646}, "character": {"id": 1331, "name": "Snake"}}]}, {"id": 31610212, "orderNum": 2, "winnerId": 20836646, "entrant1Score": null, "entrant2Score": 0, "stage": null, "selections": [{"id": 46533565, "selectionType": "CHARACTER", "selectionValue": 1294, "entrant": {"id": 20835419}, "character": {"id": 1294, "name": "King Dedede"}}, {"id": 46533566, "selectionType": "CHARACTER", "selectionValue": 1331, "entrant": {"id": 20836646}, "character": {"id": 1331, "name": "Snake"}}]}, {"id": 31610213, "orderNum": 3, "winnerId": 20835419, "entrant1Score": 0, "entrant2Score": null, "stage": null, "selections": [{"id": 46533567, "selectionType": "CHARACTER", "selectionValue": 1777, "entrant": {"id": 20835419}, "character": {"id": 1777, "name": "Sephiroth"}}, {"id": 46533568, "selectionType": "CHARACTER", "selectionValue": 1331, "entrant": {"id": 20836646}, "character": {"id": 1331, "name": "Snake"}}]}]}, {"id": 92037729, "state": 3, "round": 2, "fullRoundText": "Winners Round 2", "completedAt": 1753836952, "winnerId": 20832121, "slots": [{"id": "92037729-0", "entrant": {"id": 20832121, "name": "PitchingAce33", "participants": [{"id": 19170513, "gamerTag": "PitchingAce33", "prefix": "", "user": {"location": {"city": null, "state": "GA", "country": "United States"}}, "player": {"id": 1198327, "gamerTag": "PitchingAce33", "prefix": "", "user": {"location": {"city": null, "state": "GA", "country": "United States"}}}}]}, "standing": {"placement": 1, "stats": {"score": {"value": 2}}}}, {"id": "92037729-1", "entrant": {"id": 20832113, "name": "Billy Jones", "participants": [{"id": 19170506, "gamerTag": "Billy Jones", "prefix": "", "user": {"location": {"city": "Atlanta", "state": "GA", "country": "United States"}}, "player": {"id": 1004383, "gamerTag": "Billy Jones", "prefix": "", "user": {"location": {"city": "Atlanta", "state": "GA", "country": "United States"}}}}]}, "standing": {"placement": 2, "stats": {"score": {"value": 1}}}}], "games": [{"id": 31610302, "orderNum": 1, "winnerId": 20832121, "entrant1Score": null, "entrant2Score": 0, "stage": null, "selections": [{"id": 46533709, "selectionType": "CHARACTER", "selectionValue": 1274, "entrant": {"id": 20832113}, "character": {"id": 1274, "name": "Captain Falcon"}}, {"id": 46533710, "selectionType": "CHARACTER", "selectionValue": 1319, "entrant": {"id": 20832121}, "character": {"id": 1319, "name": "Pikachu"}}]}, {"id": 31610303, "orderNum": 2, "winnerId": 20832113, "entrant1Score": 0, "entrant2Score": null, "stage": null, "selections": [{"id": 46533711, "selectionType": "CHARACTER", "selectionValue": 1274, "entrant": {"id": 20832113}, "character": {"id": 1274, "name": "Captain Falcon"}}, {"id": 46533712, "selectionType": "CHARACTER", "selectionValue": 1319, "entrant": {"id": 20832121}, "character": {"id": 1319, "name": "Pikachu"}}]}, {"id": 31610305, "orderNum": 3, "winnerId": 20832121, "entrant1Score": null, "entrant2Score": 0, "stage": null, "selections": [{"id": 46533713, "selectionType": "CHARACTER", "selectionValue": 1274, "entrant": {"id": 20832113}, "character": {"id": 1274, "name": "Captain Falcon"}}, {"id": 46533714, "selectionType": "CHARACTER", "selectionValue": 1319, "entrant": {"id": 20832121}, "character": {"id": 1319, "name": "Pikachu"}}]}]}, {"id": 92037730, "state": 3, "round": 2, "fullRoundText": "Winners Round 2", "completedAt": 1753836588, "winnerId": 20832503, "slots": [{"id": "92037730-0", "entrant": {"id": 20832503, "name": "Sacred", "participants": [{"id": 19170860, "gamerTag": "Sacred", "prefix": "", "user": {"location": {"city": null, "state": null, "country": "United States"}}, "player": {"id": 1007555, "gamerTag": "Sacred", "prefix": "", "user": {"location": {"city": null, "state": null, "country": "United States"}}}}]}, "standing": {"placement": 1, "stats": {"score": {"value": 2}}}}, {"id": "92037730-1", "entrant": {"id": 20833630, "name": "Vertebrae", "participants": [{"id": 19171839, "gamerTag": "Vertebrae", "prefix": "", "user": {"location": {"city": "Athens", "state": "GA", "country": "United States"}}, "player": {"id": 1583946, "gamerTag": "Vertebrae", "prefix": "CC", "user": {"location": {"city": "Athens", "state": "GA", "country": "United States"}}}}]}, "standing": {"placement": 2, "stats": {"score": {"value": 0}}}}], "games": [{"id": 31609978, "orderNum": 1, "winnerId": 20832503, "entrant1Score": 0, "entrant2Score": 0, "stage": {"id": 484, "name": "Small Battlefield"}, "selections": [{"id": 46533257, "selectionType": "CHARACTER", "selectionValue": 1296, "entrant": {"id": 20832503}, "character": {"id": 1296, "name": "Link"}}, {"id": 46533258, "selectionType": "CHARACTER", "selectionValue": 1322, "entrant": {"id": 20833630}, "character": {"id": 1322, "name": "Ridley"}}]}, {"id": 31609979, "orderNum": 2, "winnerId": 20832503, "entrant1Score": null, "entrant2Score": 0, "stage": {"id": 484, "name": "Small Battlefield"}, "selections": [{"id": 46533259, "selectionType": "CHARACTER", "selectionValue": 1296, "entrant": {"id": 20832503}, "character": {"id": 1296, "name": "Link"}}, {"id": 46533260, "selectionType": "CHARACTER", "selectionValue": 1300, "entrant": {"id": 20833630}, "character": {"id": 1300, "name": "Lucina"}}]}]}, {"id": 92037731, "state": 3, "round": 2, "fullRoundText": "Winners Round 2", "completedAt": 1753836784, "winnerId": 20836532, "slots": [{"id": "92037731-0", "entrant": {"id": 20836532, "name": "Typical!", "participants": [{"id": 19174279, "gamerTag": "Typical!", "prefix": "", "user": {"location": {"city": "Cumming", "state": "GA", "country": "United States"}}, "player": {"id": 1227171, "gamerTag": "Typical!", "prefix": "", "user": {"location": {"city": "Cumming", "state": "GA", "country": "United States"}}}}]}, "standing": {"placement": 1, "stats": {"score": {"value": 2}}}}, {"id": "92037731-1", "entrant": {"id": 20828629, "name": "jack | jazzman", "participants": [{"id": 19167164, "gamerTag": "jazzman", "prefix": "jack", "user": {"location": {"city": "Athens", "state": "GA", "country": "United States"}}, "player": {"id": 3883272, "gamerTag": "jazzman", "prefix": "jack", "user": {"location": {"city": "Athens", "state": "GA", "country": "United States"}}}}]}, "standing": {"placement": 2, "stats": {"score": {"value": 1}}}}], "games": [{"id": 31610144, "orderNum": 1, "winnerId": 20836532, "entrant1Score": null, "entrant2Score": 0, "stage": null, "selections": [{"id": 46533469, "selectionType": "CHARACTER", "selectionValue": 1305, "entrant": {"id": 20828629}, "character": {"id": 1305, "name": "Mega Man"}}, {"id": 46533470, "selectionType": "CHARACTER", "selectionValue": 1335, "entrant": {"id": 20836532}, "character": {"id": 1335, "name": "Wario"}}]}, {"id": 31610145, "orderNum": 2, "winnerId": 20828629, "entrant1Score": 0, "entrant2Score": null, "stage": null, "selections": [{"id": 46533471, "selectionType": "CHARACTER", "selectionValue": 1305, "entrant": {"id": 20828629}, "character": {"id": 1305, "name": "Mega Man"}}, {"id": 46533472, "selectionType": "CHARACTER", "selectionValue": 1335, "entrant": {"id": 20836532}, "character": {"id": 1335, "name": "Wario"}}]}, {"id": 31610146, "orderNum": 3, "winnerId": 20836532, "entrant1Score": null, "entrant2Score": 0, "stage": null, "selections": [{"id": 46533473, "selectionType": "CHARACTER", "selectionValue": 1305, "entrant": {"id": 20828629}, "character": {"id": 1305, "name": "Mega Man"}}, {"id": 46533474, "selectionType": "CHARACTER", "selectionValue": 1335, "entrant": {"id": 20836532}, "character": {"id": 1335, "name": "Wario"}}]}]}, {"id": 92037732, "state": 3, "round": 2, "fullRoundText": "Winners Round 2", "completedAt": 1753836882, "winnerId": 20835115, "slots": [{"id": "92037732-0", "entrant": {"id": 20835846, "name": "CHEESE", "participants": [{"id": 19173697, "gamerTag": "CHEESE", "prefix": null, "user": {"location": {"city": "Buford", "state": "GA", "country": "United States"}}, "player": {"id": 3429754, "gamerTag": "CHEESE", "prefix": null, "user": {"location": {"city": "Buford", "state": "GA", "country": "United States"}}}}]}, "standing": {"placement": 2, "stats": {"score": {"value": 1}}}}, {"id": "92037732-1", "entrant": {"id": 20835115, "name": "Boo", "participants": [{"id": 19173070, "gamerTag": "Boo", "prefix": "", "user": {"location": {"city": "Cumming", "state": "GA", "country": "United States"}}, "player": {"id": 2647915, "gamerTag": "Boo", "prefix": "", "user": {"location": {"city": "Cumming", "state": "GA", "country": "United States"}}}}]}, "standing": {"placement": 1, "stats": {"score": {"value": 2}}}}], "games": [{"id": 31610240, "orderNum": 1, "winnerId": 20835115, "entrant1Score": 0, "entrant2Score": null, "stage": null, "selections": [{"id": 46533615, "selectionType": "CHARACTER", "selectionValue": 1405, "entrant": {"id": 20835115}, "character": {"id": 1405, "name": "Mr. Game & Watch"}}, {"id": 46533616, "selectionType": "CHARACTER", "selectionValue": 1279, "entrant": {"id": 20835846}, "character": {"id": 1279, "name": "Diddy Kong"}}]}, {"id": 31610241, "orderNum": 2, "winnerId": 20835846, "entrant1Score": null, "entrant2Score": 0, "stage": null, "selections": [{"id": 46533617, "selectionType": "CHARACTER", "selectionValue": 1405, "entrant": {"id": 20835115}, "character": {"id": 1405, "name": "Mr. Game & Watch"}}, {"id": 46533618, "selectionType": "CHARACTER", "selectionValue": 1279, "entrant": {"id": 20835846}, "character": {"id": 1279, "name": "Diddy Kong"}}]}, {"id": 31610242, "orderNum": 3, "winnerId": 20835115, "entrant1Score": 0, "entrant2Score": null, "stage": null, "selections": [{"id": 46533619, "selectionType": "CHARACTER", "selectionValue": 1405, "entrant": {"id": 20835115}, "character": {"id": 1405, "name": "Mr. Game & Watch"}}, {"id": 46533620, "selectionType": "CHARACTER", "selectionValue": 1279, "entrant": {"id": 20835846}, "character": {"id": 1279, "name": "Diddy Kong"}}]}]}, {"id": 92037733, "state": 3, "round": 2, "fullRoundText": "Winners Round 2", "completedAt": 1753837108, "winnerId": 20835782, "slots": [{"id": "92037733-0", "entrant": {"id": 20835782, "name": "Jeni", "participants": [{"id": 19173642, "gamerTag": "Jeni", "prefix": "", "user": {"location": {"city": null, "state": null, "country": null}}, "player": {"id": 1499467, "gamerTag": "Jeni", "prefix": "", "user": {"location": {"city": null, "state": null, "country": null}}}}]}, "standing": {"placement": 1, "stats": {"score": {"value": 2}}}}, {"id": "92037733-1", "entrant": {"id": 20832362, "name": "ThatUser183", "participants": [{"id": 19170737, "gamerTag": "ThatUser183", "prefix": null, "user": {"location": {"city": "Suwanee", "state": "GA", "country": "United States"}}, "player": {"id": 2807415, "gamerTag": "ThatUser183", "prefix": null, "user": {"location": {"city": "Suwanee", "state": "GA", "country": "United States"}}}}]}, "standing": {"placement": 2, "stats": {"score": {"value": 1}}}}], "games": null}]}}}