{"event": {"sets": {"pageInfo": {"totalPages": 3, "total": 42}, "nodes": [{"id": 91439452, "state": 3, "round": -6, "fullRoundText": "Losers Round 3", "completedAt": 1752630411, "winnerId": 20696483, "slots": [{"id": "91439452-0", "entrant": {"id": 20699852, "name": "Bik spoon", "participants": [{"id": 19051378, "gamerTag": "Bik spoon", "prefix": "", "user": {"location": {"city": "Auburn", "state": "AL", "country": "United States"}}, "player": {"id": 1191430, "gamerTag": "Bik spoon", "prefix": "", "user": {"location": {"city": "Auburn", "state": "AL", "country": "United States"}}}}]}, "standing": {"placement": 2, "stats": {"score": {"value": 0}}}}, {"id": "91439452-1", "entrant": {"id": 20696483, "name": "Penguin", "participants": [{"id": 19048572, "gamerTag": "Penguin", "prefix": "", "user": {"location": {"city": "Atlanta", "state": "GA", "country": "United States"}}, "player": {"id": 4287822, "gamerTag": "Heart", "prefix": "", "user": {"location": {"city": "Atlanta", "state": "GA", "country": "United States"}}}}]}, "standing": {"placement": 1, "stats": {"score": {"value": 2}}}}], "games": null}, {"id": 91439453, "state": 3, "round": -6, "fullRoundText": "Losers Round 3", "completedAt": 1752629795, "winnerId": 20651968, "slots": [{"id": "91439453-0", "entrant": {"id": 20651968, "name": "AO5 | ImPhenyl", "participants": [{"id": 19010110, "gamerTag": "ImPhenyl", "prefix": "AO5", "user": {"location": {"city": "Lawrenceville", "state": "GA", "country": "United States"}}, "player": {"id": 3256876, "gamerTag": "ImPhenyl", "prefix": "AO5", "user": {"location": {"city": "Lawrenceville", "state": "GA", "country": "United States"}}}}]}, "standing": {"placement": 1, "stats": {"score": {"value": 2}}}}, {"id": "91439453-1", "entrant": {"id": 20686972, "name": "Mighty Morfin", "participants": [{"id": 19040085, "gamerTag": "Mighty Morfin", "prefix": "", "user": {"location": {"city": "Gainesville", "state": "GA", "country": "United States"}}, "player": {"id": 1630530, "gamerTag": "Mighty Morfin", "prefix": "", "user": {"location": {"city": "Gainesville", "state": "GA", "country": "United States"}}}}]}, "standing": {"placement": 2, "stats": {"score": {"value": 0}}}}], "games": null}, {"id": 91439454, "state": 3, "round": -6, "fullRoundText": "Losers Round 3", "completedAt": 1752630423, "winnerId": 20695707, "slots": [{"id": "91439454-0", "entrant": {"id": 20695707, "name": "Jeni", "participants": [{"id": 19047905, "gamerTag": "Jeni", "prefix": "", "user": {"location": {"city": null, "state": null, "country": null}}, "player": {"id": 1499467, "gamerTag": "Jeni", "prefix": "", "user": {"location": {"city": null, "state": null, "country": null}}}}]}, "standing": {"placement": 1, "stats": {"score": {"value": 2}}}}, {"id": "91439454-1", "entrant": {"id": 20688729, "name": "jack | jazzman", "participants": [{"id": 19041760, "gamerTag": "jazzman", "prefix": "jack", "user": {"location": {"city": "Athens", "state": "GA", "country": "United States"}}, "player": {"id": 3883272, "gamerTag": "jazzman", "prefix": "jack", "user": {"location": {"city": "Athens", "state": "GA", "country": "United States"}}}}]}, "standing": {"placement": 2, "stats": {"score": {"value": 1}}}}], "games": null}, {"id": 91439447, "state": 3, "round": -5, "fullRoundText": "Losers Round 2", "completedAt": 1752629195, "winnerId": 20696548, "slots": [{"id": "91439447-0", "entrant": {"id": 20696548, "name": "Grey", "participants": [{"id": 19048632, "gamerTag": "Grey", "prefix": null, "user": {"location": {"city": null, "state": "GA", "country": "United States"}}, "player": {"id": 1901973, "gamerTag": "Grey", "prefix": null, "user": {"location": {"city": null, "state": "GA", "country": "United States"}}}}]}, "standing": {"placement": 1, "stats": {"score": {"value": 2}}}}, {"id": "91439447-1", "entrant": {"id": 20693109, "name": "Master J.J.", "participants": [{"id": 19045767, "gamerTag": "Master J.J.", "prefix": "", "user": {"location": {"city": "New Britain", "state": "CT", "country": "United States"}}, "player": {"id": 41440, "gamerTag": "Master J.J.", "prefix": "", "user": {"location": {"city": "New Britain", "state": "CT", "country": "United States"}}}}]}, "standing": {"placement": 2, "stats": {"score": {"value": 0}}}}], "games": null}, {"id": 91439448, "state": 3, "round": -5, "fullRoundText": "Losers Round 2", "completedAt": 1752629626, "winnerId": 20696483, "slots": [{"id": "91439448-0", "entrant": {"id": 20696483, "name": "Penguin", "participants": [{"id": 19048572, "gamerTag": "Penguin", "prefix": "", "user": {"location": {"city": "Atlanta", "state": "GA", "country": "United States"}}, "player": {"id": 4287822, "gamerTag": "Heart", "prefix": "", "user": {"location": {"city": "Atlanta", "state": "GA", "country": "United States"}}}}]}, "standing": {"placement": 1, "stats": {"score": {"value": 2}}}}, {"id": "91439448-1", "entrant": {"id": 20699515, "name": "ThatUser183", "participants": [{"id": 19051106, "gamerTag": "ThatUser183", "prefix": null, "user": {"location": {"city": "Suwanee", "state": "GA", "country": "United States"}}, "player": {"id": 2807415, "gamerTag": "ThatUser183", "prefix": null, "user": {"location": {"city": "Suwanee", "state": "GA", "country": "United States"}}}}]}, "standing": {"placement": 2, "stats": {"score": {"value": 0}}}}], "games": null}, {"id": 91439449, "state": 3, "round": -5, "fullRoundText": "Losers Round 2", "completedAt": 1752629258, "winnerId": 20686972, "slots": [{"id": "91439449-0", "entrant": {"id": 20694315, "name": "promamamia", "participants": [{"id": 19046679, "gamerTag": "promamamia", "prefix": "", "user": {"location": {"city": "Alpharetta", "state": "GA", "country": "United States"}}, "player": {"id": 3548468, "gamerTag": "promamamia", "prefix": "", "user": {"location": {"city": "Alpharetta", "state": "GA", "country": "United States"}}}}]}, "standing": {"placement": 2, "stats": {"score": {"value": 1}}}}, {"id": "91439449-1", "entrant": {"id": 20686972, "name": "Mighty Morfin", "participants": [{"id": 19040085, "gamerTag": "Mighty Morfin", "prefix": "", "user": {"location": {"city": "Gainesville", "state": "GA", "country": "United States"}}, "player": {"id": 1630530, "gamerTag": "Mighty Morfin", "prefix": "", "user": {"location": {"city": "Gainesville", "state": "GA", "country": "United States"}}}}]}, "standing": {"placement": 1, "stats": {"score": {"value": 2}}}}], "games": null}, {"id": 91439450, "state": 3, "round": -5, "fullRoundText": "Losers Round 2", "completedAt": 1752629502, "winnerId": 20688729, "slots": [{"id": "91439450-0", "entrant": {"id": 20689305, "name": "CheddrTV", "participants": [{"id": 19042308, "gamerTag": "CheddrTV", "prefix": "", "user": {"location": {"city": null, "state": "GA", "country": "United States"}}, "player": {"id": 4629852, "gamerTag": "CheddrTV", "prefix": "", "user": {"location": {"city": null, "state": "GA", "country": "United States"}}}}]}, "standing": {"placement": 2, "stats": {"score": {"value": 0}}}}, {"id": "91439450-1", "entrant": {"id": 20688729, "name": "jack | jazzman", "participants": [{"id": 19041760, "gamerTag": "jazzman", "prefix": "jack", "user": {"location": {"city": "Athens", "state": "GA", "country": "United States"}}, "player": {"id": 3883272, "gamerTag": "jazzman", "prefix": "jack", "user": {"location": {"city": "Athens", "state": "GA", "country": "United States"}}}}]}, "standing": {"placement": 1, "stats": {"score": {"value": 2}}}}], "games": null}, {"id": 91439382, "state": 3, "round": 2, "fullRoundText": "Winners Round 2", "completedAt": 1752627532, "winnerId": 20700634, "slots": [{"id": "91439382-0", "entrant": {"id": 20700634, "name": "Nia", "participants": [{"id": 19052057, "gamerTag": "Nia", "prefix": null, "user": {"location": {"city": "Buford", "state": "GA", "country": "United States"}}, "player": {"id": 428070, "gamerTag": "Nia", "prefix": null, "user": {"location": {"city": "Buford", "state": "GA", "country": "United States"}}}}]}, "standing": {"placement": 1, "stats": {"score": {"value": 2}}}}, {"id": "91439382-1", "entrant": {"id": 20688729, "name": "jack | jazzman", "participants": [{"id": 19041760, "gamerTag": "jazzman", "prefix": "jack", "user": {"location": {"city": "Athens", "state": "GA", "country": "United States"}}, "player": {"id": 3883272, "gamerTag": "jazzman", "prefix": "jack", "user": {"location": {"city": "Athens", "state": "GA", "country": "United States"}}}}]}, "standing": {"placement": 2, "stats": {"score": {"value": 0}}}}], "games": null}, {"id": 91439383, "state": 3, "round": 2, "fullRoundText": "Winners Round 2", "completedAt": 1752627142, "winnerId": 20699852, "slots": [{"id": "91439383-0", "entrant": {"id": 20699852, "name": "Bik spoon", "participants": [{"id": 19051378, "gamerTag": "Bik spoon", "prefix": "", "user": {"location": {"city": "Auburn", "state": "AL", "country": "United States"}}, "player": {"id": 1191430, "gamerTag": "Bik spoon", "prefix": "", "user": {"location": {"city": "Auburn", "state": "AL", "country": "United States"}}}}]}, "standing": {"placement": 1, "stats": {"score": {"value": 2}}}}, {"id": "91439383-1", "entrant": {"id": 20686968, "name": "Billy Jones", "participants": [{"id": 19040081, "gamerTag": "Billy Jones", "prefix": "", "user": {"location": {"city": "Atlanta", "state": "GA", "country": "United States"}}, "player": {"id": 1004383, "gamerTag": "Billy Jones", "prefix": "", "user": {"location": {"city": "Atlanta", "state": "GA", "country": "United States"}}}}]}, "standing": {"placement": 2, "stats": {"score": {"value": 0}}}}], "games": null}, {"id": 91439384, "state": 3, "round": 2, "fullRoundText": "Winners Round 2", "completedAt": 1752628191, "winnerId": 20701721, "slots": [{"id": "91439384-0", "entrant": {"id": 20701721, "name": "PitchingAce33", "participants": [{"id": 19053087, "gamerTag": "PitchingAce33", "prefix": "", "user": {"location": {"city": null, "state": "GA", "country": "United States"}}, "player": {"id": 1198327, "gamerTag": "PitchingAce33", "prefix": "", "user": {"location": {"city": null, "state": "GA", "country": "United States"}}}}]}, "standing": {"placement": 1, "stats": {"score": {"value": 2}}}}, {"id": "91439384-1", "entrant": {"id": 20686972, "name": "Mighty Morfin", "participants": [{"id": 19040085, "gamerTag": "Mighty Morfin", "prefix": "", "user": {"location": {"city": "Gainesville", "state": "GA", "country": "United States"}}, "player": {"id": 1630530, "gamerTag": "Mighty Morfin", "prefix": "", "user": {"location": {"city": "Gainesville", "state": "GA", "country": "United States"}}}}]}, "standing": {"placement": 2, "stats": {"score": {"value": 0}}}}], "games": null}, {"id": 91439385, "state": 3, "round": 2, "fullRoundText": "Winners Round 2", "completedAt": 1752626922, "winnerId": 20701035, "slots": [{"id": "91439385-0", "entrant": {"id": 20701035, "name": "Rain~", "participants": [{"id": 19052432, "gamerTag": "Rain~", "prefix": null, "user": {"location": {"city": "Atlanta", "state": "GA", "country": "United States"}}, "player": {"id": 4240164, "gamerTag": "Rain~", "prefix": null, "user": {"location": {"city": "Atlanta", "state": "GA", "country": "United States"}}}}]}, "standing": {"placement": 1, "stats": {"score": {"value": 2}}}}, {"id": "91439385-1", "entrant": {"id": 20694315, "name": "promamamia", "participants": [{"id": 19046679, "gamerTag": "promamamia", "prefix": "", "user": {"location": {"city": "Alpharetta", "state": "GA", "country": "United States"}}, "player": {"id": 3548468, "gamerTag": "promamamia", "prefix": "", "user": {"location": {"city": "Alpharetta", "state": "GA", "country": "United States"}}}}]}, "standing": {"placement": 2, "stats": {"score": {"value": 0}}}}], "games": null}, {"id": 91439386, "state": 3, "round": 2, "fullRoundText": "Winners Round 2", "completedAt": 1752627609, "winnerId": 20695707, "slots": [{"id": "91439386-0", "entrant": {"id": 20695707, "name": "Jeni", "participants": [{"id": 19047905, "gamerTag": "Jeni", "prefix": "", "user": {"location": {"city": null, "state": null, "country": null}}, "player": {"id": 1499467, "gamerTag": "Jeni", "prefix": "", "user": {"location": {"city": null, "state": null, "country": null}}}}]}, "standing": {"placement": 1, "stats": {"score": {"value": 2}}}}, {"id": "91439386-1", "entrant": {"id": 20699515, "name": "ThatUser183", "participants": [{"id": 19051106, "gamerTag": "ThatUser183", "prefix": null, "user": {"location": {"city": "Suwanee", "state": "GA", "country": "United States"}}, "player": {"id": 2807415, "gamerTag": "ThatUser183", "prefix": null, "user": {"location": {"city": "Suwanee", "state": "GA", "country": "United States"}}}}]}, "standing": {"placement": 2, "stats": {"score": {"value": 0}}}}], "games": null}, {"id": 91439387, "state": 3, "round": 2, "fullRoundText": "Winners Round 2", "completedAt": 1752626643, "winnerId": 20702400, "slots": [{"id": "91439387-0", "entrant": {"id": 20696483, "name": "Penguin", "participants": [{"id": 19048572, "gamerTag": "Penguin", "prefix": "", "user": {"location": {"city": "Atlanta", "state": "GA", "country": "United States"}}, "player": {"id": 4287822, "gamerTag": "Heart", "prefix": "", "user": {"location": {"city": "Atlanta", "state": "GA", "country": "United States"}}}}]}, "standing": {"placement": 2, "stats": {"score": {"value": 1}}}}, {"id": "91439387-1", "entrant": {"id": 20702400, "name": "Mellow", "participants": [{"id": 19053664, "gamerTag": "Mellow", "prefix": "", "user": {"location": {"city": null, "state": null, "country": null}}, "player": {"id": 951859, "gamerTag": "Mellow", "prefix": "", "user": {"location": {"city": null, "state": null, "country": null}}}}]}, "standing": {"placement": 1, "stats": {"score": {"value": 2}}}}], "games": null}, {"id": 91439388, "state": 3, "round": 2, "fullRoundText": "Winners Round 2", "completedAt": 1752627265, "winnerId": 20700544, "slots": [{"id": "91439388-0", "entrant": {"id": 20700544, "name": "Typical!", "participants": [{"id": 19051983, "gamerTag": "Typical!", "prefix": "", "user": {"location": {"city": "Cumming", "state": "GA", "country": "United States"}}, "player": {"id": 1227171, "gamerTag": "Typical!", "prefix": "", "user": {"location": {"city": "Cumming", "state": "GA", "country": "United States"}}}}]}, "standing": {"placement": 1, "stats": {"score": {"value": 2}}}}, {"id": "91439388-1", "entrant": {"id": 20693109, "name": "Master J.J.", "participants": [{"id": 19045767, "gamerTag": "Master J.J.", "prefix": "", "user": {"location": {"city": "New Britain", "state": "CT", "country": "United States"}}, "player": {"id": 41440, "gamerTag": "Master J.J.", "prefix": "", "user": {"location": {"city": "New Britain", "state": "CT", "country": "United States"}}}}]}, "standing": {"placement": 2, "stats": {"score": {"value": 0}}}}], "games": null}, {"id": 91439389, "state": 3, "round": 2, "fullRoundText": "Winners Round 2", "completedAt": 1752627106, "winnerId": 20651968, "slots": [{"id": "91439389-0", "entrant": {"id": 20651968, "name": "AO5 | ImPhenyl", "participants": [{"id": 19010110, "gamerTag": "ImPhenyl", "prefix": "AO5", "user": {"location": {"city": "Lawrenceville", "state": "GA", "country": "United States"}}, "player": {"id": 3256876, "gamerTag": "ImPhenyl", "prefix": "AO5", "user": {"location": {"city": "Lawrenceville", "state": "GA", "country": "United States"}}}}]}, "standing": {"placement": 1, "stats": {"score": {"value": 2}}}}, {"id": "91439389-1", "entrant": {"id": 20696548, "name": "Grey", "participants": [{"id": 19048632, "gamerTag": "Grey", "prefix": null, "user": {"location": {"city": null, "state": "GA", "country": "United States"}}, "player": {"id": 1901973, "gamerTag": "Grey", "prefix": null, "user": {"location": {"city": null, "state": "GA", "country": "United States"}}}}]}, "standing": {"placement": 2, "stats": {"score": {"value": 0}}}}], "games": null}]}}}