{"phase": {"seeds": {"pageInfo": {"totalPages": 1, "total": 11}, "nodes": [{"id": 36246994, "seedNum": 2, "entrant": {"id": 21018555, "name": "N/a | C$", "participants": [{"id": 19334740, "gamerTag": "C$", "prefix": "N/a", "user": {"location": null}, "player": {"id": 228175, "gamerTag": "C$", "prefix": "N/a", "user": {"location": null}}}]}}, {"id": 36326076, "seedNum": 8, "entrant": {"id": 21072421, "name": "FRD | XIF", "participants": [{"id": 19379211, "gamerTag": "XIF", "prefix": "FRD", "user": {"location": {"city": "Buford", "state": "GA", "country": "United States"}}, "player": {"id": 36516, "gamerTag": "XIF", "prefix": "FRD", "user": {"location": {"city": "Buford", "state": "GA", "country": "United States"}}}}]}}, {"id": 36314564, "seedNum": 3, "entrant": {"id": 21064375, "name": "GCB | fries", "participants": [{"id": 19376200, "gamerTag": "fries", "prefix": "GCB", "user": {"location": {"city": "Greer", "state": "SC", "country": "United States"}}, "player": {"id": 1120136, "gamerTag": "fries", "prefix": "GCB", "user": {"location": {"city": "Greer", "state": "SC", "country": "United States"}}}}]}}, {"id": 36324221, "seedNum": 1, "entrant": {"id": 21070880, "name": "knight", "participants": [{"id": 19382219, "gamerTag": "knight", "prefix": "", "user": {"location": {"city": "Greer", "state": "SC", "country": "United States"}}, "player": {"id": 717797, "gamerTag": "knight", "prefix": "", "user": {"location": {"city": "Greer", "state": "SC", "country": "United States"}}}}]}}, {"id": 36325645, "seedNum": 5, "entrant": {"id": 21072069, "name": "Hello | wizard!!", "participants": [{"id": 19383351, "gamerTag": "wizard!!", "prefix": "Hello", "user": {"location": {"city": null, "state": null, "country": null}}, "player": {"id": 232585, "gamerTag": "wizard!!", "prefix": "Hello", "user": {"location": {"city": null, "state": null, "country": null}}}}]}}, {"id": 36246997, "seedNum": 6, "entrant": {"id": 21018557, "name": "NMBS | Phteven", "participants": [{"id": 19334741, "gamerTag": "Phteven", "prefix": "NMBS", "user": {"location": {"city": "Mableton", "state": "GA", "country": "United States"}}, "player": {"id": 209952, "gamerTag": "Phteven", "prefix": "NMBS", "user": {"location": {"city": "Mableton", "state": "GA", "country": "United States"}}}}]}}, {"id": 36283181, "seedNum": 4, "entrant": {"id": 21042456, "name": "Erika Bonchiko", "participants": [{"id": 19356872, "gamerTag": "Erika Bonchiko", "prefix": null, "user": {"location": {"city": "Atlanta", "state": "GA", "country": "United States"}}, "player": {"id": 16360, "gamerTag": "Erika Bonchiko", "prefix": null, "user": {"location": {"city": "Atlanta", "state": "GA", "country": "United States"}}}}]}}, {"id": 36318777, "seedNum": 7, "entrant": {"id": 21067180, "name": "Chamu", "participants": [{"id": 19378725, "gamerTag": "Chamu", "prefix": null, "user": {"location": {"city": "Columbia", "state": "SC", "country": "United States"}}, "player": {"id": 1471872, "gamerTag": "Chamu", "prefix": null, "user": {"location": {"city": "Columbia", "state": "SC", "country": "United States"}}}}]}}, {"id": 36323486, "seedNum": 9, "entrant": {"id": 21070205, "name": "KHW | Frumps", "participants": [{"id": 19381622, "gamerTag": "Frumps", "prefix": "KHW", "user": {"location": {"city": "Greenville", "state": "SC", "country": "United States"}}, "player": {"id": 2844590, "gamerTag": "Frumps", "prefix": "KHW", "user": {"location": {"city": "Greenville", "state": "SC", "country": "United States"}}}}]}}, {"id": 36246998, "seedNum": 10, "entrant": {"id": 21018558, "name": "NMBS | roshi", "participants": [{"id": 19334742, "gamerTag": "roshi", "prefix": "NMBS", "user": {"location": {"city": "Atlanta", "state": "GA", "country": "United States"}}, "player": {"id": 37667, "gamerTag": "roshi", "prefix": "NMBS", "user": {"location": {"city": "Atlanta", "state": "GA", "country": "United States"}}}}]}}, {"id": 36266612, "seedNum": 11, "entrant": {"id": 21030257, "name": "Permafrost", "participants": [{"id": 19345445, "gamerTag": "Permafrost", "prefix": "", "user": {"location": {"city": "Atlanta", "state": "GA", "country": "United States"}}, "player": {"id": 1256898, "gamerTag": "Permafrost", "prefix": "", "user": {"location": {"city": "Atlanta", "state": "GA", "country": "United States"}}}}]}}]}}}