{"phase": {"seeds": {"pageInfo": {"totalPages": 1, "total": 8}, "nodes": [{"id": 36512325, "seedNum": 1, "entrant": {"id": 21196039, "name": "Omar", "participants": [{"id": 19445695, "gamerTag": "Omar", "prefix": "", "user": {"location": {"city": null, "state": "GA", "country": "United States"}}, "player": {"id": 4300029, "gamerTag": "Omar", "prefix": "", "user": {"location": {"city": null, "state": "GA", "country": "United States"}}}}]}}, {"id": 36512318, "seedNum": 8, "entrant": {"id": 21196032, "name": "Infinite_Radiance", "participants": [{"id": 19451115, "gamerTag": "Infinite_Radiance", "prefix": "", "user": {"location": {"city": null, "state": "GA", "country": "United States"}}, "player": {"id": 4926508, "gamerTag": "Infinite_Radiance", "prefix": "CC UGA", "user": {"location": {"city": null, "state": "GA", "country": "United States"}}}}]}}, {"id": 36512251, "seedNum": 6, "entrant": {"id": 21196002, "name": "ThePromisedHat", "participants": [{"id": 19445687, "gamerTag": "ThePromisedHat", "prefix": null, "user": {"location": {"city": "Bishop", "state": "GA", "country": "United States"}}, "player": {"id": 4261821, "gamerTag": "ThePromisedHat", "prefix": null, "user": {"location": {"city": "Bishop", "state": "GA", "country": "United States"}}}}]}}, {"id": 36512322, "seedNum": 5, "entrant": {"id": 21196036, "name": "jack | jazzman", "participants": [{"id": 19465706, "gamerTag": "jazzman", "prefix": "jack", "user": {"location": {"city": "Athens", "state": "GA", "country": "United States"}}, "player": {"id": 3883272, "gamerTag": "jazzman", "prefix": "jack", "user": {"location": {"city": "Athens", "state": "GA", "country": "United States"}}}}]}}, {"id": 36512315, "seedNum": 2, "entrant": {"id": 21196029, "name": "Gooey", "participants": [{"id": 19489115, "gamerTag": "Gooey", "prefix": "", "user": {"location": {"city": "Athens", "state": "GA", "country": "United States"}}, "player": {"id": 1071181, "gamerTag": "Gooey", "prefix": "GRW", "user": {"location": {"city": "Athens", "state": "GA", "country": "United States"}}}}]}}, {"id": 36512300, "seedNum": 7, "entrant": {"id": 21196026, "name": "UGA | | samtwo", "participants": [{"id": 19445734, "gamerTag": "samtwo", "prefix": "UGA |", "user": {"location": {"city": "Athens", "state": "GA", "country": "United States"}}, "player": {"id": 1246662, "gamerTag": "samtwo", "prefix": "UGA |", "user": {"location": {"city": "Athens", "state": "GA", "country": "United States"}}}}]}}, {"id": 36512247, "seedNum": 3, "entrant": {"id": 21195977, "name": "UGA | LaJohn", "participants": [{"id": 19445746, "gamerTag": "LaJohn", "prefix": "UGA", "user": {"location": {"city": "Suwanee", "state": "GA", "country": "United States"}}, "player": {"id": 1742867, "gamerTag": "LaJohn", "prefix": "UGA", "user": {"location": {"city": "Suwanee", "state": "GA", "country": "United States"}}}}]}}, {"id": 36512331, "seedNum": 4, "entrant": {"id": 21196046, "name": "Vertebrae", "participants": [{"id": 19445742, "gamerTag": "Vertebrae", "prefix": "", "user": {"location": {"city": "Athens", "state": "GA", "country": "United States"}}, "player": {"id": 1583946, "gamerTag": "Vertebrae", "prefix": "CC", "user": {"location": {"city": "Athens", "state": "GA", "country": "United States"}}}}]}}]}}}