{"event": {"sets": {"pageInfo": {"totalPages": 4, "total": 46}, "nodes": [{"id": 92636898, "state": 3, "round": -4, "fullRoundText": "Losers Round 1", "completedAt": 1755133682, "winnerId": 20962081, "slots": [{"id": "92636898-0", "entrant": {"id": 20962081, "name": "Jet Midder", "participants": [{"id": 19284765, "gamerTag": "Jet Midder", "prefix": null, "user": {"location": {"city": null, "state": null, "country": null}}, "player": {"id": 2363656, "gamerTag": "Jet Dayo", "prefix": null, "user": {"location": {"city": null, "state": null, "country": null}}}}]}, "standing": {"placement": 1, "stats": {"score": {"value": 2}}}}, {"id": "92636898-1", "entrant": {"id": 20963424, "name": "Soku", "participants": [{"id": 19285926, "gamerTag": "Soku", "prefix": null, "user": {"location": {"city": "Suwanee", "state": "GA", "country": "United States"}}, "player": {"id": 4314131, "gamerTag": "Soku", "prefix": null, "user": {"location": {"city": "Suwanee", "state": "GA", "country": "United States"}}}}]}, "standing": {"placement": 2, "stats": {"score": {"value": 0}}}}], "games": null}, {"id": 92636899, "state": 3, "round": -4, "fullRoundText": "Losers Round 1", "completedAt": 1755133165, "winnerId": 20962058, "slots": [{"id": "92636899-0", "entrant": {"id": 20947363, "name": "Myk_JUMP", "participants": [{"id": 19272206, "gamerTag": "Myk_JUMP", "prefix": "", "user": {"location": {"city": "Atlanta", "state": "GA", "country": "United States"}}, "player": {"id": 469002, "gamerTag": "Myk_JUMP", "prefix": "", "user": {"location": {"city": "Atlanta", "state": "GA", "country": "United States"}}}}]}, "standing": {"placement": 2, "stats": {"score": {"value": 1}}}}, {"id": "92636899-1", "entrant": {"id": 20962058, "name": "Hipster Lion", "participants": [{"id": 19284746, "gamerTag": "Hipster Lion", "prefix": "", "user": {"location": {"city": "College Park", "state": "GA", "country": "United States"}}, "player": {"id": 897409, "gamerTag": "Hipster Lion", "prefix": "", "user": {"location": {"city": "College Park", "state": "GA", "country": "United States"}}}}]}, "standing": {"placement": 1, "stats": {"score": {"value": 2}}}}], "games": null}, {"id": 92636900, "state": 3, "round": -4, "fullRoundText": "Losers Round 1", "completedAt": 1755132805, "winnerId": 20955330, "slots": [{"id": "92636900-0", "entrant": {"id": 20955330, "name": "UHH | longlivnando", "participants": [{"id": 19278983, "gamerTag": "longlivnando", "prefix": "UHH", "user": {"location": {"city": "Warrenville", "state": "SC", "country": "United States"}}, "player": {"id": 3746165, "gamerTag": "longlivnando", "prefix": "UHH", "user": {"location": {"city": "Warrenville", "state": "SC", "country": "United States"}}}}]}, "standing": {"placement": 1, "stats": {"score": {"value": 2}}}}, {"id": "92636900-1", "entrant": {"id": 20962717, "name": "StephDaddy", "participants": [{"id": 19285330, "gamerTag": "StephDaddy", "prefix": "", "user": null, "player": {"id": 4922527, "gamerTag": "StephDaddy", "prefix": "", "user": null}}]}, "standing": {"placement": 2, "stats": {"score": {"value": 0}}}}], "games": null}, {"id": 92636901, "state": 3, "round": -4, "fullRoundText": "Losers Round 1", "completedAt": 1755133035, "winnerId": 20963147, "slots": [{"id": "92636901-0", "entrant": {"id": 20963147, "name": "Greed", "participants": [{"id": 19285714, "gamerTag": "Greed", "prefix": "", "user": {"location": {"city": "Atlanta", "state": "GA", "country": "United States"}}, "player": {"id": 907329, "gamerTag": "Greed", "prefix": "", "user": {"location": {"city": "Atlanta", "state": "GA", "country": "United States"}}}}]}, "standing": {"placement": 1, "stats": {"score": {"value": 2}}}}, {"id": "92636901-1", "entrant": {"id": 20958946, "name": "EliBrad123", "participants": [{"id": 19282105, "gamerTag": "EliBrad123", "prefix": "", "user": {"location": {"city": null, "state": null, "country": "United States"}}, "player": {"id": 4922110, "gamerTag": "EliBrad123", "prefix": "", "user": {"location": {"city": null, "state": null, "country": "United States"}}}}]}, "standing": {"placement": 2, "stats": {"score": {"value": 0}}}}], "games": null}, {"id": 92636902, "state": 3, "round": -4, "fullRoundText": "Losers Round 1", "completedAt": 1755133104, "winnerId": 20963365, "slots": [{"id": "92636902-0", "entrant": {"id": 20960616, "name": "Fiji | 100 Latinas", "participants": [{"id": 19283502, "gamerTag": "100 Latinas", "prefix": "Fiji", "user": {"location": {"city": "Lithonia", "state": "GA", "country": "United States"}}, "player": {"id": 1890427, "gamerTag": "100 Latinas", "prefix": "Fiji", "user": {"location": {"city": "Lithonia", "state": "GA", "country": "United States"}}}}]}, "standing": {"placement": 2, "stats": {"score": {"value": 1}}}}, {"id": "92636902-1", "entrant": {"id": 20963365, "name": "Buddy3k", "participants": [{"id": 19285886, "gamerTag": "Buddy3k", "prefix": "", "user": {"location": {"city": "Atlanta", "state": "GA", "country": "United States"}}, "player": {"id": 4443794, "gamerTag": "Buddy3k", "prefix": "", "user": {"location": {"city": "Atlanta", "state": "GA", "country": "United States"}}}}]}, "standing": {"placement": 1, "stats": {"score": {"value": 2}}}}], "games": null}, {"id": 92636903, "state": 3, "round": -4, "fullRoundText": "Losers Round 1", "completedAt": 1755133221, "winnerId": 20962318, "slots": [{"id": "92636903-0", "entrant": {"id": 20962318, "name": "TPC | TrayTrizzy", "participants": [{"id": 19284981, "gamerTag": "TrayTrizzy", "prefix": "TPC", "user": {"location": {"city": "NYC", "state": "NY", "country": "United States"}}, "player": {"id": 646096, "gamerTag": "TrayTrizzy", "prefix": "TPC", "user": {"location": {"city": "NYC", "state": "NY", "country": "United States"}}}}]}, "standing": {"placement": 1, "stats": {"score": {"value": 2}}}}, {"id": "92636903-1", "entrant": {"id": 20962196, "name": "brandon", "participants": [{"id": 19284873, "gamerTag": "brandon", "prefix": "", "user": null, "player": {"id": 4922492, "gamerTag": "brandon", "prefix": "", "user": null}}]}, "standing": {"placement": 2, "stats": {"score": {"value": 0}}}}], "games": null}, {"id": 92636904, "state": 3, "round": -4, "fullRoundText": "Losers Round 1", "completedAt": 1755132838, "winnerId": 20962218, "slots": [{"id": "92636904-0", "entrant": {"id": 20962218, "name": "Momokins", "participants": [{"id": 19284893, "gamerTag": "Momokins", "prefix": "", "user": {"location": {"city": "Atlanta", "state": "GA", "country": "United States"}}, "player": {"id": 612216, "gamerTag": "Momokins", "prefix": "", "user": {"location": {"city": "Atlanta", "state": "GA", "country": "United States"}}}}]}, "standing": {"placement": 1, "stats": {"score": {"value": 2}}}}, {"id": "92636904-1", "entrant": {"id": 20963103, "name": "MrFreshleys", "participants": [{"id": 19285671, "gamerTag": "MrFreshleys", "prefix": "", "user": {"location": {"city": null, "state": null, "country": "United States"}}, "player": {"id": 4922557, "gamerTag": "MrFreshleys", "prefix": "", "user": {"location": {"city": null, "state": null, "country": "United States"}}}}]}, "standing": {"placement": 2, "stats": {"score": {"value": 0}}}}], "games": null}, {"id": 92636897, "state": 3, "round": -4, "fullRoundText": "Losers Round 1", "completedAt": 1755133294, "winnerId": 20962175, "slots": [{"id": "92636897-0", "entrant": {"id": 20962175, "name": "HEAVENER", "participants": [{"id": 19284853, "gamerTag": "HEAVENER", "prefix": "", "user": {"location": {"city": "Marietta", "state": "GA", "country": "United States"}}, "player": {"id": 1829744, "gamerTag": "HEAVENER", "prefix": "", "user": {"location": {"city": "Marietta", "state": "GA", "country": "United States"}}}}]}, "standing": {"placement": 1, "stats": {"score": {"value": 2}}}}, {"id": "92636897-1", "entrant": {"id": 20962194, "name": "Nox", "participants": [{"id": 19284872, "gamerTag": "Nox", "prefix": "", "user": null, "player": {"id": 4922491, "gamerTag": "Nox", "prefix": "", "user": null}}]}, "standing": {"placement": 2, "stats": {"score": {"value": 0}}}}], "games": null}, {"id": 92636825, "state": 3, "round": 1, "fullRoundText": "Winners Round 1", "completedAt": 1755131713, "winnerId": 20962218, "slots": [{"id": "92636825-0", "entrant": {"id": 20962218, "name": "Momokins", "participants": [{"id": 19284893, "gamerTag": "Momokins", "prefix": "", "user": {"location": {"city": "Atlanta", "state": "GA", "country": "United States"}}, "player": {"id": 612216, "gamerTag": "Momokins", "prefix": "", "user": {"location": {"city": "Atlanta", "state": "GA", "country": "United States"}}}}]}, "standing": {"placement": 1, "stats": {"score": {"value": 2}}}}, {"id": "92636825-1", "entrant": {"id": 20962194, "name": "Nox", "participants": [{"id": 19284872, "gamerTag": "Nox", "prefix": "", "user": null, "player": {"id": 4922491, "gamerTag": "Nox", "prefix": "", "user": null}}]}, "standing": {"placement": 2, "stats": {"score": {"value": 0}}}}], "games": null}, {"id": 92636827, "state": 3, "round": 1, "fullRoundText": "Winners Round 1", "completedAt": 1755131366, "winnerId": 20962902, "slots": [{"id": "92636827-0", "entrant": {"id": 20962902, "name": "GCH | slaughterwall", "participants": [{"id": 19285490, "gamerTag": "slaughterwall", "prefix": "GCH", "user": {"location": {"city": "Atlanta", "state": "GA", "country": "United States"}}, "player": {"id": 1104452, "gamerTag": "slaughterwall", "prefix": "GCH", "user": {"location": {"city": "Atlanta", "state": "GA", "country": "United States"}}}}]}, "standing": {"placement": 1, "stats": {"score": {"value": 2}}}}, {"id": "92636827-1", "entrant": {"id": 20963424, "name": "Soku", "participants": [{"id": 19285926, "gamerTag": "Soku", "prefix": null, "user": {"location": {"city": "Suwanee", "state": "GA", "country": "United States"}}, "player": {"id": 4314131, "gamerTag": "Soku", "prefix": null, "user": {"location": {"city": "Suwanee", "state": "GA", "country": "United States"}}}}]}, "standing": {"placement": 2, "stats": {"score": {"value": 0}}}}], "games": null}, {"id": 92636829, "state": 3, "round": 1, "fullRoundText": "Winners Round 1", "completedAt": 1755131583, "winnerId": 20960616, "slots": [{"id": "92636829-0", "entrant": {"id": 20960616, "name": "Fiji | 100 Latinas", "participants": [{"id": 19283502, "gamerTag": "100 Latinas", "prefix": "Fiji", "user": {"location": {"city": "Lithonia", "state": "GA", "country": "United States"}}, "player": {"id": 1890427, "gamerTag": "100 Latinas", "prefix": "Fiji", "user": {"location": {"city": "Lithonia", "state": "GA", "country": "United States"}}}}]}, "standing": {"placement": 1, "stats": {"score": {"value": 2}}}}, {"id": "92636829-1", "entrant": {"id": 20962058, "name": "Hipster Lion", "participants": [{"id": 19284746, "gamerTag": "Hipster Lion", "prefix": "", "user": {"location": {"city": "College Park", "state": "GA", "country": "United States"}}, "player": {"id": 897409, "gamerTag": "Hipster Lion", "prefix": "", "user": {"location": {"city": "College Park", "state": "GA", "country": "United States"}}}}]}, "standing": {"placement": 2, "stats": {"score": {"value": 0}}}}], "games": null}, {"id": 92636831, "state": 3, "round": 1, "fullRoundText": "Winners Round 1", "completedAt": 1755131417, "winnerId": 20963147, "slots": [{"id": "92636831-0", "entrant": {"id": 20963147, "name": "Greed", "participants": [{"id": 19285714, "gamerTag": "Greed", "prefix": "", "user": {"location": {"city": "Atlanta", "state": "GA", "country": "United States"}}, "player": {"id": 907329, "gamerTag": "Greed", "prefix": "", "user": {"location": {"city": "Atlanta", "state": "GA", "country": "United States"}}}}]}, "standing": {"placement": 1, "stats": {"score": {"value": 2}}}}, {"id": "92636831-1", "entrant": {"id": 20962717, "name": "StephDaddy", "participants": [{"id": 19285330, "gamerTag": "StephDaddy", "prefix": "", "user": null, "player": {"id": 4922527, "gamerTag": "StephDaddy", "prefix": "", "user": null}}]}, "standing": {"placement": 2, "stats": {"score": {"value": 0}}}}], "games": null}, {"id": 92636833, "state": 3, "round": 1, "fullRoundText": "Winners Round 1", "completedAt": 1755131355, "winnerId": 20955330, "slots": [{"id": "92636833-0", "entrant": {"id": 20958946, "name": "EliBrad123", "participants": [{"id": 19282105, "gamerTag": "EliBrad123", "prefix": "", "user": {"location": {"city": null, "state": null, "country": "United States"}}, "player": {"id": 4922110, "gamerTag": "EliBrad123", "prefix": "", "user": {"location": {"city": null, "state": null, "country": "United States"}}}}]}, "standing": {"placement": 2, "stats": {"score": {"value": 0}}}}, {"id": "92636833-1", "entrant": {"id": 20955330, "name": "UHH | longlivnando", "participants": [{"id": 19278983, "gamerTag": "longlivnando", "prefix": "UHH", "user": {"location": {"city": "Warrenville", "state": "SC", "country": "United States"}}, "player": {"id": 3746165, "gamerTag": "longlivnando", "prefix": "UHH", "user": {"location": {"city": "Warrenville", "state": "SC", "country": "United States"}}}}]}, "standing": {"placement": 1, "stats": {"score": {"value": 2}}}}], "games": null}, {"id": 92636835, "state": 3, "round": 1, "fullRoundText": "Winners Round 1", "completedAt": 1755131604, "winnerId": 20947363, "slots": [{"id": "92636835-0", "entrant": {"id": 20947363, "name": "Myk_JUMP", "participants": [{"id": 19272206, "gamerTag": "Myk_JUMP", "prefix": "", "user": {"location": {"city": "Atlanta", "state": "GA", "country": "United States"}}, "player": {"id": 469002, "gamerTag": "Myk_JUMP", "prefix": "", "user": {"location": {"city": "Atlanta", "state": "GA", "country": "United States"}}}}]}, "standing": {"placement": 1, "stats": {"score": {"value": 2}}}}, {"id": "92636835-1", "entrant": {"id": 20963365, "name": "Buddy3k", "participants": [{"id": 19285886, "gamerTag": "Buddy3k", "prefix": "", "user": {"location": {"city": "Atlanta", "state": "GA", "country": "United States"}}, "player": {"id": 4443794, "gamerTag": "Buddy3k", "prefix": "", "user": {"location": {"city": "Atlanta", "state": "GA", "country": "United States"}}}}]}, "standing": {"placement": 2, "stats": {"score": {"value": 1}}}}], "games": null}, {"id": 92636837, "state": 3, "round": 1, "fullRoundText": "Winners Round 1", "completedAt": 1755131308, "winnerId": 20962081, "slots": [{"id": "92636837-0", "entrant": {"id": 20962081, "name": "Jet Midder", "participants": [{"id": 19284765, "gamerTag": "Jet Midder", "prefix": null, "user": {"location": {"city": null, "state": null, "country": null}}, "player": {"id": 2363656, "gamerTag": "Jet Dayo", "prefix": null, "user": {"location": {"city": null, "state": null, "country": null}}}}]}, "standing": {"placement": 1, "stats": {"score": {"value": 2}}}}, {"id": "92636837-1", "entrant": {"id": 20962196, "name": "brandon", "participants": [{"id": 19284873, "gamerTag": "brandon", "prefix": "", "user": null, "player": {"id": 4922492, "gamerTag": "brandon", "prefix": "", "user": null}}]}, "standing": {"placement": 2, "stats": {"score": {"value": 0}}}}], "games": null}]}}}