{"event": {"sets": {"pageInfo": {"totalPages": 22, "total": 318}, "nodes": [{"id": 92110785, "state": 3, "round": 1, "fullRoundText": "Winners Round 1", "completedAt": 1754180500, "winnerId": 20690838, "slots": [{"id": "92110785-0", "entrant": {"id": 20690838, "name": "SR | Kola", "participants": [{"id": 19043759, "gamerTag": "Kola", "prefix": "SR", "user": {"location": {"city": "Duluth", "state": "GA", "country": "United States"}}, "player": {"id": 18802, "gamerTag": "Kola", "prefix": "SR", "user": {"location": {"city": "Duluth", "state": "GA", "country": "United States"}}}}]}, "standing": {"placement": 1, "stats": {"score": {"value": 2}}}}, {"id": "92110785-1", "entrant": {"id": 20730596, "name": "TTV | aj_waves", "participants": [{"id": 19078266, "gamerTag": "aj_waves", "prefix": "TTV", "user": {"location": {"city": "Statesboro", "state": "GA", "country": "United States"}}, "player": {"id": 3430874, "gamerTag": "aj_waves", "prefix": "TTV", "user": {"location": {"city": "Statesboro", "state": "GA", "country": "United States"}}}}]}, "standing": {"placement": 2, "stats": {"score": {"value": 0}}}}], "games": null}, {"id": 92227171, "state": 3, "round": 1, "fullRoundText": "Winners Round 1", "completedAt": 1754166611, "winnerId": 20490815, "slots": [{"id": "92227171-0", "entrant": {"id": 20490815, "name": "KSU | colorful\u029a\u025e", "participants": [{"id": 18869493, "gamerTag": "colorful\u029a\u025e", "prefix": "KSU", "user": {"location": {"city": "Kennesaw", "state": "GA", "country": "United States"}}, "player": {"id": 1783074, "gamerTag": "colorful\u029a\u025e", "prefix": "KSU | RM", "user": {"location": {"city": "Kennesaw", "state": "GA", "country": "United States"}}}}]}, "standing": {"placement": 1, "stats": {"score": {"value": 2}}}}, {"id": "92227171-1", "entrant": {"id": 20605149, "name": "Scoob", "participants": [{"id": 18969159, "gamerTag": "Scoob", "prefix": null, "user": {"location": {"city": "Birmingham", "state": "AL", "country": "United States"}}, "player": {"id": 2320668, "gamerTag": "Scoob", "prefix": null, "user": {"location": {"city": "Birmingham", "state": "AL", "country": "United States"}}}}]}, "standing": {"placement": 2, "stats": {"score": {"value": 0}}}}], "games": null}, {"id": 92227366, "state": 3, "round": 1, "fullRoundText": "Winners Round 1", "completedAt": 1754167518, "winnerId": 20493594, "slots": [{"id": "92227366-0", "entrant": {"id": 20493594, "name": "goopie guy", "participants": [{"id": 18871979, "gamerTag": "goopie guy", "prefix": "", "user": {"location": {"city": "Atlanta", "state": "GA", "country": "United States"}}, "player": {"id": 1159961, "gamerTag": "goopie guy", "prefix": "", "user": {"location": {"city": "Atlanta", "state": "GA", "country": "United States"}}}}]}, "standing": {"placement": 1, "stats": {"score": {"value": 2}}}}, {"id": "92227366-1", "entrant": {"id": 20731023, "name": "camcam", "participants": [{"id": 19078662, "gamerTag": "camcam", "prefix": "", "user": {"location": {"city": "Lawrenceville", "state": "GA", "country": "United States"}}, "player": {"id": 3796438, "gamerTag": "camcam", "prefix": "", "user": {"location": {"city": "Lawrenceville", "state": "GA", "country": "United States"}}}}]}, "standing": {"placement": 2, "stats": {"score": {"value": 0}}}}], "games": null}, {"id": 92227604, "state": 3, "round": 1, "fullRoundText": "Winners Round 1", "completedAt": 1754173318, "winnerId": 20727086, "slots": [{"id": "92227604-0", "entrant": {"id": 20727086, "name": "Pretzels", "participants": [{"id": 19075221, "gamerTag": "Pretzels", "prefix": "", "user": {"location": {"city": "Montgomery", "state": "AL", "country": "United States"}}, "player": {"id": 1592960, "gamerTag": "Pretzels", "prefix": "", "user": {"location": {"city": "Montgomery", "state": "AL", "country": "United States"}}}}]}, "standing": {"placement": 1, "stats": {"score": {"value": 2}}}}, {"id": "92227604-1", "entrant": {"id": 20750950, "name": "JustVoidzzz", "participants": [{"id": 19096425, "gamerTag": "JustVoidzzz", "prefix": "", "user": {"location": {"city": null, "state": null, "country": "United States"}}, "player": {"id": 4843167, "gamerTag": "JustVoidzzz", "prefix": "", "user": {"location": {"city": null, "state": null, "country": "United States"}}}}]}, "standing": {"placement": 2, "stats": {"score": {"value": 0}}}}], "games": null}, {"id": 92110786, "state": 3, "round": 1, "fullRoundText": "Winners Round 1", "completedAt": 1754180138, "winnerId": 20495676, "slots": [{"id": "92110786-0", "entrant": {"id": 20721570, "name": "SmU5h | Vendetta", "participants": [{"id": 19070584, "gamerTag": "Vendetta", "prefix": "SmU5h", "user": {"location": {"city": "Duluth", "state": "GA", "country": "United States"}}, "player": {"id": 343421, "gamerTag": "Vendetta", "prefix": "SmU5h", "user": {"location": {"city": "Duluth", "state": "GA", "country": "United States"}}}}]}, "standing": {"placement": 2, "stats": {"score": {"value": 1}}}}, {"id": "92110786-1", "entrant": {"id": 20495676, "name": "Hell Mode | ROB Slayer", "participants": [{"id": 18873880, "gamerTag": "ROB Slayer", "prefix": "Hell Mode", "user": {"location": {"city": "Atlanta", "state": "GA", "country": "United States"}}, "player": {"id": 2414381, "gamerTag": "ROB Slayer", "prefix": "Hell Mode", "user": {"location": {"city": "Atlanta", "state": "GA", "country": "United States"}}}}]}, "standing": {"placement": 1, "stats": {"score": {"value": 2}}}}], "games": null}, {"id": 92227816, "state": 3, "round": 1, "fullRoundText": "Winners Round 1", "completedAt": 1754172907, "winnerId": 20535745, "slots": [{"id": "92227816-0", "entrant": {"id": 20716782, "name": "LD | Hino", "participants": [{"id": 19066352, "gamerTag": "Hino", "prefix": "LD", "user": {"location": {"city": "Nashville", "state": "TN", "country": "United States"}}, "player": {"id": 1039246, "gamerTag": "Hino", "prefix": "LD", "user": {"location": {"city": "Nashville", "state": "TN", "country": "United States"}}}}]}, "standing": {"placement": 2, "stats": {"score": {"value": -1}}}}, {"id": "92227816-1", "entrant": {"id": 20535745, "name": "CHAOS", "participants": [{"id": 18909397, "gamerTag": "CHAOS", "prefix": null, "user": {"location": {"city": "Athens", "state": "GA", "country": "United States"}}, "player": {"id": 4559756, "gamerTag": "CHAOS", "prefix": null, "user": {"location": {"city": "Athens", "state": "GA", "country": "United States"}}}}]}, "standing": {"placement": 1, "stats": {"score": {"value": null}}}}], "games": null}, {"id": 92227175, "state": 3, "round": 1, "fullRoundText": "Winners Round 1", "completedAt": 1754166503, "winnerId": 20634587, "slots": [{"id": "92227175-0", "entrant": {"id": 20634587, "name": "Rain~", "participants": [{"id": 18995271, "gamerTag": "Rain~", "prefix": null, "user": {"location": {"city": "Atlanta", "state": "GA", "country": "United States"}}, "player": {"id": 4240164, "gamerTag": "Rain~", "prefix": null, "user": {"location": {"city": "Atlanta", "state": "GA", "country": "United States"}}}}]}, "standing": {"placement": 1, "stats": {"score": {"value": 0}}}}, {"id": "92227175-1", "entrant": {"id": 20689942, "name": "PL | Ner\u0153", "participants": [{"id": 19042898, "gamerTag": "Ner\u0153", "prefix": "PL", "user": {"location": {"city": "Carrollton", "state": "GA", "country": "United States"}}, "player": {"id": 4349436, "gamerTag": "Ner\u0153", "prefix": "PL", "user": {"location": {"city": "Carrollton", "state": "GA", "country": "United States"}}}}]}, "standing": {"placement": 2, "stats": {"score": {"value": -1}}}}], "games": null}, {"id": 92227179, "state": 3, "round": 1, "fullRoundText": "Winners Round 1", "completedAt": 1754166617, "winnerId": 20489324, "slots": [{"id": "92227179-0", "entrant": {"id": 20489324, "name": "carlop", "participants": [{"id": 18868187, "gamerTag": "carlop", "prefix": null, "user": {"location": {"city": "Johns Creek", "state": "GA", "country": "United States"}}, "player": {"id": 3431919, "gamerTag": "carlop", "prefix": null, "user": {"location": {"city": "Johns Creek", "state": "GA", "country": "United States"}}}}]}, "standing": {"placement": 1, "stats": {"score": {"value": 2}}}}, {"id": "92227179-1", "entrant": {"id": 20730088, "name": "Mighty Morfin", "participants": [{"id": 19077834, "gamerTag": "Mighty Morfin", "prefix": "", "user": {"location": {"city": "Gainesville", "state": "GA", "country": "United States"}}, "player": {"id": 1630530, "gamerTag": "Mighty Morfin", "prefix": "", "user": {"location": {"city": "Gainesville", "state": "GA", "country": "United States"}}}}]}, "standing": {"placement": 2, "stats": {"score": {"value": 1}}}}], "games": null}, {"id": 92227820, "state": 3, "round": 1, "fullRoundText": "Winners Round 1", "completedAt": 1754173552, "winnerId": 20488936, "slots": [{"id": "92227820-0", "entrant": {"id": 20488936, "name": "Boo", "participants": [{"id": 18867842, "gamerTag": "Boo", "prefix": "", "user": {"location": {"city": "Cumming", "state": "GA", "country": "United States"}}, "player": {"id": 2647915, "gamerTag": "Boo", "prefix": "", "user": {"location": {"city": "Cumming", "state": "GA", "country": "United States"}}}}]}, "standing": {"placement": 1, "stats": {"score": {"value": 2}}}}, {"id": "92227820-1", "entrant": {"id": 20776795, "name": "SgtCarson", "participants": [{"id": 19079580, "gamerTag": "SgtCarson", "prefix": null, "user": {"location": {"city": "Cumming", "state": "GA", "country": "United States"}}, "player": {"id": 68213, "gamerTag": "SgtCarson", "prefix": "", "user": {"location": {"city": "Cumming", "state": "GA", "country": "United States"}}}}]}, "standing": {"placement": 2, "stats": {"score": {"value": 0}}}}], "games": null}, {"id": 92227608, "state": 3, "round": 1, "fullRoundText": "Winners Round 1", "completedAt": 1754173437, "winnerId": 20840838, "slots": [{"id": "92227608-0", "entrant": {"id": 20840838, "name": "UTO | Whaley", "participants": [{"id": 19177809, "gamerTag": "Whaley", "prefix": "UTO", "user": {"location": {"city": "Stone Mountain", "state": "GA", "country": "United States"}}, "player": {"id": 2016149, "gamerTag": "Whaley", "prefix": "KSU|UTO|BLZE", "user": {"location": {"city": "Stone Mountain", "state": "GA", "country": "United States"}}}}]}, "standing": {"placement": 1, "stats": {"score": {"value": 2}}}}, {"id": "92227608-1", "entrant": {"id": 20504534, "name": "Prophett", "participants": [{"id": 18881747, "gamerTag": "Prophett", "prefix": "", "user": {"location": {"city": "Trussville", "state": "AL", "country": "United States"}}, "player": {"id": 1661325, "gamerTag": "Prophet", "prefix": "", "user": {"location": {"city": "Trussville", "state": "AL", "country": "United States"}}}}]}, "standing": {"placement": 2, "stats": {"score": {"value": 0}}}}], "games": null}, {"id": 92227370, "state": 3, "round": 1, "fullRoundText": "Winners Round 1", "completedAt": 1754166490, "winnerId": 20789279, "slots": [{"id": "92227370-0", "entrant": {"id": 20789279, "name": "enoch", "participants": [{"id": 19132724, "gamerTag": "enoch", "prefix": "", "user": {"location": {"city": null, "state": null, "country": null}}, "player": {"id": 3679605, "gamerTag": "DavesHotAsian", "prefix": "", "user": {"location": {"city": null, "state": null, "country": null}}}}]}, "standing": {"placement": 1, "stats": {"score": {"value": null}}}}, {"id": "92227370-1", "entrant": {"id": 20740206, "name": "EL Tiburon", "participants": [{"id": 19086226, "gamerTag": "EL Tiburon", "prefix": "", "user": {"location": {"city": "Cleveland", "state": "OH", "country": "United States"}}, "player": {"id": 3116973, "gamerTag": "EL Tiburon", "prefix": "", "user": {"location": {"city": "Cleveland", "state": "OH", "country": "United States"}}}}]}, "standing": {"placement": 2, "stats": {"score": {"value": -1}}}}], "games": null}, {"id": 92110787, "state": 3, "round": 1, "fullRoundText": "Winners Round 1", "completedAt": 1754179949, "winnerId": 20749158, "slots": [{"id": "92110787-0", "entrant": {"id": 20749158, "name": "NS | BeastModePaul", "participants": [{"id": 19094723, "gamerTag": "BeastModePaul", "prefix": "NS", "user": {"location": {"city": null, "state": null, "country": null}}, "player": {"id": 1868170, "gamerTag": "BeastModePaul", "prefix": "NS", "user": {"location": {"city": null, "state": null, "country": null}}}}]}, "standing": {"placement": 1, "stats": {"score": {"value": 2}}}}, {"id": "92110787-1", "entrant": {"id": 20487659, "name": "WIN | KornDog | CJFrozen", "participants": [{"id": 18866879, "gamerTag": "CJFrozen", "prefix": "WIN | KornDog", "user": {"location": {"city": "Rock Hill", "state": "SC", "country": "United States"}}, "player": {"id": 918277, "gamerTag": "CJFrozen", "prefix": "WIN | KornDog", "user": {"location": {"city": "Rock Hill", "state": "SC", "country": "United States"}}}}]}, "standing": {"placement": 2, "stats": {"score": {"value": 0}}}}], "games": null}, {"id": 92227183, "state": 3, "round": 1, "fullRoundText": "Winners Round 1", "completedAt": 1754166519, "winnerId": 20488423, "slots": [{"id": "92227183-0", "entrant": {"id": 20488423, "name": "Sol | Spruce", "participants": [{"id": 18867391, "gamerTag": "Spruce", "prefix": "Sol", "user": {"location": {"city": null, "state": null, "country": "United States"}}, "player": {"id": 1100077, "gamerTag": "Spruce", "prefix": "Sol", "user": {"location": {"city": null, "state": null, "country": "United States"}}}}]}, "standing": {"placement": 1, "stats": {"score": {"value": 2}}}}, {"id": "92227183-1", "entrant": {"id": 20703948, "name": "TTV | JB_Staticxz", "participants": [{"id": 19054848, "gamerTag": "JB_Staticxz", "prefix": "TTV", "user": {"location": {"city": "lawrenceville", "state": "GA", "country": "United States"}}, "player": {"id": 3796232, "gamerTag": "JB_Staticxz", "prefix": "TTV", "user": {"location": {"city": "lawrenceville", "state": "GA", "country": "United States"}}}}]}, "standing": {"placement": 2, "stats": {"score": {"value": 0}}}}], "games": null}, {"id": 92227612, "state": 3, "round": 1, "fullRoundText": "Winners Round 1", "completedAt": 1754173086, "winnerId": 20727930, "slots": [{"id": "92227612-0", "entrant": {"id": 20709744, "name": "417 | zors3y", "participants": [{"id": 19060265, "gamerTag": "zors3y", "prefix": "417", "user": {"location": {"city": "Eatonton", "state": "GA", "country": "United States"}}, "player": {"id": 994539, "gamerTag": "zors3y", "prefix": "417", "user": {"location": {"city": "Eatonton", "state": "GA", "country": "United States"}}}}]}, "standing": {"placement": 2, "stats": {"score": {"value": -1}}}}, {"id": "92227612-1", "entrant": {"id": 20727930, "name": "11D7", "participants": [{"id": 19076051, "gamerTag": "11D7", "prefix": null, "user": {"location": {"city": "Alpharetta", "state": "GA", "country": "United States"}}, "player": {"id": 4064891, "gamerTag": "11D7", "prefix": null, "user": {"location": {"city": "Alpharetta", "state": "GA", "country": "United States"}}}}]}, "standing": {"placement": 1, "stats": {"score": {"value": null}}}}], "games": null}, {"id": 92227824, "state": 3, "round": 1, "fullRoundText": "Winners Round 1", "completedAt": 1754173828, "winnerId": 20488896, "slots": [{"id": "92227824-0", "entrant": {"id": 20488896, "name": "BB | Buddwaur", "participants": [{"id": 18867819, "gamerTag": "Buddwaur", "prefix": "BB", "user": {"location": {"city": "Holly Springs", "state": "NC", "country": "United States"}}, "player": {"id": 1469415, "gamerTag": "Buddwaur", "prefix": "BB", "user": {"location": {"city": "Holly Springs", "state": "NC", "country": "United States"}}}}]}, "standing": {"placement": 1, "stats": {"score": {"value": 2}}}}, {"id": "92227824-1", "entrant": {"id": 20504104, "name": "LBE | Lumin!", "participants": [{"id": 18881355, "gamerTag": "Lumin!", "prefix": "LBE", "user": {"location": {"city": "Athens", "state": "GA", "country": "United States"}}, "player": {"id": 2737569, "gamerTag": "Lumin!", "prefix": "LBE", "user": {"location": {"city": "Athens", "state": "GA", "country": "United States"}}}}]}, "standing": {"placement": 2, "stats": {"score": {"value": 1}}}}], "games": null}]}}}