{"phase": {"seeds": {"pageInfo": {"totalPages": 1, "total": 19}, "nodes": [{"id": 36430422, "seedNum": 1, "entrant": {"id": 21140876, "name": "EZ.JV", "participants": [{"id": 19445463, "gamerTag": "EZ.JV", "prefix": "", "user": {"location": {"city": "Los Altos", "state": "CA", "country": "United States"}}, "player": {"id": 674852, "gamerTag": "EZ.JV", "prefix": "", "user": {"location": {"city": "Los Altos", "state": "CA", "country": "United States"}}}}]}}, {"id": 36526517, "seedNum": 3, "entrant": {"id": 21205300, "name": "UTO|WhaLey | Kingwifi", "participants": [{"id": 19501838, "gamerTag": "Kingwifi", "prefix": "UTO|WhaLey", "user": {"location": {"city": "Stone Mountain", "state": "GA", "country": "United States"}}, "player": {"id": 2016149, "gamerTag": "Whaley", "prefix": "KSU|UTO|BLZE", "user": {"location": {"city": "Stone Mountain", "state": "GA", "country": "United States"}}}}]}}, {"id": 36510911, "seedNum": 7, "entrant": {"id": 21195079, "name": "Arc", "participants": [{"id": 19492508, "gamerTag": "Arc", "prefix": null, "user": {"location": {"city": "East Palo Alto", "state": "GA", "country": "United States"}}, "player": {"id": 2285547, "gamerTag": "Arc", "prefix": null, "user": {"location": {"city": "East Palo Alto", "state": "GA", "country": "United States"}}}}]}}, {"id": 36430465, "seedNum": 4, "entrant": {"id": 21140911, "name": "Pacil", "participants": [{"id": 19445497, "gamerTag": "Pacil", "prefix": "", "user": {"location": {"city": "Leesburg", "state": "VA", "country": "United States"}}, "player": {"id": 2249009, "gamerTag": "Pacil", "prefix": null, "user": {"location": {"city": "Leesburg", "state": "VA", "country": "United States"}}}}]}}, {"id": 36527812, "seedNum": 2, "entrant": {"id": 21206246, "name": "Rain~", "participants": [{"id": 19502734, "gamerTag": "Rain~", "prefix": null, "user": {"location": {"city": "Atlanta", "state": "GA", "country": "United States"}}, "player": {"id": 4240164, "gamerTag": "Rain~", "prefix": null, "user": {"location": {"city": "Atlanta", "state": "GA", "country": "United States"}}}}]}}, {"id": 36528827, "seedNum": 9, "entrant": {"id": 21207201, "name": "SaggyMilkJug", "participants": [{"id": 19503556, "gamerTag": "SaggyMilkJug", "prefix": "", "user": {"location": {"city": "Atlanta", "state": "GA", "country": "United States"}}, "player": {"id": 4651404, "gamerTag": "SaggyMilkJug", "prefix": "", "user": {"location": {"city": "Atlanta", "state": "GA", "country": "United States"}}}}]}}, {"id": 36433289, "seedNum": 5, "entrant": {"id": 21143169, "name": "Kitsch", "participants": [{"id": 19447466, "gamerTag": "Kitsch", "prefix": null, "user": {"location": {"city": "Atlanta", "state": "GA", "country": "United States"}}, "player": {"id": 4575825, "gamerTag": "Kitsch", "prefix": null, "user": {"location": {"city": "Atlanta", "state": "GA", "country": "United States"}}}}]}}, {"id": 36525101, "seedNum": 6, "entrant": {"id": 21204162, "name": "KSU | colorful\u029a\u025e", "participants": [{"id": 19500816, "gamerTag": "colorful\u029a\u025e", "prefix": "KSU", "user": {"location": {"city": "Kennesaw", "state": "GA", "country": "United States"}}, "player": {"id": 1783074, "gamerTag": "colorful\u029a\u025e", "prefix": "KSU | RM", "user": {"location": {"city": "Kennesaw", "state": "GA", "country": "United States"}}}}]}}, {"id": 36528268, "seedNum": 8, "entrant": {"id": 21206671, "name": "jack | jazzman", "participants": [{"id": 19503109, "gamerTag": "jazzman", "prefix": "jack", "user": {"location": {"city": "Athens", "state": "GA", "country": "United States"}}, "player": {"id": 3883272, "gamerTag": "jazzman", "prefix": "jack", "user": {"location": {"city": "Athens", "state": "GA", "country": "United States"}}}}]}}, {"id": 36430376, "seedNum": 10, "entrant": {"id": 21140846, "name": "Ford", "participants": [{"id": 19445436, "gamerTag": "Ford", "prefix": null, "user": {"location": {"city": "", "state": "GA", "country": "United States"}}, "player": {"id": 3471629, "gamerTag": "Ford", "prefix": null, "user": {"location": {"city": "", "state": "GA", "country": "United States"}}}}]}}, {"id": 36505739, "seedNum": 11, "entrant": {"id": 21191484, "name": "Jojodoss", "participants": [{"id": 19489151, "gamerTag": "Jojodoss", "prefix": null, "user": {"location": {"city": null, "state": null, "country": "United States"}}, "player": {"id": 3553592, "gamerTag": "Jojodoss", "prefix": null, "user": {"location": {"city": null, "state": null, "country": "United States"}}}}]}}, {"id": 36529221, "seedNum": 12, "entrant": {"id": 21207537, "name": "cole | Jeff", "participants": [{"id": 19503874, "gamerTag": "Jeff", "prefix": "cole", "user": {"location": {"city": "Raleigh", "state": "NC", "country": "United States"}}, "player": {"id": 1324465, "gamerTag": "Jeff", "prefix": "cole", "user": {"location": {"city": "Raleigh", "state": "NC", "country": "United States"}}}}]}}, {"id": 36505639, "seedNum": 13, "entrant": {"id": 21191378, "name": "Phryo", "participants": [{"id": 19489063, "gamerTag": "Phryo", "prefix": null, "user": {"location": {"city": "Cumming", "state": "GA", "country": "United States"}}, "player": {"id": 4690570, "gamerTag": "Phryo", "prefix": null, "user": {"location": {"city": "Cumming", "state": "GA", "country": "United States"}}}}]}}, {"id": 36439340, "seedNum": 14, "entrant": {"id": 21146992, "name": "Flan", "participants": [{"id": 19450767, "gamerTag": "Flan", "prefix": "", "user": {"location": {"city": null, "state": null, "country": "United States"}}, "player": {"id": 1992615, "gamerTag": "Flan", "prefix": "", "user": {"location": {"city": null, "state": null, "country": "United States"}}}}]}}, {"id": 36490801, "seedNum": 15, "entrant": {"id": 21182178, "name": "Surume", "participants": [{"id": 19481573, "gamerTag": "Surume", "prefix": null, "user": {"location": {"city": null, "state": "GA", "country": "United States"}}, "player": {"id": 4938866, "gamerTag": "Surume", "prefix": null, "user": {"location": {"city": null, "state": "GA", "country": "United States"}}}}]}}, {"id": 36433602, "seedNum": 17, "entrant": {"id": 21143383, "name": "Kyl3R", "participants": [{"id": 19447615, "gamerTag": "Kyl3R", "prefix": null, "user": {"location": {"city": "Atlanta", "state": "GA", "country": "United States"}}, "player": {"id": 4953547, "gamerTag": "Kyl3R", "prefix": null, "user": {"location": {"city": "Atlanta", "state": "GA", "country": "United States"}}}}]}}, {"id": 36431162, "seedNum": 16, "entrant": {"id": 21141346, "name": "Solstice", "participants": [{"id": 19445889, "gamerTag": "Solstice", "prefix": "", "user": {"location": {"city": "Atlanta", "state": null, "country": "United States"}}, "player": {"id": 4929526, "gamerTag": "Solstice", "prefix": "", "user": {"location": {"city": "Atlanta", "state": null, "country": "United States"}}}}]}}, {"id": 36505598, "seedNum": 18, "entrant": {"id": 21191337, "name": "Kachow095", "participants": [{"id": 19489022, "gamerTag": "Kachow095", "prefix": null, "user": {"location": {"city": "Atlanta", "state": "CT", "country": "United States"}}, "player": {"id": 4428706, "gamerTag": "Kachow095", "prefix": null, "user": {"location": {"city": "Atlanta", "state": "CT", "country": "United States"}}}}]}}, {"id": 36529552, "seedNum": 19, "entrant": {"id": 21207755, "name": "Regulus", "participants": [{"id": 19504074, "gamerTag": "Regulus", "prefix": "", "user": {"location": {"city": null, "state": null, "country": "United States"}}, "player": {"id": 4965032, "gamerTag": "Regulus", "prefix": "", "user": {"location": {"city": null, "state": null, "country": "United States"}}}}]}}]}}}