{"event": {"sets": {"pageInfo": {"totalPages": 3, "total": 34}, "nodes": [{"id": 93698245, "state": 3, "round": -6, "fullRoundText": "Losers Round 3", "completedAt": 1757469920, "winnerId": 21216299, "slots": [{"id": "93698245-0", "entrant": {"id": 21216299, "name": "Air | Airplanes", "participants": [{"id": 19511529, "gamerTag": "Airplanes", "prefix": "Air", "user": {"location": {"city": "Dacula", "state": "GA", "country": "United States"}}, "player": {"id": 3872614, "gamerTag": "Airplanes", "prefix": "Air", "user": {"location": {"city": "Dacula", "state": "GA", "country": "United States"}}}}]}, "standing": {"placement": 1, "stats": {"score": {"value": 3}}}}, {"id": "93698245-1", "entrant": {"id": 21217182, "name": "Envy", "participants": [{"id": 19512275, "gamerTag": "Envy", "prefix": null, "user": {"location": {"city": "Dallas", "state": "GA", "country": "United States"}}, "player": {"id": 1940158, "gamerTag": "Envy", "prefix": null, "user": {"location": {"city": "Dallas", "state": "GA", "country": "United States"}}}}]}, "standing": {"placement": 2, "stats": {"score": {"value": 1}}}}], "games": null}, {"id": 93698246, "state": 3, "round": -6, "fullRoundText": "Losers Round 3", "completedAt": 1757468722, "winnerId": 21214827, "slots": [{"id": "93698246-0", "entrant": {"id": 21214827, "name": "4o4 | Yugo", "participants": [{"id": 19510271, "gamerTag": "Yugo", "prefix": "4o4", "user": {"location": {"city": "Sandy springs", "state": "GA", "country": "United States"}}, "player": {"id": 338020, "gamerTag": "Yugo", "prefix": "4o4", "user": {"location": {"city": "Sandy springs", "state": "GA", "country": "United States"}}}}]}, "standing": {"placement": 1, "stats": {"score": {"value": 3}}}}, {"id": "93698246-1", "entrant": {"id": 21216943, "name": "4o4 | Bakuryu", "participants": [{"id": 19512085, "gamerTag": "Bakuryu", "prefix": "4o4", "user": {"location": {"city": "Marietta", "state": "GA", "country": "United States"}}, "player": {"id": 337943, "gamerTag": "Bakuryu", "prefix": "4o4", "user": {"location": {"city": "Marietta", "state": "GA", "country": "United States"}}}}]}, "standing": {"placement": 2, "stats": {"score": {"value": 1}}}}], "games": null}, {"id": 93698243, "state": 3, "round": -6, "fullRoundText": "Losers Round 3", "completedAt": 1757468286, "winnerId": 21213671, "slots": [{"id": "93698243-0", "entrant": {"id": 21218013, "name": "4o4 | chrisymandias", "participants": [{"id": 19512995, "gamerTag": "chrisymandias", "prefix": "4o4", "user": {"location": {"city": "Dacula", "state": "GA", "country": "United States"}}, "player": {"id": 258173, "gamerTag": "chrisymandias", "prefix": "4o4", "user": {"location": {"city": "Dacula", "state": "GA", "country": "United States"}}}}]}, "standing": {"placement": 2, "stats": {"score": {"value": 1}}}}, {"id": "93698243-1", "entrant": {"id": 21213671, "name": "Noodle", "participants": [{"id": 19509259, "gamerTag": "Noodle", "prefix": "", "user": {"location": {"city": "McDonough", "state": "GA", "country": "United States"}}, "player": {"id": 3029288, "gamerTag": "Noodle", "prefix": "", "user": {"location": {"city": "McDonough", "state": "GA", "country": "United States"}}}}]}, "standing": {"placement": 1, "stats": {"score": {"value": 3}}}}], "games": null}, {"id": 93698239, "state": 3, "round": -5, "fullRoundText": "Losers Round 2", "completedAt": 1757467732, "winnerId": 21213671, "slots": [{"id": "93698239-0", "entrant": {"id": 21213671, "name": "Noodle", "participants": [{"id": 19509259, "gamerTag": "Noodle", "prefix": "", "user": {"location": {"city": "McDonough", "state": "GA", "country": "United States"}}, "player": {"id": 3029288, "gamerTag": "Noodle", "prefix": "", "user": {"location": {"city": "McDonough", "state": "GA", "country": "United States"}}}}]}, "standing": {"placement": 1, "stats": {"score": {"value": 3}}}}, {"id": "93698239-1", "entrant": {"id": 21217117, "name": "Leon Nights", "participants": [{"id": 19512227, "gamerTag": "Leon Nights", "prefix": null, "user": {"location": {"city": "Atlanta", "state": "GA", "country": "United States"}}, "player": {"id": 4752335, "gamerTag": "Leon Nights", "prefix": null, "user": {"location": {"city": "Atlanta", "state": "GA", "country": "United States"}}}}]}, "standing": {"placement": 2, "stats": {"score": {"value": 2}}}}], "games": null}, {"id": 93698240, "state": 3, "round": -5, "fullRoundText": "Losers Round 2", "completedAt": 1757466900, "winnerId": 21217867, "slots": [{"id": "93698240-0", "entrant": {"id": 21217867, "name": "Archway", "participants": [{"id": 19512858, "gamerTag": "Archway", "prefix": "", "user": {"location": {"city": "Sandy Springs", "state": "GA", "country": "United States"}}, "player": {"id": 1435251, "gamerTag": "Archway", "prefix": "", "user": {"location": {"city": "Sandy Springs", "state": "GA", "country": "United States"}}}}]}, "standing": {"placement": 1, "stats": {"score": {"value": 3}}}}, {"id": "93698240-1", "entrant": {"id": 21217995, "name": "ToBeFrank | FF | SLAYlor Moon", "participants": [{"id": 19512978, "gamerTag": "SLAYlor Moon", "prefix": "ToBeFrank | FF", "user": {"location": {"city": "Atlanta", "state": "GA", "country": "United States"}}, "player": {"id": 267007, "gamerTag": "SLAYlor Moon", "prefix": "ToBeFrank | FF", "user": {"location": {"city": "Atlanta", "state": "GA", "country": "United States"}}}}]}, "standing": {"placement": 2, "stats": {"score": {"value": 0}}}}], "games": null}, {"id": 93698241, "state": 3, "round": -5, "fullRoundText": "Losers Round 2", "completedAt": 1757469274, "winnerId": 21217182, "slots": [{"id": "93698241-0", "entrant": {"id": 21217182, "name": "Envy", "participants": [{"id": 19512275, "gamerTag": "Envy", "prefix": null, "user": {"location": {"city": "Dallas", "state": "GA", "country": "United States"}}, "player": {"id": 1940158, "gamerTag": "Envy", "prefix": null, "user": {"location": {"city": "Dallas", "state": "GA", "country": "United States"}}}}]}, "standing": {"placement": 1, "stats": {"score": {"value": 3}}}}, {"id": "93698241-1", "entrant": {"id": 21212097, "name": "Xangief", "participants": [{"id": 19507895, "gamerTag": "Xangief", "prefix": null, "user": {"location": {"city": "Atlanta", "state": "GA", "country": "United States"}}, "player": {"id": 135082, "gamerTag": "Xangief", "prefix": null, "user": {"location": {"city": "Atlanta", "state": "GA", "country": "United States"}}}}]}, "standing": {"placement": 2, "stats": {"score": {"value": 0}}}}], "games": null}, {"id": 93698242, "state": 3, "round": -5, "fullRoundText": "Losers Round 2", "completedAt": 1757467038, "winnerId": 21216943, "slots": [{"id": "93698242-0", "entrant": {"id": 21216943, "name": "4o4 | Bakuryu", "participants": [{"id": 19512085, "gamerTag": "Bakuryu", "prefix": "4o4", "user": {"location": {"city": "Marietta", "state": "GA", "country": "United States"}}, "player": {"id": 337943, "gamerTag": "Bakuryu", "prefix": "4o4", "user": {"location": {"city": "Marietta", "state": "GA", "country": "United States"}}}}]}, "standing": {"placement": 1, "stats": {"score": {"value": 3}}}}, {"id": "93698242-1", "entrant": {"id": 21214016, "name": "BetrayedPrince", "participants": [{"id": 19509525, "gamerTag": "BetrayedPrince", "prefix": null, "user": {"location": {"city": "McDonough", "state": "GA", "country": "United States"}}, "player": {"id": 211543, "gamerTag": "BetrayedPrince", "prefix": null, "user": {"location": {"city": "McDonough", "state": "GA", "country": "United States"}}}}]}, "standing": {"placement": 2, "stats": {"score": {"value": 1}}}}], "games": null}, {"id": 93698174, "state": 3, "round": 2, "fullRoundText": "Winners Round 2", "completedAt": 1757466240, "winnerId": 21218376, "slots": [{"id": "93698174-0", "entrant": {"id": 21218376, "name": "Alex_dotdot", "participants": [{"id": 19513305, "gamerTag": "Alex_dotdot", "prefix": null, "user": {"location": {"city": "Tucker", "state": "GA", "country": "United States"}}, "player": {"id": 657023, "gamerTag": "Alex_dotdot", "prefix": null, "user": {"location": {"city": "Tucker", "state": "GA", "country": "United States"}}}}]}, "standing": {"placement": 1, "stats": {"score": {"value": 3}}}}, {"id": "93698174-1", "entrant": {"id": 21214016, "name": "BetrayedPrince", "participants": [{"id": 19509525, "gamerTag": "BetrayedPrince", "prefix": null, "user": {"location": {"city": "McDonough", "state": "GA", "country": "United States"}}, "player": {"id": 211543, "gamerTag": "BetrayedPrince", "prefix": null, "user": {"location": {"city": "McDonough", "state": "GA", "country": "United States"}}}}]}, "standing": {"placement": 2, "stats": {"score": {"value": 0}}}}], "games": null}, {"id": 93698175, "state": 3, "round": 2, "fullRoundText": "Winners Round 2", "completedAt": 1757465681, "winnerId": 21214297, "slots": [{"id": "93698175-0", "entrant": {"id": 21214297, "name": "Stachington", "participants": [{"id": 19509803, "gamerTag": "Stachington", "prefix": null, "user": {"location": {"city": "Columbus", "state": "GA", "country": "United States"}}, "player": {"id": 138010, "gamerTag": "Stachington", "prefix": null, "user": {"location": {"city": "Columbus", "state": "GA", "country": "United States"}}}}]}, "standing": {"placement": 1, "stats": {"score": {"value": 3}}}}, {"id": "93698175-1", "entrant": {"id": 21216943, "name": "4o4 | Bakuryu", "participants": [{"id": 19512085, "gamerTag": "Bakuryu", "prefix": "4o4", "user": {"location": {"city": "Marietta", "state": "GA", "country": "United States"}}, "player": {"id": 337943, "gamerTag": "Bakuryu", "prefix": "4o4", "user": {"location": {"city": "Marietta", "state": "GA", "country": "United States"}}}}]}, "standing": {"placement": 2, "stats": {"score": {"value": 0}}}}], "games": null}, {"id": 93698176, "state": 3, "round": 2, "fullRoundText": "Winners Round 2", "completedAt": 1757465642, "winnerId": 21218013, "slots": [{"id": "93698176-0", "entrant": {"id": 21218013, "name": "4o4 | chrisymandias", "participants": [{"id": 19512995, "gamerTag": "chrisymandias", "prefix": "4o4", "user": {"location": {"city": "Dacula", "state": "GA", "country": "United States"}}, "player": {"id": 258173, "gamerTag": "chrisymandias", "prefix": "4o4", "user": {"location": {"city": "Dacula", "state": "GA", "country": "United States"}}}}]}, "standing": {"placement": 1, "stats": {"score": {"value": 3}}}}, {"id": "93698176-1", "entrant": {"id": 21212097, "name": "Xangief", "participants": [{"id": 19507895, "gamerTag": "Xangief", "prefix": null, "user": {"location": {"city": "Atlanta", "state": "GA", "country": "United States"}}, "player": {"id": 135082, "gamerTag": "Xangief", "prefix": null, "user": {"location": {"city": "Atlanta", "state": "GA", "country": "United States"}}}}]}, "standing": {"placement": 2, "stats": {"score": {"value": 0}}}}], "games": null}, {"id": 93698177, "state": 3, "round": 2, "fullRoundText": "Winners Round 2", "completedAt": 1757467014, "winnerId": 21217127, "slots": [{"id": "93698177-0", "entrant": {"id": 21217127, "name": "Burboovas", "participants": [{"id": 19512234, "gamerTag": "Burboovas", "prefix": null, "user": {"location": {"city": null, "state": null, "country": null}}, "player": {"id": 3927191, "gamerTag": "Burboovas", "prefix": null, "user": {"location": {"city": null, "state": null, "country": null}}}}]}, "standing": {"placement": 1, "stats": {"score": {"value": 3}}}}, {"id": "93698177-1", "entrant": {"id": 21217182, "name": "Envy", "participants": [{"id": 19512275, "gamerTag": "Envy", "prefix": null, "user": {"location": {"city": "Dallas", "state": "GA", "country": "United States"}}, "player": {"id": 1940158, "gamerTag": "Envy", "prefix": null, "user": {"location": {"city": "Dallas", "state": "GA", "country": "United States"}}}}]}, "standing": {"placement": 2, "stats": {"score": {"value": 0}}}}], "games": null}, {"id": 93698178, "state": 3, "round": 2, "fullRoundText": "Winners Round 2", "completedAt": 1757466165, "winnerId": 21218194, "slots": [{"id": "93698178-0", "entrant": {"id": 21218194, "name": "4o4 | Musa", "participants": [{"id": 19513154, "gamerTag": "Musa", "prefix": "4o4", "user": {"location": {"city": null, "state": null, "country": "United States"}}, "player": {"id": 131537, "gamerTag": "Musa", "prefix": "4o4", "user": {"location": {"city": null, "state": null, "country": "United States"}}}}]}, "standing": {"placement": 1, "stats": {"score": {"value": 3}}}}, {"id": "93698178-1", "entrant": {"id": 21217995, "name": "ToBeFrank | FF | SLAYlor Moon", "participants": [{"id": 19512978, "gamerTag": "SLAYlor Moon", "prefix": "ToBeFrank | FF", "user": {"location": {"city": "Atlanta", "state": "GA", "country": "United States"}}, "player": {"id": 267007, "gamerTag": "SLAYlor Moon", "prefix": "ToBeFrank | FF", "user": {"location": {"city": "Atlanta", "state": "GA", "country": "United States"}}}}]}, "standing": {"placement": 2, "stats": {"score": {"value": 0}}}}], "games": null}, {"id": 93698179, "state": 3, "round": 2, "fullRoundText": "Winners Round 2", "completedAt": 1757466311, "winnerId": 21214827, "slots": [{"id": "93698179-0", "entrant": {"id": 21214827, "name": "4o4 | Yugo", "participants": [{"id": 19510271, "gamerTag": "Yugo", "prefix": "4o4", "user": {"location": {"city": "Sandy springs", "state": "GA", "country": "United States"}}, "player": {"id": 338020, "gamerTag": "Yugo", "prefix": "4o4", "user": {"location": {"city": "Sandy springs", "state": "GA", "country": "United States"}}}}]}, "standing": {"placement": 1, "stats": {"score": {"value": 3}}}}, {"id": "93698179-1", "entrant": {"id": 21217867, "name": "Archway", "participants": [{"id": 19512858, "gamerTag": "Archway", "prefix": "", "user": {"location": {"city": "Sandy Springs", "state": "GA", "country": "United States"}}, "player": {"id": 1435251, "gamerTag": "Archway", "prefix": "", "user": {"location": {"city": "Sandy Springs", "state": "GA", "country": "United States"}}}}]}, "standing": {"placement": 2, "stats": {"score": {"value": 0}}}}], "games": null}, {"id": 93698180, "state": 3, "round": 2, "fullRoundText": "Winners Round 2", "completedAt": 1757466371, "winnerId": 21149558, "slots": [{"id": "93698180-0", "entrant": {"id": 21149558, "name": "Buddylikefriend", "participants": [{"id": 19452941, "gamerTag": "Buddylikefriend", "prefix": null, "user": {"location": {"city": "Atlanta", "state": "GA", "country": "United States"}}, "player": {"id": 785557, "gamerTag": "Buddylikefriend", "prefix": null, "user": {"location": {"city": "Atlanta", "state": "GA", "country": "United States"}}}}]}, "standing": {"placement": 1, "stats": {"score": {"value": 3}}}}, {"id": "93698180-1", "entrant": {"id": 21217117, "name": "Leon Nights", "participants": [{"id": 19512227, "gamerTag": "Leon Nights", "prefix": null, "user": {"location": {"city": "Atlanta", "state": "GA", "country": "United States"}}, "player": {"id": 4752335, "gamerTag": "Leon Nights", "prefix": null, "user": {"location": {"city": "Atlanta", "state": "GA", "country": "United States"}}}}]}, "standing": {"placement": 2, "stats": {"score": {"value": 0}}}}], "games": null}, {"id": 93698181, "state": 3, "round": 2, "fullRoundText": "Winners Round 2", "completedAt": 1757465893, "winnerId": 21216299, "slots": [{"id": "93698181-0", "entrant": {"id": 21213671, "name": "Noodle", "participants": [{"id": 19509259, "gamerTag": "Noodle", "prefix": "", "user": {"location": {"city": "McDonough", "state": "GA", "country": "United States"}}, "player": {"id": 3029288, "gamerTag": "Noodle", "prefix": "", "user": {"location": {"city": "McDonough", "state": "GA", "country": "United States"}}}}]}, "standing": {"placement": 2, "stats": {"score": {"value": 1}}}}, {"id": "93698181-1", "entrant": {"id": 21216299, "name": "Air | Airplanes", "participants": [{"id": 19511529, "gamerTag": "Airplanes", "prefix": "Air", "user": {"location": {"city": "Dacula", "state": "GA", "country": "United States"}}, "player": {"id": 3872614, "gamerTag": "Airplanes", "prefix": "Air", "user": {"location": {"city": "Dacula", "state": "GA", "country": "United States"}}}}]}, "standing": {"placement": 1, "stats": {"score": {"value": 3}}}}], "games": null}]}}}