{"event": {"sets": {"pageInfo": {"totalPages": 5, "total": 70}, "nodes": [{"id": 92698844, "state": 3, "round": 1, "fullRoundText": "Winners Round 1", "completedAt": 1755304794, "winnerId": 20981620, "slots": [{"id": "92698844-0", "entrant": {"id": 20981620, "name": "RAMS | XL Dukie AF", "participants": [{"id": 19302075, "gamerTag": "XL Dukie AF", "prefix": "RAMS", "user": {"location": {"city": "Peachtree Corners", "state": "GA", "country": "United States"}}, "player": {"id": 2374690, "gamerTag": "XL Dukie AF", "prefix": "RAMS", "user": {"location": {"city": "Peachtree Corners", "state": "GA", "country": "United States"}}}}]}, "standing": {"placement": 1, "stats": {"score": {"value": 2}}}}, {"id": "92698844-1", "entrant": {"id": 20976980, "name": "Spenzobenzo", "participants": [{"id": 19298009, "gamerTag": "Spenzobenzo", "prefix": "", "user": {"location": {"city": "Stone Mountain", "state": "GA", "country": "United States"}}, "player": {"id": 4924927, "gamerTag": "Spenzobenzo", "prefix": "", "user": {"location": {"city": "Stone Mountain", "state": "GA", "country": "United States"}}}}]}, "standing": {"placement": 2, "stats": {"score": {"value": 0}}}}], "games": null}, {"id": 92707901, "state": 3, "round": 1, "fullRoundText": "Winners Semi-Final", "completedAt": 1755312618, "winnerId": 20844612, "slots": [{"id": "92707901-0", "entrant": {"id": 20844612, "name": "Ave~", "participants": [{"id": 19181310, "gamerTag": "Ave~", "prefix": "", "user": {"location": {"city": null, "state": null, "country": null}}, "player": {"id": 38830, "gamerTag": "Ave~", "prefix": "", "user": {"location": {"city": null, "state": null, "country": null}}}}]}, "standing": {"placement": 1, "stats": {"score": {"value": 2}}}}, {"id": "92707901-1", "entrant": {"id": 20883196, "name": "RM | WFF | Cyax~", "participants": [{"id": 19215694, "gamerTag": "Cyax~", "prefix": "RM | WFF", "user": {"location": {"city": "atlanta", "state": "GA", "country": "United States"}}, "player": {"id": 1230555, "gamerTag": "Sakruoi", "prefix": "RM | WFF", "user": {"location": {"city": "atlanta", "state": "GA", "country": "United States"}}}}]}, "standing": {"placement": 2, "stats": {"score": {"value": 0}}}}], "games": null}, {"id": 92698749, "state": 3, "round": 1, "fullRoundText": "Winners Round 1", "completedAt": 1755303082, "winnerId": 20980353, "slots": [{"id": "92698749-0", "entrant": {"id": 20980353, "name": "Hollybot", "participants": [{"id": 19301024, "gamerTag": "Hollybot", "prefix": null, "user": {"location": {"city": "Atlanta", "state": "GA", "country": "United States"}}, "player": {"id": 4431125, "gamerTag": "Hollybot", "prefix": null, "user": {"location": {"city": "Atlanta", "state": "GA", "country": "United States"}}}}]}, "standing": {"placement": 1, "stats": {"score": {"value": 2}}}}, {"id": "92698749-1", "entrant": {"id": 20980595, "name": "itsmerashad", "participants": [{"id": 19301227, "gamerTag": "itsmerashad", "prefix": "", "user": null, "player": {"id": 4925484, "gamerTag": "itsmerashad", "prefix": "", "user": null}}]}, "standing": {"placement": 2, "stats": {"score": {"value": 0}}}}], "games": null}, {"id": 92698852, "state": 3, "round": 1, "fullRoundText": "Winners Round 1", "completedAt": 1755303289, "winnerId": 20978676, "slots": [{"id": "92698852-0", "entrant": {"id": 20978676, "name": "Skittles", "participants": [{"id": 19299545, "gamerTag": "Skittles", "prefix": "", "user": {"location": {"city": "Kennesaw", "state": "GA", "country": "United States"}}, "player": {"id": 4621888, "gamerTag": "Skittles", "prefix": "", "user": {"location": {"city": "Kennesaw", "state": "GA", "country": "United States"}}}}]}, "standing": {"placement": 1, "stats": {"score": {"value": null}}}}, {"id": "92698852-1", "entrant": {"id": 20981120, "name": "Simple and Mean", "participants": [{"id": 19301692, "gamerTag": "Simple and Mean", "prefix": "", "user": null, "player": {"id": 4925545, "gamerTag": "Simple and Mean", "prefix": "", "user": null}}]}, "standing": {"placement": 2, "stats": {"score": {"value": -1}}}}], "games": null}, {"id": 92698757, "state": 3, "round": 1, "fullRoundText": "Winners Round 1", "completedAt": 1755303277, "winnerId": 20980584, "slots": [{"id": "92698757-0", "entrant": {"id": 20980584, "name": "Hennyjuice", "participants": [{"id": 19301218, "gamerTag": "Hennyjuice", "prefix": "", "user": {"location": {"city": "Athens", "state": "GA", "country": "United States"}}, "player": {"id": 1415412, "gamerTag": "Hennyjuice", "prefix": "", "user": {"location": {"city": "Athens", "state": "GA", "country": "United States"}}}}]}, "standing": {"placement": 1, "stats": {"score": {"value": 2}}}}, {"id": "92698757-1", "entrant": {"id": 20980267, "name": "PrivilegeTaker", "participants": [{"id": 19300957, "gamerTag": "PrivilegeTaker", "prefix": null, "user": {"location": {"city": "Stone Mountain", "state": "GA", "country": "United States"}}, "player": {"id": 4925428, "gamerTag": "PrivilegeTaker", "prefix": null, "user": {"location": {"city": "Stone Mountain", "state": "GA", "country": "United States"}}}}]}, "standing": {"placement": 2, "stats": {"score": {"value": 0}}}}], "games": null}, {"id": 92707902, "state": 3, "round": 1, "fullRoundText": "Winners Semi-Final", "completedAt": 1755312961, "winnerId": 20976640, "slots": [{"id": "92707902-0", "entrant": {"id": 20975613, "name": "Tobe", "participants": [{"id": 19296761, "gamerTag": "Tobe", "prefix": "", "user": {"location": {"city": "Buford", "state": "GA", "country": "United States"}}, "player": {"id": 1646132, "gamerTag": "Tobe", "prefix": "", "user": {"location": {"city": "Buford", "state": "GA", "country": "United States"}}}}]}, "standing": {"placement": 2, "stats": {"score": {"value": 0}}}}, {"id": "92707902-1", "entrant": {"id": 20976640, "name": "Nut Esports | | Geemoney$", "participants": [{"id": 19297673, "gamerTag": "Geemoney$", "prefix": "Nut Esports |", "user": {"location": {"city": "Jacksonville", "state": "FL", "country": "United States"}}, "player": {"id": 252344, "gamerTag": "Geemoney$", "prefix": "", "user": {"location": {"city": "Jacksonville", "state": "FL", "country": "United States"}}}}]}, "standing": {"placement": 1, "stats": {"score": {"value": 2}}}}], "games": null}, {"id": 92707916, "state": 3, "round": -4, "fullRoundText": "Losers Quarter-Final", "completedAt": 1755315388, "winnerId": 20975613, "slots": [{"id": "92707916-0", "entrant": {"id": 20975613, "name": "Tobe", "participants": [{"id": 19296761, "gamerTag": "Tobe", "prefix": "", "user": {"location": {"city": "Buford", "state": "GA", "country": "United States"}}, "player": {"id": 1646132, "gamerTag": "Tobe", "prefix": "", "user": {"location": {"city": "Buford", "state": "GA", "country": "United States"}}}}]}, "standing": {"placement": 1, "stats": {"score": {"value": 2}}}}, {"id": "92707916-1", "entrant": {"id": 20980980, "name": "GUMP2 | RoKu", "participants": [{"id": 19301565, "gamerTag": "RoKu", "prefix": "GUMP2", "user": {"location": {"city": "Peachtree Corners", "state": "GA", "country": "United States"}}, "player": {"id": 1107285, "gamerTag": "RoKu", "prefix": "TFT", "user": {"location": {"city": "Peachtree Corners", "state": "GA", "country": "United States"}}}}]}, "standing": {"placement": 2, "stats": {"score": {"value": 0}}}}], "games": null}, {"id": 92707917, "state": 3, "round": -4, "fullRoundText": "Losers Quarter-Final", "completedAt": 1755313125, "winnerId": 20942487, "slots": [{"id": "92707917-0", "entrant": {"id": 20883196, "name": "RM | WFF | Cyax~", "participants": [{"id": 19215694, "gamerTag": "Cyax~", "prefix": "RM | WFF", "user": {"location": {"city": "atlanta", "state": "GA", "country": "United States"}}, "player": {"id": 1230555, "gamerTag": "Sakruoi", "prefix": "RM | WFF", "user": {"location": {"city": "atlanta", "state": "GA", "country": "United States"}}}}]}, "standing": {"placement": 2, "stats": {"score": {"value": 0}}}}, {"id": "92707917-1", "entrant": {"id": 20942487, "name": "4o4 | chooryu :)", "participants": [{"id": 19267970, "gamerTag": "chooryu :)", "prefix": "4o4", "user": {"location": {"city": "Kennesaw", "state": "GA", "country": "United States"}}, "player": {"id": 466564, "gamerTag": "chooryu :)", "prefix": "4o4", "user": {"location": {"city": "Kennesaw", "state": "GA", "country": "United States"}}}}]}, "standing": {"placement": 1, "stats": {"score": {"value": 2}}}}], "games": null}, {"id": 92707914, "state": 3, "round": -3, "fullRoundText": "Losers Round 1", "completedAt": 1755314272, "winnerId": 20980980, "slots": [{"id": "92707914-0", "entrant": {"id": 20980980, "name": "GUMP2 | RoKu", "participants": [{"id": 19301565, "gamerTag": "RoKu", "prefix": "GUMP2", "user": {"location": {"city": "Peachtree Corners", "state": "GA", "country": "United States"}}, "player": {"id": 1107285, "gamerTag": "RoKu", "prefix": "TFT", "user": {"location": {"city": "Peachtree Corners", "state": "GA", "country": "United States"}}}}]}, "standing": {"placement": 1, "stats": {"score": {"value": 2}}}}, {"id": "92707914-1", "entrant": {"id": 20967599, "name": "CFL | Benji", "participants": [{"id": 19289501, "gamerTag": "Benji", "prefix": "CFL", "user": {"location": {"city": "Orlando", "state": "FL", "country": "United States"}}, "player": {"id": 2990255, "gamerTag": "Benji", "prefix": "CFL", "user": {"location": {"city": "Orlando", "state": "FL", "country": "United States"}}}}]}, "standing": {"placement": 2, "stats": {"score": {"value": 1}}}}], "games": null}, {"id": 92707915, "state": 3, "round": -3, "fullRoundText": "Losers Round 1", "completedAt": 1755312609, "winnerId": 20942487, "slots": [{"id": "92707915-0", "entrant": {"id": 20942487, "name": "4o4 | chooryu :)", "participants": [{"id": 19267970, "gamerTag": "chooryu :)", "prefix": "4o4", "user": {"location": {"city": "Kennesaw", "state": "GA", "country": "United States"}}, "player": {"id": 466564, "gamerTag": "chooryu :)", "prefix": "4o4", "user": {"location": {"city": "Kennesaw", "state": "GA", "country": "United States"}}}}]}, "standing": {"placement": 1, "stats": {"score": {"value": 2}}}}, {"id": "92707915-1", "entrant": {"id": 20939293, "name": "Heart", "participants": [{"id": 19265072, "gamerTag": "Heart", "prefix": "", "user": {"location": {"city": "Atlanta", "state": "GA", "country": "United States"}}, "player": {"id": 4287822, "gamerTag": "Heart", "prefix": "", "user": {"location": {"city": "Atlanta", "state": "GA", "country": "United States"}}}}]}, "standing": {"placement": 2, "stats": {"score": {"value": 0}}}}], "games": null}]}}}