{"event": {"sets": {"pageInfo": {"totalPages": 4, "total": 55}, "nodes": [{"id": 93154484, "state": 3, "round": -6, "fullRoundText": "Losers Round 4", "completedAt": 1756344383, "winnerId": 21089715, "slots": [{"id": "93154484-0", "entrant": {"id": 21094036, "name": "Rel", "participants": [{"id": 19403130, "gamerTag": "Rel", "prefix": "", "user": {"location": {"city": "Atlanta", "state": null, "country": "United States"}}, "player": {"id": 2774889, "gamerTag": "Rel", "prefix": "", "user": {"location": {"city": "Atlanta", "state": null, "country": "United States"}}}}]}, "standing": {"placement": 2, "stats": {"score": {"value": 0}}}}, {"id": "93154484-1", "entrant": {"id": 21089715, "name": "MeanestPeen", "participants": [{"id": 19399173, "gamerTag": "MeanestPeen", "prefix": null, "user": {"location": {"city": null, "state": null, "country": null}}, "player": {"id": 2478267, "gamerTag": "MeanestPeen", "prefix": null, "user": {"location": {"city": null, "state": null, "country": null}}}}]}, "standing": {"placement": 1, "stats": {"score": {"value": 2}}}}], "games": null}, {"id": 93154485, "state": 3, "round": -6, "fullRoundText": "Losers Round 4", "completedAt": 1756344945, "winnerId": 21094331, "slots": [{"id": "93154485-0", "entrant": {"id": 21094331, "name": "100% | juice", "participants": [{"id": 19403412, "gamerTag": "juice", "prefix": "100%", "user": {"location": {"city": "atlanta", "state": "GA", "country": "United States"}}, "player": {"id": 146905, "gamerTag": "juice", "prefix": "100%", "user": {"location": {"city": "atlanta", "state": "GA", "country": "United States"}}}}]}, "standing": {"placement": 1, "stats": {"score": {"value": 2}}}}, {"id": "93154485-1", "entrant": {"id": 21095013, "name": "ToBeFrank | FF | SLAYlor Moon", "participants": [{"id": 19402206, "gamerTag": "SLAYlor Moon", "prefix": "ToBeFrank | FF", "user": {"location": {"city": "Atlanta", "state": "GA", "country": "United States"}}, "player": {"id": 267007, "gamerTag": "SLAYlor Moon", "prefix": "ToBeFrank | FF", "user": {"location": {"city": "Atlanta", "state": "GA", "country": "United States"}}}}]}, "standing": {"placement": 2, "stats": {"score": {"value": 0}}}}], "games": null}, {"id": 93154486, "state": 3, "round": -6, "fullRoundText": "Losers Round 4", "completedAt": 1756344590, "winnerId": 21089852, "slots": [{"id": "93154486-0", "entrant": {"id": 21089852, "name": "StrataJay", "participants": [{"id": 19399299, "gamerTag": "StrataJay", "prefix": "", "user": {"location": {"city": "Grayson", "state": "GA", "country": "United States"}}, "player": {"id": 1112189, "gamerTag": "StrataJay", "prefix": "", "user": {"location": {"city": "Grayson", "state": "GA", "country": "United States"}}}}]}, "standing": {"placement": 1, "stats": {"score": {"value": 2}}}}, {"id": "93154486-1", "entrant": {"id": 21094245, "name": "Owen Dos | BlackHeart", "participants": [{"id": 19403335, "gamerTag": "BlackHeart", "prefix": "Owen Dos", "user": {"location": {"city": "Buford", "state": "GA", "country": "United States"}}, "player": {"id": 2228433, "gamerTag": "BlackHeart", "prefix": "Owen Dos", "user": {"location": {"city": "Buford", "state": "GA", "country": "United States"}}}}]}, "standing": {"placement": 2, "stats": {"score": {"value": 0}}}}], "games": null}, {"id": 93154487, "state": 3, "round": -6, "fullRoundText": "Losers Round 4", "completedAt": 1756344450, "winnerId": 21091742, "slots": [{"id": "93154487-0", "entrant": {"id": 21091742, "name": "BOLT | KhalRhaego", "participants": [{"id": 19401056, "gamerTag": "KhalRhaego", "prefix": "BOLT", "user": {"location": {"city": "Jonesboro", "state": "GA", "country": "United States"}}, "player": {"id": 4076327, "gamerTag": "KhalRhaego", "prefix": "BOLT", "user": {"location": {"city": "Jonesboro", "state": "GA", "country": "United States"}}}}]}, "standing": {"placement": 1, "stats": {"score": {"value": 2}}}}, {"id": "93154487-1", "entrant": {"id": 21094589, "name": "Iso.Dgaf", "participants": [{"id": 19403658, "gamerTag": "Iso.Dgaf", "prefix": null, "user": {"location": {"city": "Acworth", "state": "GA", "country": "United States"}}, "player": {"id": 4285541, "gamerTag": "Iso.Dgaf", "prefix": null, "user": {"location": {"city": "Acworth", "state": "GA", "country": "United States"}}}}]}, "standing": {"placement": 2, "stats": {"score": {"value": 0}}}}], "games": null}, {"id": 93154480, "state": 3, "round": -5, "fullRoundText": "Losers Round 3", "completedAt": 1756343235, "winnerId": 21089715, "slots": [{"id": "93154480-0", "entrant": {"id": 21094864, "name": "SatsuiNoGoku", "participants": [{"id": 19403883, "gamerTag": "SatsuiNoGoku", "prefix": null, "user": {"location": {"city": "Lawrenceville", "state": "GA", "country": "United States"}}, "player": {"id": 3449672, "gamerTag": "SatsuiNoGoku", "prefix": null, "user": {"location": {"city": "Lawrenceville", "state": "GA", "country": "United States"}}}}]}, "standing": {"placement": 2, "stats": {"score": {"value": 0}}}}, {"id": "93154480-1", "entrant": {"id": 21089715, "name": "MeanestPeen", "participants": [{"id": 19399173, "gamerTag": "MeanestPeen", "prefix": null, "user": {"location": {"city": null, "state": null, "country": null}}, "player": {"id": 2478267, "gamerTag": "MeanestPeen", "prefix": null, "user": {"location": {"city": null, "state": null, "country": null}}}}]}, "standing": {"placement": 1, "stats": {"score": {"value": 2}}}}], "games": null}, {"id": 93154481, "state": 3, "round": -5, "fullRoundText": "Losers Round 3", "completedAt": 1756344102, "winnerId": 21095013, "slots": [{"id": "93154481-0", "entrant": {"id": 21094610, "name": "Cloud9Savage", "participants": [{"id": 19403679, "gamerTag": "Cloud9Savage", "prefix": null, "user": {"location": {"city": "McDonough", "state": "GA", "country": "United States"}}, "player": {"id": 4395697, "gamerTag": "Cloud9Savage", "prefix": null, "user": {"location": {"city": "McDonough", "state": "GA", "country": "United States"}}}}]}, "standing": {"placement": 2, "stats": {"score": {"value": 0}}}}, {"id": "93154481-1", "entrant": {"id": 21095013, "name": "ToBeFrank | FF | SLAYlor Moon", "participants": [{"id": 19402206, "gamerTag": "SLAYlor Moon", "prefix": "ToBeFrank | FF", "user": {"location": {"city": "Atlanta", "state": "GA", "country": "United States"}}, "player": {"id": 267007, "gamerTag": "SLAYlor Moon", "prefix": "ToBeFrank | FF", "user": {"location": {"city": "Atlanta", "state": "GA", "country": "United States"}}}}]}, "standing": {"placement": 1, "stats": {"score": {"value": 2}}}}], "games": null}, {"id": 93154482, "state": 3, "round": -5, "fullRoundText": "Losers Round 3", "completedAt": 1756343926, "winnerId": 21094245, "slots": [{"id": "93154482-0", "entrant": {"id": 21092667, "name": "Free | Sereni", "participants": [{"id": 19401894, "gamerTag": "Sereni", "prefix": "Free", "user": {"location": {"city": null, "state": null, "country": "United States"}}, "player": {"id": 482535, "gamerTag": "Sereni", "prefix": "Free", "user": {"location": {"city": null, "state": null, "country": "United States"}}}}]}, "standing": {"placement": 2, "stats": {"score": {"value": 0}}}}, {"id": "93154482-1", "entrant": {"id": 21094245, "name": "Owen Dos | BlackHeart", "participants": [{"id": 19403335, "gamerTag": "BlackHeart", "prefix": "Owen Dos", "user": {"location": {"city": "Buford", "state": "GA", "country": "United States"}}, "player": {"id": 2228433, "gamerTag": "BlackHeart", "prefix": "Owen Dos", "user": {"location": {"city": "Buford", "state": "GA", "country": "United States"}}}}]}, "standing": {"placement": 1, "stats": {"score": {"value": 2}}}}], "games": null}, {"id": 93154483, "state": 3, "round": -5, "fullRoundText": "Losers Round 3", "completedAt": 1756343410, "winnerId": 21094589, "slots": [{"id": "93154483-0", "entrant": {"id": 21094589, "name": "Iso.Dgaf", "participants": [{"id": 19403658, "gamerTag": "Iso.Dgaf", "prefix": null, "user": {"location": {"city": "Acworth", "state": "GA", "country": "United States"}}, "player": {"id": 4285541, "gamerTag": "Iso.Dgaf", "prefix": null, "user": {"location": {"city": "Acworth", "state": "GA", "country": "United States"}}}}]}, "standing": {"placement": 1, "stats": {"score": {"value": 2}}}}, {"id": "93154483-1", "entrant": {"id": 21091949, "name": "Aneubys", "participants": [{"id": 19401232, "gamerTag": "Aneubys", "prefix": "", "user": {"location": {"city": "Smyrna", "state": "GA", "country": "United States"}}, "player": {"id": 3901259, "gamerTag": "Aneubys", "prefix": "", "user": {"location": {"city": "Smyrna", "state": "GA", "country": "United States"}}}}]}, "standing": {"placement": 2, "stats": {"score": {"value": 1}}}}], "games": null}, {"id": 93154415, "state": 3, "round": 2, "fullRoundText": "Winners Round 2", "completedAt": 1756341495, "winnerId": 21094713, "slots": [{"id": "93154415-0", "entrant": {"id": 21094713, "name": "Genghis D0n", "participants": [{"id": 19403767, "gamerTag": "Genghis D0n", "prefix": "", "user": {"location": {"city": "Atlanta", "state": "GA", "country": "United States"}}, "player": {"id": 724224, "gamerTag": "Genghis D0n", "prefix": "", "user": {"location": {"city": "Atlanta", "state": "GA", "country": "United States"}}}}]}, "standing": {"placement": 1, "stats": {"score": {"value": 2}}}}, {"id": "93154415-1", "entrant": {"id": 21091949, "name": "Aneubys", "participants": [{"id": 19401232, "gamerTag": "Aneubys", "prefix": "", "user": {"location": {"city": "Smyrna", "state": "GA", "country": "United States"}}, "player": {"id": 3901259, "gamerTag": "Aneubys", "prefix": "", "user": {"location": {"city": "Smyrna", "state": "GA", "country": "United States"}}}}]}, "standing": {"placement": 2, "stats": {"score": {"value": 0}}}}], "games": null}, {"id": 93154416, "state": 3, "round": 2, "fullRoundText": "Winners Round 2", "completedAt": 1756342119, "winnerId": 21094331, "slots": [{"id": "93154416-0", "entrant": {"id": 21094589, "name": "Iso.Dgaf", "participants": [{"id": 19403658, "gamerTag": "Iso.Dgaf", "prefix": null, "user": {"location": {"city": "Acworth", "state": "GA", "country": "United States"}}, "player": {"id": 4285541, "gamerTag": "Iso.Dgaf", "prefix": null, "user": {"location": {"city": "Acworth", "state": "GA", "country": "United States"}}}}]}, "standing": {"placement": 2, "stats": {"score": {"value": 0}}}}, {"id": "93154416-1", "entrant": {"id": 21094331, "name": "100% | juice", "participants": [{"id": 19403412, "gamerTag": "juice", "prefix": "100%", "user": {"location": {"city": "atlanta", "state": "GA", "country": "United States"}}, "player": {"id": 146905, "gamerTag": "juice", "prefix": "100%", "user": {"location": {"city": "atlanta", "state": "GA", "country": "United States"}}}}]}, "standing": {"placement": 1, "stats": {"score": {"value": 2}}}}], "games": null}, {"id": 93154417, "state": 3, "round": 2, "fullRoundText": "Winners Round 2", "completedAt": 1756342597, "winnerId": 21094036, "slots": [{"id": "93154417-0", "entrant": {"id": 21094036, "name": "Rel", "participants": [{"id": 19403130, "gamerTag": "Rel", "prefix": "", "user": {"location": {"city": "Atlanta", "state": null, "country": "United States"}}, "player": {"id": 2774889, "gamerTag": "Rel", "prefix": "", "user": {"location": {"city": "Atlanta", "state": null, "country": "United States"}}}}]}, "standing": {"placement": 1, "stats": {"score": {"value": 2}}}}, {"id": "93154417-1", "entrant": {"id": 21093861, "name": "C-2", "participants": [{"id": 19402969, "gamerTag": "C-2", "prefix": "", "user": {"location": {"city": "Atlanta", "state": "GA", "country": "United States"}}, "player": {"id": 1228856, "gamerTag": "C-2", "prefix": "", "user": {"location": {"city": "Atlanta", "state": "GA", "country": "United States"}}}}]}, "standing": {"placement": 2, "stats": {"score": {"value": 1}}}}], "games": null}, {"id": 93154418, "state": 3, "round": 2, "fullRoundText": "Winners Round 2", "completedAt": 1756342272, "winnerId": 21094269, "slots": [{"id": "93154418-0", "entrant": {"id": 21094269, "name": "duetosideeffects", "participants": [{"id": 19403358, "gamerTag": "duetosideeffects", "prefix": "", "user": {"location": {"city": "Atlanta", "state": "GA", "country": "United States"}}, "player": {"id": 924041, "gamerTag": "duetosideeffects", "prefix": "", "user": {"location": {"city": "Atlanta", "state": "GA", "country": "United States"}}}}]}, "standing": {"placement": 1, "stats": {"score": {"value": 2}}}}, {"id": "93154418-1", "entrant": {"id": 21092667, "name": "Free | Sereni", "participants": [{"id": 19401894, "gamerTag": "Sereni", "prefix": "Free", "user": {"location": {"city": null, "state": null, "country": "United States"}}, "player": {"id": 482535, "gamerTag": "Sereni", "prefix": "Free", "user": {"location": {"city": null, "state": null, "country": "United States"}}}}]}, "standing": {"placement": 2, "stats": {"score": {"value": 0}}}}], "games": null}, {"id": 93154419, "state": 3, "round": 2, "fullRoundText": "Winners Round 2", "completedAt": 1756341567, "winnerId": 21094484, "slots": [{"id": "93154419-0", "entrant": {"id": 21094484, "name": "JJBREEZE", "participants": [{"id": 19403568, "gamerTag": "JJBREEZE", "prefix": "", "user": {"location": {"city": "Atlanta", "state": "GA", "country": "United States"}}, "player": {"id": 688460, "gamerTag": "JJBREEZE", "prefix": "", "user": {"location": {"city": "Atlanta", "state": "GA", "country": "United States"}}}}]}, "standing": {"placement": 1, "stats": {"score": {"value": 2}}}}, {"id": "93154419-1", "entrant": {"id": 21092292, "name": "PrimeStone", "participants": [{"id": 19401547, "gamerTag": "PrimeStone", "prefix": null, "user": {"location": {"city": "Loganville", "state": "GA", "country": "United States"}}, "player": {"id": 1130909, "gamerTag": "PrimeStone", "prefix": null, "user": {"location": {"city": "Loganville", "state": "GA", "country": "United States"}}}}]}, "standing": {"placement": 2, "stats": {"score": {"value": 1}}}}], "games": null}, {"id": 93154420, "state": 3, "round": 2, "fullRoundText": "Winners Round 2", "completedAt": 1756341871, "winnerId": 21091742, "slots": [{"id": "93154420-0", "entrant": {"id": 21091742, "name": "BOLT | KhalRhaego", "participants": [{"id": 19401056, "gamerTag": "KhalRhaego", "prefix": "BOLT", "user": {"location": {"city": "Jonesboro", "state": "GA", "country": "United States"}}, "player": {"id": 4076327, "gamerTag": "KhalRhaego", "prefix": "BOLT", "user": {"location": {"city": "Jonesboro", "state": "GA", "country": "United States"}}}}]}, "standing": {"placement": 1, "stats": {"score": {"value": 2}}}}, {"id": "93154420-1", "entrant": {"id": 21094610, "name": "Cloud9Savage", "participants": [{"id": 19403679, "gamerTag": "Cloud9Savage", "prefix": null, "user": {"location": {"city": "McDonough", "state": "GA", "country": "United States"}}, "player": {"id": 4395697, "gamerTag": "Cloud9Savage", "prefix": null, "user": {"location": {"city": "McDonough", "state": "GA", "country": "United States"}}}}]}, "standing": {"placement": 2, "stats": {"score": {"value": 0}}}}], "games": null}, {"id": 93154421, "state": 3, "round": 2, "fullRoundText": "Winners Round 2", "completedAt": 1756341500, "winnerId": 21093366, "slots": [{"id": "93154421-0", "entrant": {"id": 21093366, "name": "O.N.2", "participants": [{"id": 19402526, "gamerTag": "O.N.2", "prefix": "", "user": {"location": {"city": "SNELLVILLE", "state": "GA", "country": "United States"}}, "player": {"id": 1042436, "gamerTag": "O.N.2", "prefix": "", "user": {"location": {"city": "SNELLVILLE", "state": "GA", "country": "United States"}}}}]}, "standing": {"placement": 1, "stats": {"score": {"value": 2}}}}, {"id": "93154421-1", "entrant": {"id": 21089715, "name": "MeanestPeen", "participants": [{"id": 19399173, "gamerTag": "MeanestPeen", "prefix": null, "user": {"location": {"city": null, "state": null, "country": null}}, "player": {"id": 2478267, "gamerTag": "MeanestPeen", "prefix": null, "user": {"location": {"city": null, "state": null, "country": null}}}}]}, "standing": {"placement": 2, "stats": {"score": {"value": 0}}}}], "games": null}]}}}