{"event": {"sets": {"pageInfo": {"totalPages": 2, "total": 30}, "nodes": [{"id": 94389468, "state": 3, "round": -4, "fullRoundText": "Losers Round 2", "completedAt": 1758999115, "winnerId": 21345603, "slots": [{"id": "94389468-0", "entrant": {"id": 21345603, "name": "Stock Stealer | T.K.O", "participants": [{"id": 19622650, "gamerTag": "T.K.O", "prefix": "Stock Stealer", "user": {"location": {"city": "Smyrna", "state": "GA", "country": "United States"}}, "player": {"id": 4933114, "gamerTag": "T.K.O", "prefix": "Stock Stealer", "user": {"location": {"city": "Smyrna", "state": "GA", "country": "United States"}}}}]}, "standing": {"placement": 1, "stats": {"score": {"value": 2}}}}, {"id": "94389468-1", "entrant": {"id": 21353370, "name": "Dusk_", "participants": [{"id": 19629759, "gamerTag": "Dusk_", "prefix": null, "user": {"location": {"city": "Atlanta", "state": "GA", "country": "United States"}}, "player": {"id": 2095313, "gamerTag": "Dusk_", "prefix": null, "user": {"location": {"city": "Atlanta", "state": "GA", "country": "United States"}}}}]}, "standing": {"placement": 2, "stats": {"score": {"value": 0}}}}], "games": null}, {"id": 94389469, "state": 3, "round": -4, "fullRoundText": "Losers Round 2", "completedAt": 1758999368, "winnerId": 21397707, "slots": [{"id": "94389469-0", "entrant": {"id": 21345022, "name": "Scouteka", "participants": [{"id": 19622131, "gamerTag": "Scouteka", "prefix": "", "user": {"location": {"city": "Marietta", "state": "GA", "country": "United States"}}, "player": {"id": 2055957, "gamerTag": "Scouteka", "prefix": "", "user": {"location": {"city": "Marietta", "state": "GA", "country": "United States"}}}}]}, "standing": {"placement": 2, "stats": {"score": {"value": 1}}}}, {"id": "94389469-1", "entrant": {"id": 21397707, "name": "MONEY | ImNoPro", "participants": [{"id": 19668735, "gamerTag": "ImNoPro", "prefix": "MONEY", "user": {"location": {"city": "Calhoun", "state": "GA", "country": "United States"}}, "player": {"id": 2149803, "gamerTag": "ImNoPro", "prefix": "MONEY", "user": {"location": {"city": "Calhoun", "state": "GA", "country": "United States"}}}}]}, "standing": {"placement": 1, "stats": {"score": {"value": 2}}}}], "games": null}, {"id": 94389470, "state": 3, "round": -4, "fullRoundText": "Losers Round 2", "completedAt": 1758999104, "winnerId": 21386475, "slots": [{"id": "94389470-0", "entrant": {"id": 21386475, "name": "promamamia", "participants": [{"id": 19659251, "gamerTag": "promamamia", "prefix": "", "user": {"location": {"city": "Alpharetta", "state": "GA", "country": "United States"}}, "player": {"id": 3548468, "gamerTag": "promamamia", "prefix": "", "user": {"location": {"city": "Alpharetta", "state": "GA", "country": "United States"}}}}]}, "standing": {"placement": 1, "stats": {"score": {"value": 2}}}}, {"id": "94389470-1", "entrant": {"id": 21380284, "name": "KSU | MikePTM", "participants": [{"id": 19653788, "gamerTag": "MikePTM", "prefix": "KSU", "user": {"location": {"city": null, "state": null, "country": "United States"}}, "player": {"id": 3586658, "gamerTag": "MikePTM", "prefix": "KSU", "user": {"location": {"city": null, "state": null, "country": "United States"}}}}]}, "standing": {"placement": 2, "stats": {"score": {"value": 0}}}}], "games": null}, {"id": 94389463, "state": 3, "round": -3, "fullRoundText": "Losers Round 1", "completedAt": 1758998467, "winnerId": 21398157, "slots": [{"id": "94389463-0", "entrant": {"id": 21398157, "name": "Dannyboyy", "participants": [{"id": 19669070, "gamerTag": "Dannyboyy", "prefix": "", "user": {"location": {"city": null, "state": null, "country": "United States"}}, "player": {"id": 4996152, "gamerTag": "Dannyboyy", "prefix": "", "user": {"location": {"city": null, "state": null, "country": "United States"}}}}]}, "standing": {"placement": 1, "stats": {"score": {"value": 2}}}}, {"id": "94389463-1", "entrant": {"id": 21377971, "name": "PlexiTier", "participants": [{"id": 19651806, "gamerTag": "PlexiTier", "prefix": "", "user": {"location": {"city": "Hampton", "state": "GA", "country": "United States"}}, "player": {"id": 1807346, "gamerTag": "PlexiTier", "prefix": "", "user": {"location": {"city": "Hampton", "state": "GA", "country": "United States"}}}}]}, "standing": {"placement": 2, "stats": {"score": {"value": 1}}}}], "games": null}, {"id": 94389464, "state": 3, "round": -3, "fullRoundText": "Losers Round 1", "completedAt": 1758998120, "winnerId": 21353370, "slots": [{"id": "94389464-0", "entrant": {"id": 21387852, "name": "Nefarious", "participants": [{"id": 19660428, "gamerTag": "Nefarious", "prefix": "", "user": {"location": {"city": null, "state": null, "country": "United States"}}, "player": {"id": 2981587, "gamerTag": "Nefarious", "prefix": "", "user": {"location": {"city": null, "state": null, "country": "United States"}}}}]}, "standing": {"placement": 2, "stats": {"score": {"value": 0}}}}, {"id": "94389464-1", "entrant": {"id": 21353370, "name": "Dusk_", "participants": [{"id": 19629759, "gamerTag": "Dusk_", "prefix": null, "user": {"location": {"city": "Atlanta", "state": "GA", "country": "United States"}}, "player": {"id": 2095313, "gamerTag": "Dusk_", "prefix": null, "user": {"location": {"city": "Atlanta", "state": "GA", "country": "United States"}}}}]}, "standing": {"placement": 1, "stats": {"score": {"value": 2}}}}], "games": null}, {"id": 94389465, "state": 3, "round": -3, "fullRoundText": "Losers Round 1", "completedAt": 1758998428, "winnerId": 21397707, "slots": [{"id": "94389465-0", "entrant": {"id": 21397670, "name": "astrowire", "participants": [{"id": 19668696, "gamerTag": "astrowire", "prefix": null, "user": {"location": {"city": "Marietta", "state": "GA", "country": "United States"}}, "player": {"id": 2670968, "gamerTag": "astrowire", "prefix": null, "user": {"location": {"city": "Marietta", "state": "GA", "country": "United States"}}}}]}, "standing": {"placement": 2, "stats": {"score": {"value": 0}}}}, {"id": "94389465-1", "entrant": {"id": 21397707, "name": "MONEY | ImNoPro", "participants": [{"id": 19668735, "gamerTag": "ImNoPro", "prefix": "MONEY", "user": {"location": {"city": "Calhoun", "state": "GA", "country": "United States"}}, "player": {"id": 2149803, "gamerTag": "ImNoPro", "prefix": "MONEY", "user": {"location": {"city": "Calhoun", "state": "GA", "country": "United States"}}}}]}, "standing": {"placement": 1, "stats": {"score": {"value": 2}}}}], "games": null}, {"id": 94389466, "state": 3, "round": -3, "fullRoundText": "Losers Round 1", "completedAt": 1758998694, "winnerId": 21380284, "slots": [{"id": "94389466-0", "entrant": {"id": 21348084, "name": "Sir Ferrum", "participants": [{"id": 19624906, "gamerTag": "Sir Ferrum", "prefix": "", "user": {"location": {"city": null, "state": null, "country": "United States"}}, "player": {"id": 4942765, "gamerTag": "Sir Ferrum", "prefix": "", "user": {"location": {"city": null, "state": null, "country": "United States"}}}}]}, "standing": {"placement": 2, "stats": {"score": {"value": 0}}}}, {"id": "94389466-1", "entrant": {"id": 21380284, "name": "KSU | MikePTM", "participants": [{"id": 19653788, "gamerTag": "MikePTM", "prefix": "KSU", "user": {"location": {"city": null, "state": null, "country": "United States"}}, "player": {"id": 3586658, "gamerTag": "MikePTM", "prefix": "KSU", "user": {"location": {"city": null, "state": null, "country": "United States"}}}}]}, "standing": {"placement": 1, "stats": {"score": {"value": 2}}}}], "games": null}, {"id": 94389430, "state": 3, "round": 1, "fullRoundText": "Winners Round 1", "completedAt": 1758997335, "winnerId": 21386213, "slots": [{"id": "94389430-0", "entrant": {"id": 21386213, "name": "RM | Twist!?", "participants": [{"id": 19659019, "gamerTag": "Twist!?", "prefix": "RM", "user": {"location": {"city": "Marietta", "state": "GA", "country": "United States"}}, "player": {"id": 1764076, "gamerTag": "Twist!?", "prefix": "RM", "user": {"location": {"city": "Marietta", "state": "GA", "country": "United States"}}}}]}, "standing": {"placement": 1, "stats": {"score": {"value": 2}}}}, {"id": "94389430-1", "entrant": {"id": 21398157, "name": "Dannyboyy", "participants": [{"id": 19669070, "gamerTag": "Dannyboyy", "prefix": "", "user": {"location": {"city": null, "state": null, "country": "United States"}}, "player": {"id": 4996152, "gamerTag": "Dannyboyy", "prefix": "", "user": {"location": {"city": null, "state": null, "country": "United States"}}}}]}, "standing": {"placement": 2, "stats": {"score": {"value": 0}}}}], "games": null}, {"id": 94389431, "state": 3, "round": 1, "fullRoundText": "Winners Round 1", "completedAt": 1758997202, "winnerId": 21386475, "slots": [{"id": "94389431-0", "entrant": {"id": 21386475, "name": "promamamia", "participants": [{"id": 19659251, "gamerTag": "promamamia", "prefix": "", "user": {"location": {"city": "Alpharetta", "state": "GA", "country": "United States"}}, "player": {"id": 3548468, "gamerTag": "promamamia", "prefix": "", "user": {"location": {"city": "Alpharetta", "state": "GA", "country": "United States"}}}}]}, "standing": {"placement": 1, "stats": {"score": {"value": 2}}}}, {"id": "94389431-1", "entrant": {"id": 21377971, "name": "PlexiTier", "participants": [{"id": 19651806, "gamerTag": "PlexiTier", "prefix": "", "user": {"location": {"city": "Hampton", "state": "GA", "country": "United States"}}, "player": {"id": 1807346, "gamerTag": "PlexiTier", "prefix": "", "user": {"location": {"city": "Hampton", "state": "GA", "country": "United States"}}}}]}, "standing": {"placement": 2, "stats": {"score": {"value": 0}}}}], "games": null}, {"id": 94389432, "state": 3, "round": 1, "fullRoundText": "Winners Round 1", "completedAt": 1758997133, "winnerId": 21345022, "slots": [{"id": "94389432-0", "entrant": {"id": 21345022, "name": "Scouteka", "participants": [{"id": 19622131, "gamerTag": "Scouteka", "prefix": "", "user": {"location": {"city": "Marietta", "state": "GA", "country": "United States"}}, "player": {"id": 2055957, "gamerTag": "Scouteka", "prefix": "", "user": {"location": {"city": "Marietta", "state": "GA", "country": "United States"}}}}]}, "standing": {"placement": 1, "stats": {"score": {"value": 2}}}}, {"id": "94389432-1", "entrant": {"id": 21387852, "name": "Nefarious", "participants": [{"id": 19660428, "gamerTag": "Nefarious", "prefix": "", "user": {"location": {"city": null, "state": null, "country": "United States"}}, "player": {"id": 2981587, "gamerTag": "Nefarious", "prefix": "", "user": {"location": {"city": null, "state": null, "country": "United States"}}}}]}, "standing": {"placement": 2, "stats": {"score": {"value": 0}}}}], "games": null}, {"id": 94389433, "state": 3, "round": 1, "fullRoundText": "Winners Round 1", "completedAt": 1758997153, "winnerId": 21351910, "slots": [{"id": "94389433-0", "entrant": {"id": 21351910, "name": "CHEESE", "participants": [{"id": 19628422, "gamerTag": "CHEESE", "prefix": null, "user": {"location": {"city": "Buford", "state": "GA", "country": "United States"}}, "player": {"id": 3429754, "gamerTag": "CHEESE", "prefix": null, "user": {"location": {"city": "Buford", "state": "GA", "country": "United States"}}}}]}, "standing": {"placement": 1, "stats": {"score": {"value": 2}}}}, {"id": "94389433-1", "entrant": {"id": 21353370, "name": "Dusk_", "participants": [{"id": 19629759, "gamerTag": "Dusk_", "prefix": null, "user": {"location": {"city": "Atlanta", "state": "GA", "country": "United States"}}, "player": {"id": 2095313, "gamerTag": "Dusk_", "prefix": null, "user": {"location": {"city": "Atlanta", "state": "GA", "country": "United States"}}}}]}, "standing": {"placement": 2, "stats": {"score": {"value": 0}}}}], "games": null}, {"id": 94389434, "state": 3, "round": 1, "fullRoundText": "Winners Round 1", "completedAt": 1758997044, "winnerId": 21345381, "slots": [{"id": "94389434-0", "entrant": {"id": 21345381, "name": "red dot", "participants": [{"id": 19622479, "gamerTag": "red dot", "prefix": "", "user": {"location": {"city": "Milton", "state": "GA", "country": "United States"}}, "player": {"id": 1812177, "gamerTag": "red dot", "prefix": "", "user": {"location": {"city": "Milton", "state": "GA", "country": "United States"}}}}]}, "standing": {"placement": 1, "stats": {"score": {"value": 2}}}}, {"id": "94389434-1", "entrant": {"id": 21397670, "name": "astrowire", "participants": [{"id": 19668696, "gamerTag": "astrowire", "prefix": null, "user": {"location": {"city": "Marietta", "state": "GA", "country": "United States"}}, "player": {"id": 2670968, "gamerTag": "astrowire", "prefix": null, "user": {"location": {"city": "Marietta", "state": "GA", "country": "United States"}}}}]}, "standing": {"placement": 2, "stats": {"score": {"value": 0}}}}], "games": null}, {"id": 94389435, "state": 3, "round": 1, "fullRoundText": "Winners Round 1", "completedAt": 1758997467, "winnerId": 21345603, "slots": [{"id": "94389435-0", "entrant": {"id": 21397707, "name": "MONEY | ImNoPro", "participants": [{"id": 19668735, "gamerTag": "ImNoPro", "prefix": "MONEY", "user": {"location": {"city": "Calhoun", "state": "GA", "country": "United States"}}, "player": {"id": 2149803, "gamerTag": "ImNoPro", "prefix": "MONEY", "user": {"location": {"city": "Calhoun", "state": "GA", "country": "United States"}}}}]}, "standing": {"placement": 2, "stats": {"score": {"value": 1}}}}, {"id": "94389435-1", "entrant": {"id": 21345603, "name": "Stock Stealer | T.K.O", "participants": [{"id": 19622650, "gamerTag": "T.K.O", "prefix": "Stock Stealer", "user": {"location": {"city": "Smyrna", "state": "GA", "country": "United States"}}, "player": {"id": 4933114, "gamerTag": "T.K.O", "prefix": "Stock Stealer", "user": {"location": {"city": "Smyrna", "state": "GA", "country": "United States"}}}}]}, "standing": {"placement": 1, "stats": {"score": {"value": 2}}}}], "games": null}, {"id": 94389436, "state": 3, "round": 1, "fullRoundText": "Winners Round 1", "completedAt": 1758997483, "winnerId": 21396882, "slots": [{"id": "94389436-0", "entrant": {"id": 21396882, "name": "carlop", "participants": [{"id": 19668040, "gamerTag": "carlop", "prefix": null, "user": {"location": {"city": "Johns Creek", "state": "GA", "country": "United States"}}, "player": {"id": 3431919, "gamerTag": "carlop", "prefix": null, "user": {"location": {"city": "Johns Creek", "state": "GA", "country": "United States"}}}}]}, "standing": {"placement": 1, "stats": {"score": {"value": 2}}}}, {"id": "94389436-1", "entrant": {"id": 21348084, "name": "Sir Ferrum", "participants": [{"id": 19624906, "gamerTag": "Sir Ferrum", "prefix": "", "user": {"location": {"city": null, "state": null, "country": "United States"}}, "player": {"id": 4942765, "gamerTag": "Sir Ferrum", "prefix": "", "user": {"location": {"city": null, "state": null, "country": "United States"}}}}]}, "standing": {"placement": 2, "stats": {"score": {"value": 0}}}}], "games": null}, {"id": 94389437, "state": 3, "round": 1, "fullRoundText": "Winners Round 1", "completedAt": 1758997708, "winnerId": 21398549, "slots": [{"id": "94389437-0", "entrant": {"id": 21398549, "name": "SaggyMilkJug", "participants": [{"id": 19669412, "gamerTag": "SaggyMilkJug", "prefix": "", "user": {"location": {"city": "Atlanta", "state": "GA", "country": "United States"}}, "player": {"id": 4651404, "gamerTag": "SaggyMilkJug", "prefix": "", "user": {"location": {"city": "Atlanta", "state": "GA", "country": "United States"}}}}]}, "standing": {"placement": 1, "stats": {"score": {"value": 2}}}}, {"id": "94389437-1", "entrant": {"id": 21380284, "name": "KSU | MikePTM", "participants": [{"id": 19653788, "gamerTag": "MikePTM", "prefix": "KSU", "user": {"location": {"city": null, "state": null, "country": "United States"}}, "player": {"id": 3586658, "gamerTag": "MikePTM", "prefix": "KSU", "user": {"location": {"city": null, "state": null, "country": "United States"}}}}]}, "standing": {"placement": 2, "stats": {"score": {"value": 1}}}}], "games": null}]}}}