{"phase": {"seeds": {"pageInfo": {"totalPages": 1, "total": 30}, "nodes": [{"id": 36109398, "seedNum": 1, "entrant": {"id": 20935813, "name": "WFF | Happy", "participants": [{"id": 19261822, "gamerTag": "Happy", "prefix": "WFF", "user": {"location": {"city": "Peachtree CIty", "state": "GA", "country": "United States"}}, "player": {"id": 1383907, "gamerTag": "Happy", "prefix": "WFF", "user": {"location": {"city": "Peachtree CIty", "state": "GA", "country": "United States"}}}}]}}, {"id": 36108583, "seedNum": 4, "entrant": {"id": 20935240, "name": "TnT | Sid", "participants": [{"id": 19261323, "gamerTag": "Sid", "prefix": "TnT", "user": {"location": {"city": "Powder Springs", "state": "GA", "country": "United States"}}, "player": {"id": 1229067, "gamerTag": "Sid", "prefix": "TnT", "user": {"location": {"city": "Powder Springs", "state": "GA", "country": "United States"}}}}]}}, {"id": 36106151, "seedNum": 7, "entrant": {"id": 20933581, "name": "WeFarmFrank | Gorilla Glue", "participants": [{"id": 19259875, "gamerTag": "Gorilla Glue", "prefix": "WeFarmFrank", "user": {"location": {"city": "Atlanta", "state": "GA", "country": "United States"}}, "player": {"id": 1810274, "gamerTag": "Planet Of Da", "prefix": "WeFarmFrank", "user": {"location": {"city": "Atlanta", "state": "GA", "country": "United States"}}}}]}}, {"id": 36108735, "seedNum": 11, "entrant": {"id": 20935377, "name": "RM | WFF | Cyax~", "participants": [{"id": 19261450, "gamerTag": "Cyax~", "prefix": "RM | WFF", "user": {"location": {"city": "atlanta", "state": "GA", "country": "United States"}}, "player": {"id": 1230555, "gamerTag": "Sakruoi", "prefix": "RM | WFF", "user": {"location": {"city": "atlanta", "state": "GA", "country": "United States"}}}}]}}, {"id": 36109215, "seedNum": 5, "entrant": {"id": 20935665, "name": "TnT | Monologgue", "participants": [{"id": 19261681, "gamerTag": "Monologgue", "prefix": "TnT", "user": {"location": {"city": "Atlanta", "state": "GA", "country": "United States"}}, "player": {"id": 1135679, "gamerTag": "Monologgue", "prefix": "TnT", "user": {"location": {"city": "Atlanta", "state": "GA", "country": "United States"}}}}]}}, {"id": 36103907, "seedNum": 6, "entrant": {"id": 20932116, "name": "TFT | ALLEYCAT", "participants": [{"id": 19258469, "gamerTag": "ALLEYCAT", "prefix": "TFT", "user": {"location": {"city": "Atlanta", "state": "GA", "country": "United States"}}, "player": {"id": 1940654, "gamerTag": "ALLEYCAT", "prefix": "TFT", "user": {"location": {"city": "Atlanta", "state": "GA", "country": "United States"}}}}]}}, {"id": 36108812, "seedNum": 10, "entrant": {"id": 20935425, "name": "TFT | BigCheese", "participants": [{"id": 19261494, "gamerTag": "BigCheese", "prefix": "TFT", "user": {"location": {"city": null, "state": null, "country": null}}, "player": {"id": 3991446, "gamerTag": "BigCheese", "prefix": "TFT", "user": {"location": {"city": null, "state": null, "country": null}}}}]}}, {"id": 36104719, "seedNum": 13, "entrant": {"id": 20932407, "name": "Jdaddy", "participants": [{"id": 19258721, "gamerTag": "Jdaddy", "prefix": null, "user": {"location": {"city": "Atlanta", "state": "GA", "country": "United States"}}, "player": {"id": 4384721, "gamerTag": "Jdaddy", "prefix": null, "user": {"location": {"city": "Atlanta", "state": "GA", "country": "United States"}}}}]}}, {"id": 36108844, "seedNum": 2, "entrant": {"id": 20935447, "name": "4o4 | chooryu :)", "participants": [{"id": 19261512, "gamerTag": "chooryu :)", "prefix": "4o4", "user": {"location": {"city": "Kennesaw", "state": "GA", "country": "United States"}}, "player": {"id": 466564, "gamerTag": "chooryu :)", "prefix": "4o4", "user": {"location": {"city": "Kennesaw", "state": "GA", "country": "United States"}}}}]}}, {"id": 36108179, "seedNum": 8, "entrant": {"id": 20934889, "name": "TFT | Handsome Squidward", "participants": [{"id": 19261014, "gamerTag": "Handsome Squidward", "prefix": "TFT", "user": {"location": {"city": "Calhoun", "state": "GA", "country": "United States"}}, "player": {"id": 2241471, "gamerTag": "lil munch", "prefix": "TFT", "user": {"location": {"city": "Calhoun", "state": "GA", "country": "United States"}}}}]}}, {"id": 36108911, "seedNum": 17, "entrant": {"id": 20935502, "name": "MONEY | ImNoPro", "participants": [{"id": 19261539, "gamerTag": "ImNoPro", "prefix": "MONEY", "user": {"location": {"city": "Calhoun", "state": "GA", "country": "United States"}}, "player": {"id": 2149803, "gamerTag": "ImNoPro", "prefix": "MONEY", "user": {"location": {"city": "Calhoun", "state": "GA", "country": "United States"}}}}]}}, {"id": 36109207, "seedNum": 19, "entrant": {"id": 20935657, "name": "millano", "participants": [{"id": 19261673, "gamerTag": "millano", "prefix": "", "user": null, "player": {"id": 4214682, "gamerTag": "millano", "prefix": "", "user": null}}]}}, {"id": 36105737, "seedNum": 3, "entrant": {"id": 20933218, "name": "Heart", "participants": [{"id": 19259538, "gamerTag": "Heart", "prefix": "", "user": {"location": {"city": "Atlanta", "state": "GA", "country": "United States"}}, "player": {"id": 4287822, "gamerTag": "Heart", "prefix": "", "user": {"location": {"city": "Atlanta", "state": "GA", "country": "United States"}}}}]}}, {"id": 36105833, "seedNum": 15, "entrant": {"id": 20933281, "name": "yxngcyborg", "participants": [{"id": 19259594, "gamerTag": "yxngcyborg", "prefix": null, "user": {"location": {"city": "Atlanta", "state": "GA", "country": "United States"}}, "player": {"id": 1751817, "gamerTag": "Ricky Rudd", "prefix": "TFT", "user": {"location": {"city": "Atlanta", "state": "GA", "country": "United States"}}}}]}}, {"id": 36108143, "seedNum": 16, "entrant": {"id": 20934864, "name": "GG | VaR", "participants": [{"id": 19260988, "gamerTag": "VaR", "prefix": "GG", "user": {"location": {"city": "Atlanta", "state": "GA", "country": "United States"}}, "player": {"id": 329546, "gamerTag": "VaR", "prefix": "GG", "user": {"location": {"city": "Atlanta", "state": "GA", "country": "United States"}}}}]}}, {"id": 36108619, "seedNum": 20, "entrant": {"id": 20935276, "name": "Nurikami", "participants": [{"id": 19261358, "gamerTag": "Nurikami", "prefix": null, "user": {"location": {"city": "Sandy Springs", "state": "GA", "country": "United States"}}, "player": {"id": 2894467, "gamerTag": "Nurikami", "prefix": null, "user": {"location": {"city": "Sandy Springs", "state": "GA", "country": "United States"}}}}]}}, {"id": 36108359, "seedNum": 9, "entrant": {"id": 20935032, "name": "Mrbray30", "participants": [{"id": 19261128, "gamerTag": "Mrbray30", "prefix": "", "user": {"location": {"city": "Atlanta", "state": "GA", "country": "United States"}}, "player": {"id": 4664413, "gamerTag": "Mrbray30", "prefix": "", "user": {"location": {"city": "Atlanta", "state": "GA", "country": "United States"}}}}]}}, {"id": 36106529, "seedNum": 12, "entrant": {"id": 20933709, "name": "TFT | Juug$tarr", "participants": [{"id": 19259999, "gamerTag": "Juug$tarr", "prefix": "TFT", "user": {"location": {"city": "Atlanta", "state": "GA", "country": "United States"}}, "player": {"id": 3621035, "gamerTag": "Juug$tarr", "prefix": "TFT", "user": {"location": {"city": "Atlanta", "state": "GA", "country": "United States"}}}}]}}, {"id": 36109008, "seedNum": 14, "entrant": {"id": 20935586, "name": "Mickeydeez", "participants": [{"id": 19261610, "gamerTag": "Mickeydeez", "prefix": "", "user": {"location": {"city": "Atlanta", "state": "GA", "country": "United States"}}, "player": {"id": 4825580, "gamerTag": "Mickeydeez", "prefix": "", "user": {"location": {"city": "Atlanta", "state": "GA", "country": "United States"}}}}]}}, {"id": 36109039, "seedNum": 18, "entrant": {"id": 20935599, "name": "Zarek", "participants": [{"id": 19261622, "gamerTag": "Zarek", "prefix": "", "user": {"location": {"city": "Atlanta", "state": "GA", "country": "United States"}}, "player": {"id": 405682, "gamerTag": "Zarek", "prefix": "", "user": {"location": {"city": "Atlanta", "state": "GA", "country": "United States"}}}}]}}, {"id": 36108586, "seedNum": 21, "entrant": {"id": 20935243, "name": "TnT | annamation", "participants": [{"id": 19261326, "gamerTag": "annamation", "prefix": "TnT", "user": {"location": {"city": "Atlanta", "state": "GA", "country": "United States"}}, "player": {"id": 1699369, "gamerTag": "annamation", "prefix": "TnT", "user": {"location": {"city": "Atlanta", "state": "GA", "country": "United States"}}}}]}}, {"id": 36109239, "seedNum": 22, "entrant": {"id": 20935689, "name": "assclapFGC", "participants": [{"id": 19261700, "gamerTag": "assclapFGC", "prefix": "", "user": {"location": {"city": "Scottdale", "state": "GA", "country": "United States"}}, "player": {"id": 3481864, "gamerTag": "assclapFGC", "prefix": "", "user": {"location": {"city": "Scottdale", "state": "GA", "country": "United States"}}}}]}}, {"id": 36109179, "seedNum": 24, "entrant": {"id": 20935631, "name": "Kev", "participants": [{"id": 19261650, "gamerTag": "Kev", "prefix": "", "user": {"location": {"city": "Manhattan", "state": null, "country": "United States"}}, "player": {"id": 3824468, "gamerTag": "Kev", "prefix": "", "user": {"location": {"city": "Manhattan", "state": null, "country": "United States"}}}}]}}, {"id": 36108980, "seedNum": 26, "entrant": {"id": 20935562, "name": "4o4 | Kokuren", "participants": [{"id": 19261592, "gamerTag": "Kokuren", "prefix": "4o4", "user": {"location": {"city": "Marietta", "state": "GA", "country": "United States"}}, "player": {"id": 2282482, "gamerTag": "Kokuren", "prefix": "4o4", "user": {"location": {"city": "Marietta", "state": "GA", "country": "United States"}}}}]}}, {"id": 36109271, "seedNum": 23, "entrant": {"id": 20935718, "name": "tacobell", "participants": [{"id": 19261732, "gamerTag": "tacobell", "prefix": "", "user": null, "player": {"id": 4918530, "gamerTag": "tacobell", "prefix": "", "user": null}}]}}, {"id": 36108856, "seedNum": 25, "entrant": {"id": 20935460, "name": "Skittles", "participants": [{"id": 19261519, "gamerTag": "Skittles", "prefix": null, "user": {"location": {"city": "Kennesaw", "state": "GA", "country": "United States"}}, "player": {"id": 4621888, "gamerTag": "Skittles", "prefix": "", "user": {"location": {"city": "Kennesaw", "state": "GA", "country": "United States"}}}}]}}, {"id": 36108753, "seedNum": 27, "entrant": {"id": 20935388, "name": "KillerJoe", "participants": [{"id": 19261461, "gamerTag": "KillerJoe", "prefix": "", "user": {"location": {"city": "Atlanta", "state": "GA", "country": "United States"}}, "player": {"id": 4908903, "gamerTag": "KillerJoe", "prefix": "", "user": {"location": {"city": "Atlanta", "state": "GA", "country": "United States"}}}}]}}, {"id": 36107569, "seedNum": 28, "entrant": {"id": 20934423, "name": "Cash", "participants": [{"id": 19260613, "gamerTag": "Cash", "prefix": "", "user": {"location": {"city": "Atlanta", "state": "GA", "country": "United States"}}, "player": {"id": 4879701, "gamerTag": "Cash", "prefix": "", "user": {"location": {"city": "Atlanta", "state": "GA", "country": "United States"}}}}]}}, {"id": 36109005, "seedNum": 29, "entrant": {"id": 20935577, "name": "Nelson", "participants": [{"id": 19261604, "gamerTag": "Nelson", "prefix": "", "user": null, "player": {"id": 4918501, "gamerTag": "Nelson", "prefix": "", "user": null}}]}}, {"id": 36108710, "seedNum": 30, "entrant": {"id": 20935355, "name": "dalton0087", "participants": [{"id": 19261429, "gamerTag": "dalton0087", "prefix": "", "user": {"location": {"city": "atlanta", "state": "GA", "country": "United States"}}, "player": {"id": 4908853, "gamerTag": "dalton0087", "prefix": "", "user": {"location": {"city": "atlanta", "state": "GA", "country": "United States"}}}}]}}]}}}