{"event": {"sets": {"pageInfo": {"totalPages": 7, "total": 101}, "nodes": [{"id": 93342894, "state": 3, "round": -3, "fullRoundText": "Losers Round 1", "completedAt": 1756664782, "winnerId": 21104042, "slots": [{"id": "93342894-0", "entrant": {"id": 21104042, "name": "Chromaticblue28", "participants": [{"id": 19412220, "gamerTag": "Chromaticblue28", "prefix": null, "user": {"location": {"city": null, "state": null, "country": null}}, "player": {"id": 3607653, "gamerTag": "Chromaticblue28", "prefix": null, "user": {"location": {"city": null, "state": null, "country": null}}}}]}, "standing": {"placement": 1, "stats": {"score": {"value": 2}}}}, {"id": "93342894-1", "entrant": {"id": 21085986, "name": "too cute", "participants": [{"id": 19395783, "gamerTag": "too cute", "prefix": "", "user": {"location": {"city": "Atlanta", "state": "GA", "country": "United States"}}, "player": {"id": 4942794, "gamerTag": "too cute", "prefix": "", "user": {"location": {"city": "Atlanta", "state": "GA", "country": "United States"}}}}]}, "standing": {"placement": 2, "stats": {"score": {"value": 0}}}}], "games": null}, {"id": 93362574, "state": 3, "round": -7, "fullRoundText": "Losers Round 4", "completedAt": 1756689656, "winnerId": 21094406, "slots": [{"id": "93362574-0", "entrant": {"id": 21094406, "name": "pristinetao", "participants": [{"id": 19403485, "gamerTag": "pristinetao", "prefix": "", "user": {"location": {"city": null, "state": null, "country": null}}, "player": {"id": 2721225, "gamerTag": "pristinetao", "prefix": "", "user": {"location": {"city": null, "state": null, "country": null}}}}]}, "standing": {"placement": 1, "stats": {"score": {"value": 2}}}}, {"id": "93362574-1", "entrant": {"id": 21062207, "name": "Frank", "participants": [{"id": 19374337, "gamerTag": "Frank", "prefix": null, "user": {"location": {"city": "Doraville", "state": "GA", "country": "United States"}}, "player": {"id": 1227401, "gamerTag": "Terry Labonte", "prefix": "TFT", "user": {"location": {"city": "Doraville", "state": "GA", "country": "United States"}}}}]}, "standing": {"placement": 2, "stats": {"score": {"value": 0}}}}], "games": null}, {"id": 93337886, "state": 3, "round": 1, "fullRoundText": "Winners Round 1", "completedAt": 1756657288, "winnerId": 20808909, "slots": [{"id": "93337886-0", "entrant": {"id": 20808909, "name": "Chade | BonusOnus", "participants": [{"id": 19150135, "gamerTag": "BonusOnus", "prefix": "Chade", "user": {"location": {"city": "Detroit", "state": "MI", "country": "United States"}}, "player": {"id": 3656221, "gamerTag": "BonusOnus", "prefix": "Chade", "user": {"location": {"city": "Detroit", "state": "MI", "country": "United States"}}}}]}, "standing": {"placement": 1, "stats": {"score": {"value": 2}}}}, {"id": "93337886-1", "entrant": {"id": 21065322, "name": "TG | Cleppey", "participants": [{"id": 19376983, "gamerTag": "Cleppey", "prefix": "TG", "user": {"location": {"city": "San diego", "state": "CA", "country": "United States"}}, "player": {"id": 1132464, "gamerTag": "Cleppey", "prefix": "TG", "user": {"location": {"city": "San diego", "state": "CA", "country": "United States"}}}}]}, "standing": {"placement": 2, "stats": {"score": {"value": 0}}}}], "games": null}, {"id": 93351208, "state": 3, "round": 1, "fullRoundText": "Winners Round 1", "completedAt": 1756671233, "winnerId": 21103454, "slots": [{"id": "93351208-0", "entrant": {"id": 21062348, "name": "Turquoise", "participants": [{"id": 19374452, "gamerTag": "Turquoise", "prefix": "", "user": {"location": {"city": "Matthews", "state": "NC", "country": "United States"}}, "player": {"id": 49856, "gamerTag": "Turquoise", "prefix": "", "user": {"location": {"city": "Matthews", "state": "NC", "country": "United States"}}}}]}, "standing": {"placement": 2, "stats": {"score": {"value": 0}}}}, {"id": "93351208-1", "entrant": {"id": 21103454, "name": "Tilted", "participants": [{"id": 19411689, "gamerTag": "Tilted", "prefix": null, "user": {"location": {"city": "Norcross", "state": "GA", "country": "United States"}}, "player": {"id": 2377635, "gamerTag": "Tilted", "prefix": null, "user": {"location": {"city": "Norcross", "state": "GA", "country": "United States"}}}}]}, "standing": {"placement": 1, "stats": {"score": {"value": 2}}}}], "games": null}, {"id": 93362509, "state": 3, "round": 1, "fullRoundText": "Winners Quarter-Final", "completedAt": 1756686966, "winnerId": 21126107, "slots": [{"id": "93362509-0", "entrant": {"id": 21100706, "name": "Huggles", "participants": [{"id": 19409098, "gamerTag": "Huggles", "prefix": "", "user": {"location": {"city": "Irmo", "state": "SC", "country": "United States"}}, "player": {"id": 53024, "gamerTag": "Huggles", "prefix": "", "user": {"location": {"city": "Irmo", "state": "SC", "country": "United States"}}}}]}, "standing": {"placement": 2, "stats": {"score": {"value": 0}}}}, {"id": "93362509-1", "entrant": {"id": 21126107, "name": "Rain~", "participants": [{"id": 19431869, "gamerTag": "Rain~", "prefix": null, "user": {"location": {"city": "Atlanta", "state": "GA", "country": "United States"}}, "player": {"id": 4240164, "gamerTag": "Rain~", "prefix": null, "user": {"location": {"city": "Atlanta", "state": "GA", "country": "United States"}}}}]}, "standing": {"placement": 1, "stats": {"score": {"value": 2}}}}], "games": null}, {"id": 93342861, "state": 3, "round": 1, "fullRoundText": "Winners Round 1", "completedAt": 1756663904, "winnerId": 21074825, "slots": [{"id": "93342861-0", "entrant": {"id": 21120930, "name": "Lupo", "participants": [{"id": 19426471, "gamerTag": "Lupo", "prefix": "", "user": {"location": {"city": null, "state": null, "country": null}}, "player": {"id": 3848849, "gamerTag": "Lupo", "prefix": "", "user": {"location": {"city": null, "state": null, "country": null}}}}]}, "standing": {"placement": 2, "stats": {"score": {"value": -1}}}}, {"id": "93342861-1", "entrant": {"id": 21074825, "name": "LUNAR.", "participants": [{"id": 19385730, "gamerTag": "LUNAR.", "prefix": null, "user": {"location": {"city": "Nashville", "state": "TN", "country": "United States"}}, "player": {"id": 2708713, "gamerTag": "LUNAR.", "prefix": null, "user": {"location": {"city": "Nashville", "state": "TN", "country": "United States"}}}}]}, "standing": {"placement": 1, "stats": {"score": {"value": 0}}}}], "games": null}, {"id": 93357355, "state": 3, "round": 1, "fullRoundText": "Winners Round 1", "completedAt": 1756678559, "winnerId": 21059693, "slots": [{"id": "93357355-0", "entrant": {"id": 21088449, "name": "WeleX", "participants": [{"id": 19398013, "gamerTag": "WeleX", "prefix": null, "user": {"location": {"city": "Atlanta", "state": "GA", "country": "United States"}}, "player": {"id": 2894975, "gamerTag": "WeleX", "prefix": null, "user": {"location": {"city": "Atlanta", "state": "GA", "country": "United States"}}}}]}, "standing": {"placement": 2, "stats": {"score": {"value": 0}}}}, {"id": "93357355-1", "entrant": {"id": 21059693, "name": "Bitazeee", "participants": [{"id": 19371927, "gamerTag": "Bitazeee", "prefix": null, "user": {"location": {"city": "Charlotte", "state": "NC", "country": "United States"}}, "player": {"id": 3817099, "gamerTag": "Bitazeee", "prefix": null, "user": {"location": {"city": "Charlotte", "state": "NC", "country": "United States"}}}}]}, "standing": {"placement": 1, "stats": {"score": {"value": 2}}}}], "games": null}, {"id": 93351209, "state": 3, "round": 1, "fullRoundText": "Winners Round 1", "completedAt": 1756671069, "winnerId": 21062074, "slots": [{"id": "93351209-0", "entrant": {"id": 21062074, "name": "Jdaddy", "participants": [{"id": 19374212, "gamerTag": "Jdaddy", "prefix": null, "user": {"location": {"city": "Atlanta", "state": "GA", "country": "United States"}}, "player": {"id": 4384721, "gamerTag": "Jdaddy", "prefix": null, "user": {"location": {"city": "Atlanta", "state": "GA", "country": "United States"}}}}]}, "standing": {"placement": 1, "stats": {"score": {"value": 2}}}}, {"id": "93351209-1", "entrant": {"id": 21127162, "name": "BeigeMage", "participants": [{"id": 19432878, "gamerTag": "BeigeMage", "prefix": "", "user": {"location": {"city": "Savannah", "state": "GA", "country": "United States"}}, "player": {"id": 4949517, "gamerTag": "BeigeMage", "prefix": "", "user": {"location": {"city": "Savannah", "state": "GA", "country": "United States"}}}}]}, "standing": {"placement": 2, "stats": {"score": {"value": 0}}}}], "games": null}, {"id": 93357357, "state": 3, "round": 1, "fullRoundText": "Winners Round 1", "completedAt": 1756678428, "winnerId": 21078191, "slots": [{"id": "93357357-0", "entrant": {"id": 21078191, "name": "Heart", "participants": [{"id": 19388853, "gamerTag": "Heart", "prefix": "", "user": {"location": {"city": "Atlanta", "state": "GA", "country": "United States"}}, "player": {"id": 4287822, "gamerTag": "Heart", "prefix": "", "user": {"location": {"city": "Atlanta", "state": "GA", "country": "United States"}}}}]}, "standing": {"placement": 1, "stats": {"score": {"value": 2}}}}, {"id": "93357357-1", "entrant": {"id": 21063950, "name": "TheACwarriors", "participants": [{"id": 19375816, "gamerTag": "TheACwarriors", "prefix": null, "user": {"location": {"city": "Charlotte", "state": "NC", "country": "United States"}}, "player": {"id": 4939011, "gamerTag": "TheACwarriors", "prefix": null, "user": {"location": {"city": "Charlotte", "state": "NC", "country": "United States"}}}}]}, "standing": {"placement": 2, "stats": {"score": {"value": 0}}}}], "games": null}, {"id": 93337887, "state": 3, "round": 1, "fullRoundText": "Winners Round 1", "completedAt": 1756656812, "winnerId": 21080045, "slots": [{"id": "93337887-0", "entrant": {"id": 21080045, "name": "Damp\u00e9", "participants": [{"id": 19390581, "gamerTag": "Damp\u00e9", "prefix": null, "user": {"location": {"city": "Atlanta", "state": "GA", "country": "United States"}}, "player": {"id": 1170738, "gamerTag": "Damp\u00e9", "prefix": "TnT", "user": {"location": {"city": "Atlanta", "state": "GA", "country": "United States"}}}}]}, "standing": {"placement": 1, "stats": {"score": {"value": null}}}}, {"id": "93337887-1", "entrant": {"id": 21099056, "name": "shortguyjordan", "participants": [{"id": 19407503, "gamerTag": "shortguyjordan", "prefix": "", "user": {"location": {"city": "Anniston", "state": "AL", "country": "United States"}}, "player": {"id": 4944400, "gamerTag": "shortguyjordan", "prefix": "", "user": {"location": {"city": "Anniston", "state": "AL", "country": "United States"}}}}]}, "standing": {"placement": 2, "stats": {"score": {"value": -1}}}}], "games": null}, {"id": 93342862, "state": 3, "round": 1, "fullRoundText": "Winners Round 1", "completedAt": 1756664161, "winnerId": 21116312, "slots": [{"id": "93342862-0", "entrant": {"id": 21116312, "name": "TnT | Sid", "participants": [{"id": 19423112, "gamerTag": "Sid", "prefix": "TnT", "user": {"location": {"city": "Powder Springs", "state": "GA", "country": "United States"}}, "player": {"id": 1229067, "gamerTag": "Sid", "prefix": "TnT", "user": {"location": {"city": "Powder Springs", "state": "GA", "country": "United States"}}}}]}, "standing": {"placement": 1, "stats": {"score": {"value": 2}}}}, {"id": "93342862-1", "entrant": {"id": 21104042, "name": "Chromaticblue28", "participants": [{"id": 19412220, "gamerTag": "Chromaticblue28", "prefix": null, "user": {"location": {"city": null, "state": null, "country": null}}, "player": {"id": 3607653, "gamerTag": "Chromaticblue28", "prefix": null, "user": {"location": {"city": null, "state": null, "country": null}}}}]}, "standing": {"placement": 2, "stats": {"score": {"value": 1}}}}], "games": null}, {"id": 93362510, "state": 3, "round": 1, "fullRoundText": "Winners Quarter-Final", "completedAt": 1756686049, "winnerId": 21047863, "slots": [{"id": "93362510-0", "entrant": {"id": 21047863, "name": "PH | Nimbus", "participants": [{"id": 19361535, "gamerTag": "Nimbus", "prefix": "PH", "user": {"location": {"city": "Roswell", "state": "GA", "country": "United States"}}, "player": {"id": 36462, "gamerTag": "Nimbus", "prefix": "PH", "user": {"location": {"city": "Roswell", "state": "GA", "country": "United States"}}}}]}, "standing": {"placement": 1, "stats": {"score": {"value": 2}}}}, {"id": "93362510-1", "entrant": {"id": 21094406, "name": "pristinetao", "participants": [{"id": 19403485, "gamerTag": "pristinetao", "prefix": "", "user": {"location": {"city": null, "state": null, "country": null}}, "player": {"id": 2721225, "gamerTag": "pristinetao", "prefix": "", "user": {"location": {"city": null, "state": null, "country": null}}}}]}, "standing": {"placement": 2, "stats": {"score": {"value": 0}}}}], "games": null}, {"id": 93337888, "state": 3, "round": 1, "fullRoundText": "Winners Round 1", "completedAt": 1756657193, "winnerId": 21100706, "slots": [{"id": "93337888-0", "entrant": {"id": 21100706, "name": "Huggles", "participants": [{"id": 19409098, "gamerTag": "Huggles", "prefix": "", "user": {"location": {"city": "Irmo", "state": "SC", "country": "United States"}}, "player": {"id": 53024, "gamerTag": "Huggles", "prefix": "", "user": {"location": {"city": "Irmo", "state": "SC", "country": "United States"}}}}]}, "standing": {"placement": 1, "stats": {"score": {"value": 2}}}}, {"id": "93337888-1", "entrant": {"id": 21089141, "name": "sol.onion", "participants": [{"id": 19398634, "gamerTag": "sol.onion", "prefix": "", "user": {"location": {"city": "Stamford", "state": "CT", "country": "United States"}}, "player": {"id": 4943274, "gamerTag": "sol.onion", "prefix": "", "user": {"location": {"city": "Stamford", "state": "CT", "country": "United States"}}}}]}, "standing": {"placement": 2, "stats": {"score": {"value": 0}}}}], "games": null}, {"id": 93342863, "state": 3, "round": 1, "fullRoundText": "Winners Round 1", "completedAt": 1756663863, "winnerId": 21115111, "slots": [{"id": "93342863-0", "entrant": {"id": 21115111, "name": "Crimson", "participants": [{"id": 19422115, "gamerTag": "Crimson", "prefix": null, "user": {"location": {"city": "Peoria", "state": "AZ", "country": "United States"}}, "player": {"id": 4533084, "gamerTag": "Crimson", "prefix": "", "user": {"location": {"city": "Peoria", "state": "AZ", "country": "United States"}}}}]}, "standing": {"placement": 1, "stats": {"score": {"value": 2}}}}, {"id": "93342863-1", "entrant": {"id": 21085986, "name": "too cute", "participants": [{"id": 19395783, "gamerTag": "too cute", "prefix": "", "user": {"location": {"city": "Atlanta", "state": "GA", "country": "United States"}}, "player": {"id": 4942794, "gamerTag": "too cute", "prefix": "", "user": {"location": {"city": "Atlanta", "state": "GA", "country": "United States"}}}}]}, "standing": {"placement": 2, "stats": {"score": {"value": 0}}}}], "games": null}, {"id": 93362511, "state": 3, "round": 1, "fullRoundText": "Winners Quarter-Final", "completedAt": 1756685766, "winnerId": 21091492, "slots": [{"id": "93362511-0", "entrant": {"id": 21091492, "name": "Hell Mode | ROB Slayer", "participants": [{"id": 19400829, "gamerTag": "ROB Slayer", "prefix": "Hell Mode", "user": {"location": {"city": "Atlanta", "state": "GA", "country": "United States"}}, "player": {"id": 2414381, "gamerTag": "ROB Slayer", "prefix": "Hell Mode", "user": {"location": {"city": "Atlanta", "state": "GA", "country": "United States"}}}}]}, "standing": {"placement": 1, "stats": {"score": {"value": 2}}}}, {"id": "93362511-1", "entrant": {"id": 21067634, "name": "Giizus", "participants": [{"id": 19379149, "gamerTag": "Giizus", "prefix": "", "user": {"location": {"city": "Spring City", "state": null, "country": "United States"}}, "player": {"id": 922274, "gamerTag": "Giizus", "prefix": "", "user": {"location": {"city": "Spring City", "state": null, "country": "United States"}}}}]}, "standing": {"placement": 2, "stats": {"score": {"value": 0}}}}], "games": null}]}}}