{"phase": {"seeds": {"pageInfo": {"totalPages": 1, "total": 8}, "nodes": [{"id": 36386884, "seedNum": 8, "entrant": {"id": 21111070, "name": "gc | ibuprofenfan", "participants": [{"id": 19418546, "gamerTag": "ibuprofenfan", "prefix": "gc", "user": {"location": {"city": "Atlanta", "state": "GA", "country": "United States"}}, "player": {"id": 1630979, "gamerTag": "ibuprofenfan", "prefix": "gc", "user": {"location": {"city": "Atlanta", "state": "GA", "country": "United States"}}}}]}}, {"id": 36378970, "seedNum": 2, "entrant": {"id": 21105577, "name": "Chaos Theory", "participants": [{"id": 19413511, "gamerTag": "Chaos Theory", "prefix": null, "user": {"location": {"city": "Atlanta", "state": "GA", "country": "United States"}}, "player": {"id": 3605408, "gamerTag": "Chaos Theory", "prefix": null, "user": {"location": {"city": "Atlanta", "state": "GA", "country": "United States"}}}}]}}, {"id": 36386090, "seedNum": 3, "entrant": {"id": 21110348, "name": "Circuit", "participants": [{"id": 19416602, "gamerTag": "Circuit", "prefix": null, "user": {"location": {"city": "Gainesville", "state": "GA", "country": "United States"}}, "player": {"id": 1318584, "gamerTag": "Circuit", "prefix": "", "user": {"location": {"city": "Gainesville", "state": "GA", "country": "United States"}}}}]}}, {"id": 36386784, "seedNum": 6, "entrant": {"id": 21110967, "name": "Themantheycalltrey", "participants": [{"id": 19418463, "gamerTag": "Themantheycalltrey", "prefix": "", "user": {"location": {"city": "Tucker", "state": "GA", "country": "United States"}}, "player": {"id": 4946298, "gamerTag": "Themantheycalltrey", "prefix": "", "user": {"location": {"city": "Tucker", "state": "GA", "country": "United States"}}}}]}}, {"id": 36386136, "seedNum": 4, "entrant": {"id": 21110395, "name": "4o4 | AShavers21", "participants": [{"id": 19417958, "gamerTag": "AShavers21", "prefix": "4o4", "user": {"location": {"city": "Atlanta", "state": "GA", "country": "United States"}}, "player": {"id": 437583, "gamerTag": "AShavers21", "prefix": "4o4", "user": {"location": {"city": "Atlanta", "state": "GA", "country": "United States"}}}}]}}, {"id": 36386709, "seedNum": 5, "entrant": {"id": 21110891, "name": "Zay", "participants": [{"id": 19418393, "gamerTag": "Zay", "prefix": "", "user": {"location": {"city": "Atlanta", "state": "GA", "country": "United States"}}, "player": {"id": 4946289, "gamerTag": "Zay", "prefix": "", "user": {"location": {"city": "Atlanta", "state": "GA", "country": "United States"}}}}]}}, {"id": 36378076, "seedNum": 1, "entrant": {"id": 21104814, "name": "WFG | ChaosDunk", "participants": [{"id": 19412853, "gamerTag": "ChaosDunk", "prefix": "WFG", "user": {"location": {"city": "Woodstock", "state": "GA", "country": "United States"}}, "player": {"id": 24721, "gamerTag": "ChaosDunk", "prefix": "WFG", "user": {"location": {"city": "Woodstock", "state": "GA", "country": "United States"}}}}]}}, {"id": 36386797, "seedNum": 7, "entrant": {"id": 21110980, "name": "Treyquility", "participants": [{"id": 19418474, "gamerTag": "Treyquility", "prefix": "", "user": {"location": {"city": "Baxley", "state": "GA", "country": "United States"}}, "player": {"id": 4946300, "gamerTag": "Treyquility", "prefix": "", "user": {"location": {"city": "Baxley", "state": "GA", "country": "United States"}}}}]}}]}}}