{"phase": {"seeds": {"pageInfo": {"totalPages": 1, "total": 5}, "nodes": [{"id": 36783817, "seedNum": 1, "entrant": {"id": 21383021, "name": "bean", "participants": [{"id": 19656116, "gamerTag": "bean", "prefix": null, "user": {"location": {"city": "Athens", "state": "GA", "country": "United States"}}, "player": {"id": 3596462, "gamerTag": "bean", "prefix": null, "user": {"location": {"city": "Athens", "state": "GA", "country": "United States"}}}}]}}, {"id": 36808876, "seedNum": 4, "entrant": {"id": 21400882, "name": "Goldie Hops", "participants": [{"id": 19671298, "gamerTag": "Goldie Hops", "prefix": "", "user": {"location": {"city": null, "state": null, "country": null}}, "player": {"id": 2659043, "gamerTag": "Goldie Hops", "prefix": "", "user": {"location": {"city": null, "state": null, "country": null}}}}]}}, {"id": 36808768, "seedNum": 3, "entrant": {"id": 21400815, "name": "GRW | Gooey", "participants": [{"id": 19671237, "gamerTag": "Gooey", "prefix": "GRW", "user": {"location": {"city": "Athens", "state": "GA", "country": "United States"}}, "player": {"id": 1071181, "gamerTag": "Gooey", "prefix": "GRW", "user": {"location": {"city": "Athens", "state": "GA", "country": "United States"}}}}]}}, {"id": 36808669, "seedNum": 2, "entrant": {"id": 21400758, "name": "mike | mike", "participants": [{"id": 19671184, "gamerTag": "mike", "prefix": "mike", "user": {"location": {"city": "Athens", "state": "GA", "country": "United States"}}, "player": {"id": 1821403, "gamerTag": "mike", "prefix": "mike", "user": {"location": {"city": "Athens", "state": "GA", "country": "United States"}}}}]}}, {"id": 36820441, "seedNum": 5, "entrant": {"id": 21407672, "name": "Savant", "participants": [{"id": 19652741, "gamerTag": "Savant", "prefix": null, "user": {"location": {"city": "Athens", "state": "GA", "country": "United States"}}, "player": {"id": 1944044, "gamerTag": "Savant", "prefix": "LBE | CC", "user": {"location": {"city": "Athens", "state": "GA", "country": "United States"}}}}]}}]}}}