{"phase": {"seeds": {"pageInfo": {"totalPages": 1, "total": 10}, "nodes": [{"id": 35877939, "seedNum": 3, "entrant": {"id": 20792023, "name": "KSU | Subzero", "participants": [{"id": 19135294, "gamerTag": "Subzero", "prefix": "KSU", "user": {"location": {"city": "Acworth", "state": "GA", "country": "United States"}}, "player": {"id": 1808159, "gamerTag": "Subzero", "prefix": "KSU", "user": {"location": {"city": "Acworth", "state": "GA", "country": "United States"}}}}]}}, {"id": 35877944, "seedNum": 1, "entrant": {"id": 20792028, "name": "KSU | colorful\u029a\u025e", "participants": [{"id": 19135296, "gamerTag": "colorful\u029a\u025e", "prefix": "KSU", "user": {"location": {"city": "Kennesaw", "state": "GA", "country": "United States"}}, "player": {"id": 1783074, "gamerTag": "colorful\u029a\u025e", "prefix": "KSU | RM", "user": {"location": {"city": "Kennesaw", "state": "GA", "country": "United States"}}}}]}}, {"id": 35877982, "seedNum": 5, "entrant": {"id": 20792043, "name": "Galactic", "participants": [{"id": 19135312, "gamerTag": "Galactic", "prefix": "", "user": {"location": {"city": null, "state": "GA", "country": "United States"}}, "player": {"id": 4019219, "gamerTag": "Galactic", "prefix": "", "user": {"location": {"city": null, "state": "GA", "country": "United States"}}}}]}}, {"id": 35877977, "seedNum": 2, "entrant": {"id": 20792038, "name": "SaggyMilkJug", "participants": [{"id": 19135307, "gamerTag": "SaggyMilkJug", "prefix": "", "user": {"location": {"city": "Atlanta", "state": "GA", "country": "United States"}}, "player": {"id": 4651404, "gamerTag": "SaggyMilkJug", "prefix": "", "user": {"location": {"city": "Atlanta", "state": "GA", "country": "United States"}}}}]}}, {"id": 35877974, "seedNum": 4, "entrant": {"id": 20792036, "name": "Idia", "participants": [{"id": 19135305, "gamerTag": "Idia", "prefix": "", "user": null, "player": {"id": 4891028, "gamerTag": "Idia", "prefix": "", "user": null}}]}}, {"id": 35878348, "seedNum": 10, "entrant": {"id": 20792198, "name": "Nick", "participants": [{"id": 19135434, "gamerTag": "Nick", "prefix": "", "user": null, "player": {"id": 4891049, "gamerTag": "Nick", "prefix": "", "user": null}}]}}, {"id": 35878317, "seedNum": 8, "entrant": {"id": 20792162, "name": "Ryan", "participants": [{"id": 19135409, "gamerTag": "Ryan", "prefix": "", "user": null, "player": {"id": 4891044, "gamerTag": "Ryan", "prefix": "", "user": null}}]}}, {"id": 35878340, "seedNum": 9, "entrant": {"id": 20792178, "name": "Caleb", "participants": [{"id": 19135421, "gamerTag": "Caleb", "prefix": "", "user": null, "player": {"id": 4891047, "gamerTag": "Caleb", "prefix": "", "user": null}}]}}, {"id": 35877960, "seedNum": 6, "entrant": {"id": 20792032, "name": "Slimer", "participants": [{"id": 19135300, "gamerTag": "Slimer", "prefix": "", "user": null, "player": {"id": 4891027, "gamerTag": "Slimer", "prefix": "", "user": null}}]}}, {"id": 35877975, "seedNum": 7, "entrant": {"id": 20792037, "name": "Oobie Doobie Kenoobi", "participants": [{"id": 19135306, "gamerTag": "Oobie Doobie Kenoobi", "prefix": "", "user": null, "player": {"id": 4891029, "gamerTag": "Oobie Doobie Kenoobi", "prefix": "", "user": null}}]}}]}}}