{"phase": {"seeds": {"pageInfo": {"totalPages": 1, "total": 19}, "nodes": [{"id": 36214775, "seedNum": 19, "entrant": {"id": 20998633, "name": "Siddward", "participants": [{"id": 19316447, "gamerTag": "Siddward", "prefix": "", "user": {"location": {"city": "cary", "state": "NC", "country": "United States"}}, "player": {"id": 31487, "gamerTag": "Siddward", "prefix": "", "user": {"location": {"city": "cary", "state": "NC", "country": "United States"}}}}]}}, {"id": 36211803, "seedNum": 1, "entrant": {"id": 20996400, "name": "Colbol", "participants": [{"id": 19314450, "gamerTag": "Colbol", "prefix": "", "user": {"location": {"city": "Tucker", "state": "GA", "country": "United States"}}, "player": {"id": 1009, "gamerTag": "Colbol", "prefix": "", "user": {"location": {"city": "Tucker", "state": "GA", "country": "United States"}}}}]}}, {"id": 36213083, "seedNum": 4, "entrant": {"id": 20997283, "name": "swaggerbee", "participants": [{"id": 19315175, "gamerTag": "swaggerbee", "prefix": "", "user": {"location": {"city": "Atlanta", "state": "GA", "country": "United States"}}, "player": {"id": 1687384, "gamerTag": "swaggerbee", "prefix": "", "user": {"location": {"city": "Atlanta", "state": "GA", "country": "United States"}}}}]}}, {"id": 36210444, "seedNum": 7, "entrant": {"id": 20995501, "name": "skyguy | Chris Danger", "participants": [{"id": 19313629, "gamerTag": "Chris Danger", "prefix": "skyguy", "user": {"location": {"city": "Atlanta", "state": "GA", "country": "United States"}}, "player": {"id": 2808268, "gamerTag": "Chris Danger", "prefix": "skyguy", "user": {"location": {"city": "Atlanta", "state": "GA", "country": "United States"}}}}]}}, {"id": 36210463, "seedNum": 6, "entrant": {"id": 20995520, "name": "skyguy | bag", "participants": [{"id": 19313650, "gamerTag": "bag", "prefix": "skyguy", "user": {"location": {"city": "Atlanta", "state": "GA", "country": "United States"}}, "player": {"id": 271346, "gamerTag": "bag", "prefix": "skyguy", "user": {"location": {"city": "Atlanta", "state": "GA", "country": "United States"}}}}]}}, {"id": 36209366, "seedNum": 2, "entrant": {"id": 20994645, "name": "vivesthesia", "participants": [{"id": 19312852, "gamerTag": "vivesthesia", "prefix": null, "user": {"location": {"city": "Atlanta", "state": "GA", "country": "United States"}}, "player": {"id": 4395171, "gamerTag": "vivesthesia", "prefix": null, "user": {"location": {"city": "Atlanta", "state": "GA", "country": "United States"}}}}]}}, {"id": 36211765, "seedNum": 5, "entrant": {"id": 20996378, "name": "Supersponge", "participants": [{"id": 19314430, "gamerTag": "Supersponge", "prefix": "", "user": {"location": {"city": "Greenville", "state": "SC", "country": "United States"}}, "player": {"id": 11208, "gamerTag": "Supersponge", "prefix": "", "user": {"location": {"city": "Greenville", "state": "SC", "country": "United States"}}}}]}}, {"id": 36210421, "seedNum": 3, "entrant": {"id": 20995481, "name": "TEAM FISH | GI0GOAT", "participants": [{"id": 19313608, "gamerTag": "GI0GOAT", "prefix": "TEAM FISH", "user": {"location": {"city": "Elmwood Park", "state": "IL", "country": "United States"}}, "player": {"id": 153434, "gamerTag": "GI0GOAT", "prefix": "TEAM FISH", "user": {"location": {"city": "Elmwood Park", "state": "IL", "country": "United States"}}}}]}}, {"id": 36209726, "seedNum": 8, "entrant": {"id": 20994992, "name": "Karan", "participants": [{"id": 19313164, "gamerTag": "Karan", "prefix": "", "user": {"location": {"city": "Atlanta", "state": "GA", "country": "United States"}}, "player": {"id": 35472, "gamerTag": "Karan", "prefix": "", "user": {"location": {"city": "Atlanta", "state": "GA", "country": "United States"}}}}]}}, {"id": 36211823, "seedNum": 9, "entrant": {"id": 20996420, "name": "N/a | C$", "participants": [{"id": 19314468, "gamerTag": "C$", "prefix": "N/a", "user": {"location": null}, "player": {"id": 228175, "gamerTag": "C$", "prefix": "N/a", "user": {"location": null}}}]}}, {"id": 36212446, "seedNum": 10, "entrant": {"id": 20996878, "name": "EnergySword", "participants": [{"id": 19314836, "gamerTag": "EnergySword", "prefix": "", "user": null, "player": {"id": 4928521, "gamerTag": "EnergySword", "prefix": "", "user": null}}]}}, {"id": 36210012, "seedNum": 11, "entrant": {"id": 20995175, "name": "tomguy", "participants": [{"id": 19313330, "gamerTag": "tomguy", "prefix": "", "user": {"location": {"city": "Atlanta", "state": "GA", "country": "United States"}}, "player": {"id": 147458, "gamerTag": "tomguy", "prefix": "", "user": {"location": {"city": "Atlanta", "state": "GA", "country": "United States"}}}}]}}, {"id": 36210705, "seedNum": 13, "entrant": {"id": 20995694, "name": "cheeks", "participants": [{"id": 19313817, "gamerTag": "cheeks", "prefix": "", "user": {"location": {"city": "Greenville", "state": "SC", "country": "United States"}}, "player": {"id": 2168044, "gamerTag": "cheeks", "prefix": "", "user": {"location": {"city": "Greenville", "state": "SC", "country": "United States"}}}}]}}, {"id": 36209146, "seedNum": 12, "entrant": {"id": 20994442, "name": "SKRUNT | diremaykr", "participants": [{"id": 19312650, "gamerTag": "diremaykr", "prefix": "SKRUNT", "user": {"location": {"city": "Buford", "state": "GA", "country": "United States"}}, "player": {"id": 3207366, "gamerTag": "diremaykr", "prefix": "", "user": {"location": {"city": "Buford", "state": "GA", "country": "United States"}}}}]}}, {"id": 36210496, "seedNum": 14, "entrant": {"id": 20995554, "name": "Tech Chase | braxton", "participants": [{"id": 19313685, "gamerTag": "braxton", "prefix": "Tech Chase", "user": {"location": {"city": "Atlanta", "state": "GA", "country": "United States"}}, "player": {"id": 1037821, "gamerTag": "braxton", "prefix": "The Hive", "user": {"location": {"city": "Atlanta", "state": "GA", "country": "United States"}}}}]}}, {"id": 36209335, "seedNum": 15, "entrant": {"id": 20994614, "name": "blaise", "participants": [{"id": 19312820, "gamerTag": "blaise", "prefix": "", "user": {"location": {"city": "douglasville", "state": "GA", "country": "United States"}}, "player": {"id": 1326121, "gamerTag": "blaise", "prefix": "", "user": {"location": {"city": "douglasville", "state": "GA", "country": "United States"}}}}]}}, {"id": 36210963, "seedNum": 16, "entrant": {"id": 20995804, "name": "DogLikeThing", "participants": [{"id": 19313920, "gamerTag": "DogLikeThing", "prefix": "", "user": {"location": {"city": "Greenville", "state": "SC", "country": "United States"}}, "player": {"id": 3791525, "gamerTag": "Zeik", "prefix": "", "user": {"location": {"city": "Greenville", "state": "SC", "country": "United States"}}}}]}}, {"id": 36210891, "seedNum": 17, "entrant": {"id": 20995755, "name": "STEEZY", "participants": [{"id": 19313873, "gamerTag": "STEEZY", "prefix": null, "user": {"location": {"city": "HELL", "state": "GA", "country": "United States"}}, "player": {"id": 2496238, "gamerTag": "STEEZY", "prefix": null, "user": {"location": {"city": "HELL", "state": "GA", "country": "United States"}}}}]}}, {"id": 36210025, "seedNum": 18, "entrant": {"id": 20995188, "name": "TPS | $CAIT", "participants": [{"id": 19313340, "gamerTag": "$CAIT", "prefix": "TPS", "user": {"location": {"city": "Kennesaw", "state": "GA", "country": "United States"}}, "player": {"id": 3422494, "gamerTag": "$CAITLIN", "prefix": "TPS", "user": {"location": {"city": "Kennesaw", "state": "GA", "country": "United States"}}}}]}}]}}}