{"phase": {"seeds": {"pageInfo": {"totalPages": 4, "total": 160}, "nodes": [{"id": 35610330, "seedNum": 146, "entrant": {"id": 20616017, "name": "GUMP2 | Scrib", "participants": [{"id": 18978747, "gamerTag": "Scrib", "prefix": "GUMP2", "user": {"location": {"city": "Marietta", "state": "GA", "country": "United States"}}, "player": {"id": 1504459, "gamerTag": "Scrib", "prefix": "GUMP2", "user": {"location": {"city": "Marietta", "state": "GA", "country": "United States"}}}}]}}, {"id": 35414689, "seedNum": 147, "entrant": {"id": 20492307, "name": "EDLN | BWU | GOOMBA!", "participants": [{"id": 18870830, "gamerTag": "GOOMBA!", "prefix": "EDLN | BWU", "user": {"location": {"city": "Johns Creek", "state": "GA", "country": "United States"}}, "player": {"id": 1052642, "gamerTag": "GOOMBA!", "prefix": "EDLN | BWU", "user": {"location": {"city": "Johns Creek", "state": "GA", "country": "United States"}}}}]}}, {"id": 35780660, "seedNum": 148, "entrant": {"id": 20736227, "name": "Wyndeezi", "participants": [{"id": 19082951, "gamerTag": "Wyndeezi", "prefix": "", "user": {"location": {"city": "Lawrenceville", "state": "GA", "country": "United States"}}, "player": {"id": 3254098, "gamerTag": "Wyndeezi", "prefix": "", "user": {"location": {"city": "Lawrenceville", "state": "GA", "country": "United States"}}}}]}}, {"id": 35775093, "seedNum": 149, "entrant": {"id": 20731847, "name": "soph", "participants": [{"id": 19079389, "gamerTag": "soph", "prefix": "", "user": {"location": {"city": "Santa Rosa Beach", "state": "FL", "country": "United States"}}, "player": {"id": 1641440, "gamerTag": "soph", "prefix": "", "user": {"location": {"city": "Santa Rosa Beach", "state": "FL", "country": "United States"}}}}]}}, {"id": 35431501, "seedNum": 151, "entrant": {"id": 20504104, "name": "LBE | Lumin!", "participants": [{"id": 18881355, "gamerTag": "Lumin!", "prefix": "LBE", "user": {"location": {"city": "Athens", "state": "GA", "country": "United States"}}, "player": {"id": 2737569, "gamerTag": "Lumin!", "prefix": "LBE", "user": {"location": {"city": "Athens", "state": "GA", "country": "United States"}}}}]}}, {"id": 35715275, "seedNum": 153, "entrant": {"id": 20689942, "name": "PL | Ner\u0153", "participants": [{"id": 19042898, "gamerTag": "Ner\u0153", "prefix": "PL", "user": {"location": {"city": "Carrollton", "state": "GA", "country": "United States"}}, "player": {"id": 4349436, "gamerTag": "Ner\u0153", "prefix": "PL", "user": {"location": {"city": "Carrollton", "state": "GA", "country": "United States"}}}}]}}, {"id": 35803886, "seedNum": 155, "entrant": {"id": 20750950, "name": "JustVoidzzz", "participants": [{"id": 19096425, "gamerTag": "JustVoidzzz", "prefix": "", "user": {"location": {"city": null, "state": null, "country": "United States"}}, "player": {"id": 4843167, "gamerTag": "JustVoidzzz", "prefix": "", "user": {"location": {"city": null, "state": null, "country": "United States"}}}}]}}, {"id": 35929088, "seedNum": 157, "entrant": {"id": 20824137, "name": "Deathrite", "participants": [{"id": 19163108, "gamerTag": "Deathrite", "prefix": "", "user": {"location": {"city": null, "state": null, "country": "United States"}}, "player": {"id": 4819014, "gamerTag": "Deathrite", "prefix": "", "user": {"location": {"city": null, "state": null, "country": "United States"}}}}]}}, {"id": 35927435, "seedNum": 158, "entrant": {"id": 20822929, "name": "Aubrey", "participants": [{"id": 19161896, "gamerTag": "Aubrey", "prefix": "", "user": {"location": {"city": null, "state": null, "country": "United States"}}, "player": {"id": 4818785, "gamerTag": "Aubrey", "prefix": "", "user": {"location": {"city": null, "state": null, "country": "United States"}}}}]}}, {"id": 35479942, "seedNum": 159, "entrant": {"id": 20538182, "name": "nicnamedom", "participants": [{"id": 18911402, "gamerTag": "nicnamedom", "prefix": "", "user": {"location": {"city": null, "state": null, "country": "United States"}}, "player": {"id": 4814071, "gamerTag": "nicnamedom", "prefix": "", "user": {"location": {"city": null, "state": null, "country": "United States"}}}}]}}]}}}