{"phase": {"seeds": {"pageInfo": {"totalPages": 1, "total": 6}, "nodes": [{"id": 35800505, "seedNum": 6, "entrant": {"id": 20748460, "name": "ROB Slayer", "participants": [{"id": 19010408, "gamerTag": "ROB Slayer", "prefix": null, "user": {"location": {"city": "Atlanta", "state": "GA", "country": "United States"}}, "player": {"id": 2414381, "gamerTag": "ROB Slayer", "prefix": "Hell Mode", "user": {"location": {"city": "Atlanta", "state": "GA", "country": "United States"}}}}]}}, {"id": 35756333, "seedNum": 2, "entrant": {"id": 20719706, "name": "ballmeat", "participants": [{"id": 19068884, "gamerTag": "ballmeat", "prefix": null, "user": {"location": {"city": "Alexandria", "state": "VA", "country": "United States"}}, "player": {"id": 2295476, "gamerTag": "ballmeat", "prefix": null, "user": {"location": {"city": "Alexandria", "state": "VA", "country": "United States"}}}}]}}, {"id": 35799894, "seedNum": 5, "entrant": {"id": 20747995, "name": "librakitty", "participants": [{"id": 19093574, "gamerTag": "librakitty", "prefix": "", "user": {"location": {"city": "Carrollton", "state": "GA", "country": "United States"}}, "player": {"id": 4796441, "gamerTag": "librakitty", "prefix": "", "user": {"location": {"city": "Carrollton", "state": "GA", "country": "United States"}}}}]}}, {"id": 35756758, "seedNum": 3, "entrant": {"id": 20720057, "name": "LADZ | Gunstar3888", "participants": [{"id": 19069227, "gamerTag": "Gunstar3888", "prefix": "LADZ", "user": {"location": {"city": null, "state": null, "country": null}}, "player": {"id": 1313518, "gamerTag": "Gunstar3888", "prefix": "LADZ", "user": {"location": {"city": null, "state": null, "country": null}}}}]}}, {"id": 35780647, "seedNum": 4, "entrant": {"id": 20736214, "name": "Puke", "participants": [{"id": 19082937, "gamerTag": "Puke", "prefix": "", "user": {"location": {"city": null, "state": "GA", "country": "United States"}}, "player": {"id": 400199, "gamerTag": "Alting", "prefix": "", "user": {"location": {"city": null, "state": "GA", "country": "United States"}}}}]}}, {"id": 35677383, "seedNum": 1, "entrant": {"id": 20663115, "name": "GG | varunk", "participants": [{"id": 19019970, "gamerTag": "varunk", "prefix": "GG", "user": {"location": {"city": "Marietta", "state": "GA", "country": "United States"}}, "player": {"id": 1653684, "gamerTag": "varunk", "prefix": "GG", "user": {"location": {"city": "Marietta", "state": "GA", "country": "United States"}}}}]}}]}}}