{"event": {"sets": {"pageInfo": {"totalPages": 2, "total": 28}, "nodes": [{"id": 94883115, "state": 3, "round": 7, "fullRoundText": "Round 7", "completedAt": 1760140911, "winnerId": 21505958, "slots": [{"id": "94883115-0", "entrant": {"id": 21505958, "name": "carlop", "participants": [{"id": 19762689, "gamerTag": "carlop", "prefix": null, "user": {"location": {"city": "Johns Creek", "state": "GA", "country": "United States"}}, "player": {"id": 3431919, "gamerTag": "carlop", "prefix": null, "user": {"location": {"city": "Johns Creek", "state": "GA", "country": "United States"}}}}]}, "standing": {"placement": 1, "stats": {"score": {"value": 2}}}}, {"id": "94883115-1", "entrant": {"id": 21505942, "name": "Stock Stealer | T.K.O", "participants": [{"id": 19762677, "gamerTag": "T.K.O", "prefix": "Stock Stealer", "user": {"location": {"city": "Smyrna", "state": "GA", "country": "United States"}}, "player": {"id": 4933114, "gamerTag": "T.K.O", "prefix": "Stock Stealer", "user": {"location": {"city": "Smyrna", "state": "GA", "country": "United States"}}}}]}, "standing": {"placement": 2, "stats": {"score": {"value": 0}}}}], "games": null}, {"id": 94883116, "state": 3, "round": 7, "fullRoundText": "Round 7", "completedAt": 1760140700, "winnerId": 21512536, "slots": [{"id": "94883116-0", "entrant": {"id": 21512536, "name": "CHEESE", "participants": [{"id": 19768567, "gamerTag": "CHEESE", "prefix": null, "user": {"location": {"city": "Buford", "state": "GA", "country": "United States"}}, "player": {"id": 3429754, "gamerTag": "CHEESE", "prefix": null, "user": {"location": {"city": "Buford", "state": "GA", "country": "United States"}}}}]}, "standing": {"placement": 1, "stats": {"score": {"value": 2}}}}, {"id": "94883116-1", "entrant": {"id": 21515754, "name": "KSU | Subzero", "participants": [{"id": 19771561, "gamerTag": "Subzero", "prefix": "KSU", "user": {"location": {"city": "Acworth", "state": "GA", "country": "United States"}}, "player": {"id": 1808159, "gamerTag": "Subzero", "prefix": "KSU", "user": {"location": {"city": "Acworth", "state": "GA", "country": "United States"}}}}]}, "standing": {"placement": 2, "stats": {"score": {"value": 0}}}}], "games": [{"id": 33199014, "orderNum": 1, "winnerId": 21512536, "entrant1Score": null, "entrant2Score": 0, "stage": null, "selections": [{"id": 49017660, "selectionType": "CHARACTER", "selectionValue": 1279, "entrant": {"id": 21512536}, "character": {"id": 1279, "name": "Diddy Kong"}}, {"id": 49017661, "selectionType": "CHARACTER", "selectionValue": 1795, "entrant": {"id": 21515754}, "character": {"id": 1795, "name": "Pyra & Mythra"}}]}, {"id": 33199015, "orderNum": 2, "winnerId": 21512536, "entrant1Score": null, "entrant2Score": 0, "stage": null, "selections": [{"id": 49017662, "selectionType": "CHARACTER", "selectionValue": 1279, "entrant": {"id": 21512536}, "character": {"id": 1279, "name": "Diddy Kong"}}, {"id": 49017663, "selectionType": "CHARACTER", "selectionValue": 1341, "entrant": {"id": 21515754}, "character": {"id": 1341, "name": "Zero Suit Samus"}}]}]}, {"id": 94883113, "state": 3, "round": 7, "fullRoundText": "Round 7", "completedAt": 1760140168, "winnerId": 21506293, "slots": [{"id": "94883113-0", "entrant": {"id": 21506293, "name": "RM | GUMP2 | AO ASHI SEASON 2 2026", "participants": [{"id": 19763018, "gamerTag": "AO ASHI SEASON 2 2026", "prefix": "RM | GUMP2", "user": {"location": {"city": "Lawrenceville", "state": "GA", "country": "United States"}}, "player": {"id": 2409815, "gamerTag": "AO ASHI SEASON 2 2026", "prefix": "RM | GUMP2", "user": {"location": {"city": "Lawrenceville", "state": "GA", "country": "United States"}}}}]}, "standing": {"placement": 1, "stats": {"score": {"value": 2}}}}, {"id": "94883113-1", "entrant": {"id": 21519158, "name": "Rain~", "participants": [{"id": 19774418, "gamerTag": "Rain~", "prefix": null, "user": {"location": {"city": "Atlanta", "state": "GA", "country": "United States"}}, "player": {"id": 4240164, "gamerTag": "Rain~", "prefix": null, "user": {"location": {"city": "Atlanta", "state": "GA", "country": "United States"}}}}]}, "standing": {"placement": 2, "stats": {"score": {"value": 0}}}}], "games": null}, {"id": 94883114, "state": 3, "round": 7, "fullRoundText": "Round 7", "completedAt": 1760141898, "winnerId": 21505993, "slots": [{"id": "94883114-0", "entrant": {"id": 21505993, "name": "red dot", "participants": [{"id": 19762721, "gamerTag": "red dot", "prefix": "", "user": {"location": {"city": "Milton", "state": "GA", "country": "United States"}}, "player": {"id": 1812177, "gamerTag": "red dot", "prefix": "", "user": {"location": {"city": "Milton", "state": "GA", "country": "United States"}}}}]}, "standing": {"placement": 1, "stats": {"score": {"value": 2}}}}, {"id": "94883114-1", "entrant": {"id": 21515534, "name": "KSU | MikePTM", "participants": [{"id": 19771355, "gamerTag": "MikePTM", "prefix": "KSU", "user": {"location": {"city": null, "state": null, "country": "United States"}}, "player": {"id": 3586658, "gamerTag": "MikePTM", "prefix": "KSU", "user": {"location": {"city": null, "state": null, "country": "United States"}}}}]}, "standing": {"placement": 2, "stats": {"score": {"value": 0}}}}], "games": null}, {"id": 94883109, "state": 3, "round": 6, "fullRoundText": "Round 6", "completedAt": 1760139514, "winnerId": 21506293, "slots": [{"id": "94883109-0", "entrant": {"id": 21506293, "name": "RM | GUMP2 | AO ASHI SEASON 2 2026", "participants": [{"id": 19763018, "gamerTag": "AO ASHI SEASON 2 2026", "prefix": "RM | GUMP2", "user": {"location": {"city": "Lawrenceville", "state": "GA", "country": "United States"}}, "player": {"id": 2409815, "gamerTag": "AO ASHI SEASON 2 2026", "prefix": "RM | GUMP2", "user": {"location": {"city": "Lawrenceville", "state": "GA", "country": "United States"}}}}]}, "standing": {"placement": 1, "stats": {"score": {"value": 2}}}}, {"id": "94883109-1", "entrant": {"id": 21505993, "name": "red dot", "participants": [{"id": 19762721, "gamerTag": "red dot", "prefix": "", "user": {"location": {"city": "Milton", "state": "GA", "country": "United States"}}, "player": {"id": 1812177, "gamerTag": "red dot", "prefix": "", "user": {"location": {"city": "Milton", "state": "GA", "country": "United States"}}}}]}, "standing": {"placement": 2, "stats": {"score": {"value": 0}}}}], "games": null}, {"id": 94883110, "state": 3, "round": 6, "fullRoundText": "Round 6", "completedAt": 1760143190, "winnerId": 21505958, "slots": [{"id": "94883110-0", "entrant": {"id": 21505958, "name": "carlop", "participants": [{"id": 19762689, "gamerTag": "carlop", "prefix": null, "user": {"location": {"city": "Johns Creek", "state": "GA", "country": "United States"}}, "player": {"id": 3431919, "gamerTag": "carlop", "prefix": null, "user": {"location": {"city": "Johns Creek", "state": "GA", "country": "United States"}}}}]}, "standing": {"placement": 1, "stats": {"score": {"value": 2}}}}, {"id": "94883110-1", "entrant": {"id": 21519158, "name": "Rain~", "participants": [{"id": 19774418, "gamerTag": "Rain~", "prefix": null, "user": {"location": {"city": "Atlanta", "state": "GA", "country": "United States"}}, "player": {"id": 4240164, "gamerTag": "Rain~", "prefix": null, "user": {"location": {"city": "Atlanta", "state": "GA", "country": "United States"}}}}]}, "standing": {"placement": 2, "stats": {"score": {"value": 0}}}}], "games": [{"id": 33202094, "orderNum": 1, "winnerId": 21505958, "entrant1Score": null, "entrant2Score": 0, "stage": null, "selections": [{"id": 49022164, "selectionType": "CHARACTER", "selectionValue": 1286, "entrant": {"id": 21505958}, "character": {"id": 1286, "name": "Fox"}}, {"id": 49022165, "selectionType": "CHARACTER", "selectionValue": 1326, "entrant": {"id": 21519158}, "character": {"id": 1326, "name": "Roy"}}]}, {"id": 33202095, "orderNum": 2, "winnerId": 21505958, "entrant1Score": null, "entrant2Score": 0, "stage": null, "selections": [{"id": 49022166, "selectionType": "CHARACTER", "selectionValue": 1286, "entrant": {"id": 21505958}, "character": {"id": 1286, "name": "Fox"}}, {"id": 49022167, "selectionType": "CHARACTER", "selectionValue": 1275, "entrant": {"id": 21519158}, "character": {"id": 1275, "name": "Cloud"}}]}]}, {"id": 94883111, "state": 3, "round": 6, "fullRoundText": "Round 6", "completedAt": 1760142802, "winnerId": 21512536, "slots": [{"id": "94883111-0", "entrant": {"id": 21512536, "name": "CHEESE", "participants": [{"id": 19768567, "gamerTag": "CHEESE", "prefix": null, "user": {"location": {"city": "Buford", "state": "GA", "country": "United States"}}, "player": {"id": 3429754, "gamerTag": "CHEESE", "prefix": null, "user": {"location": {"city": "Buford", "state": "GA", "country": "United States"}}}}]}, "standing": {"placement": 1, "stats": {"score": {"value": 2}}}}, {"id": "94883111-1", "entrant": {"id": 21515534, "name": "KSU | MikePTM", "participants": [{"id": 19771355, "gamerTag": "MikePTM", "prefix": "KSU", "user": {"location": {"city": null, "state": null, "country": "United States"}}, "player": {"id": 3586658, "gamerTag": "MikePTM", "prefix": "KSU", "user": {"location": {"city": null, "state": null, "country": "United States"}}}}]}, "standing": {"placement": 2, "stats": {"score": {"value": 1}}}}], "games": [{"id": 33201618, "orderNum": 1, "winnerId": 21512536, "entrant1Score": null, "entrant2Score": 0, "stage": {"id": 378, "name": "Pok\u00e9mon Stadium 2"}, "selections": [{"id": 49021394, "selectionType": "CHARACTER", "selectionValue": 1766, "entrant": {"id": 21512536}, "character": {"id": 1766, "name": "Steve"}}, {"id": 49021395, "selectionType": "CHARACTER", "selectionValue": 1287, "entrant": {"id": 21515534}, "character": {"id": 1287, "name": "Ganondorf"}}]}, {"id": 33201619, "orderNum": 2, "winnerId": 21515534, "entrant1Score": 0, "entrant2Score": null, "stage": null, "selections": [{"id": 49021396, "selectionType": "CHARACTER", "selectionValue": 1766, "entrant": {"id": 21512536}, "character": {"id": 1766, "name": "Steve"}}, {"id": 49021397, "selectionType": "CHARACTER", "selectionValue": 1287, "entrant": {"id": 21515534}, "character": {"id": 1287, "name": "Ganondorf"}}]}, {"id": 33201620, "orderNum": 3, "winnerId": 21512536, "entrant1Score": null, "entrant2Score": 0, "stage": null, "selections": [{"id": 49021398, "selectionType": "CHARACTER", "selectionValue": 1279, "entrant": {"id": 21512536}, "character": {"id": 1279, "name": "Diddy Kong"}}, {"id": 49021399, "selectionType": "CHARACTER", "selectionValue": 1273, "entrant": {"id": 21515534}, "character": {"id": 1273, "name": "Bowser"}}]}]}, {"id": 94883112, "state": 3, "round": 6, "fullRoundText": "Round 6", "completedAt": 1760143817, "winnerId": 21505942, "slots": [{"id": "94883112-0", "entrant": {"id": 21515754, "name": "KSU | Subzero", "participants": [{"id": 19771561, "gamerTag": "Subzero", "prefix": "KSU", "user": {"location": {"city": "Acworth", "state": "GA", "country": "United States"}}, "player": {"id": 1808159, "gamerTag": "Subzero", "prefix": "KSU", "user": {"location": {"city": "Acworth", "state": "GA", "country": "United States"}}}}]}, "standing": {"placement": 2, "stats": {"score": {"value": 1}}}}, {"id": "94883112-1", "entrant": {"id": 21505942, "name": "Stock Stealer | T.K.O", "participants": [{"id": 19762677, "gamerTag": "T.K.O", "prefix": "Stock Stealer", "user": {"location": {"city": "Smyrna", "state": "GA", "country": "United States"}}, "player": {"id": 4933114, "gamerTag": "T.K.O", "prefix": "Stock Stealer", "user": {"location": {"city": "Smyrna", "state": "GA", "country": "United States"}}}}]}, "standing": {"placement": 1, "stats": {"score": {"value": 2}}}}], "games": [{"id": 33202893, "orderNum": 1, "winnerId": 21505942, "entrant1Score": 0, "entrant2Score": null, "stage": null, "selections": [{"id": 49023378, "selectionType": "CHARACTER", "selectionValue": 1297, "entrant": {"id": 21505942}, "character": {"id": 1297, "name": "Little Mac"}}, {"id": 49023379, "selectionType": "CHARACTER", "selectionValue": 1337, "entrant": {"id": 21515754}, "character": {"id": 1337, "name": "Wolf"}}]}, {"id": 33202894, "orderNum": 2, "winnerId": 21515754, "entrant1Score": null, "entrant2Score": 0, "stage": null, "selections": [{"id": 49023380, "selectionType": "CHARACTER", "selectionValue": 1297, "entrant": {"id": 21505942}, "character": {"id": 1297, "name": "Little Mac"}}, {"id": 49023381, "selectionType": "CHARACTER", "selectionValue": 1316, "entrant": {"id": 21515754}, "character": {"id": 1316, "name": "Palutena"}}]}, {"id": 33202895, "orderNum": 3, "winnerId": 21505942, "entrant1Score": 0, "entrant2Score": null, "stage": null, "selections": [{"id": 49023382, "selectionType": "CHARACTER", "selectionValue": 1297, "entrant": {"id": 21505942}, "character": {"id": 1297, "name": "Little Mac"}}, {"id": 49023383, "selectionType": "CHARACTER", "selectionValue": 1453, "entrant": {"id": 21515754}, "character": {"id": 1453, "name": "Joker"}}]}]}, {"id": 94883105, "state": 3, "round": 5, "fullRoundText": "Round 5", "completedAt": 1760141418, "winnerId": 21506293, "slots": [{"id": "94883105-0", "entrant": {"id": 21506293, "name": "RM | GUMP2 | AO ASHI SEASON 2 2026", "participants": [{"id": 19763018, "gamerTag": "AO ASHI SEASON 2 2026", "prefix": "RM | GUMP2", "user": {"location": {"city": "Lawrenceville", "state": "GA", "country": "United States"}}, "player": {"id": 2409815, "gamerTag": "AO ASHI SEASON 2 2026", "prefix": "RM | GUMP2", "user": {"location": {"city": "Lawrenceville", "state": "GA", "country": "United States"}}}}]}, "standing": {"placement": 1, "stats": {"score": {"value": 2}}}}, {"id": "94883105-1", "entrant": {"id": 21505958, "name": "carlop", "participants": [{"id": 19762689, "gamerTag": "carlop", "prefix": null, "user": {"location": {"city": "Johns Creek", "state": "GA", "country": "United States"}}, "player": {"id": 3431919, "gamerTag": "carlop", "prefix": null, "user": {"location": {"city": "Johns Creek", "state": "GA", "country": "United States"}}}}]}, "standing": {"placement": 2, "stats": {"score": {"value": 0}}}}], "games": null}, {"id": 94883106, "state": 3, "round": 5, "fullRoundText": "Round 5", "completedAt": 1760141410, "winnerId": 21505993, "slots": [{"id": "94883106-0", "entrant": {"id": 21512536, "name": "CHEESE", "participants": [{"id": 19768567, "gamerTag": "CHEESE", "prefix": null, "user": {"location": {"city": "Buford", "state": "GA", "country": "United States"}}, "player": {"id": 3429754, "gamerTag": "CHEESE", "prefix": null, "user": {"location": {"city": "Buford", "state": "GA", "country": "United States"}}}}]}, "standing": {"placement": 2, "stats": {"score": {"value": 0}}}}, {"id": "94883106-1", "entrant": {"id": 21505993, "name": "red dot", "participants": [{"id": 19762721, "gamerTag": "red dot", "prefix": "", "user": {"location": {"city": "Milton", "state": "GA", "country": "United States"}}, "player": {"id": 1812177, "gamerTag": "red dot", "prefix": "", "user": {"location": {"city": "Milton", "state": "GA", "country": "United States"}}}}]}, "standing": {"placement": 1, "stats": {"score": {"value": 2}}}}], "games": [{"id": 33199867, "orderNum": 1, "winnerId": 21505993, "entrant1Score": 0, "entrant2Score": null, "stage": null, "selections": [{"id": 49018851, "selectionType": "CHARACTER", "selectionValue": 1410, "entrant": {"id": 21505993}, "character": {"id": 1410, "name": "Ken"}}, {"id": 49018852, "selectionType": "CHARACTER", "selectionValue": 1279, "entrant": {"id": 21512536}, "character": {"id": 1279, "name": "Diddy Kong"}}]}, {"id": 33199868, "orderNum": 2, "winnerId": 21505993, "entrant1Score": 0, "entrant2Score": null, "stage": null, "selections": [{"id": 49018853, "selectionType": "CHARACTER", "selectionValue": 1410, "entrant": {"id": 21505993}, "character": {"id": 1410, "name": "Ken"}}, {"id": 49018854, "selectionType": "CHARACTER", "selectionValue": 1279, "entrant": {"id": 21512536}, "character": {"id": 1279, "name": "Diddy Kong"}}]}]}, {"id": 94883107, "state": 3, "round": 5, "fullRoundText": "Round 5", "completedAt": 1760141556, "winnerId": 21519158, "slots": [{"id": "94883107-0", "entrant": {"id": 21515754, "name": "KSU | Subzero", "participants": [{"id": 19771561, "gamerTag": "Subzero", "prefix": "KSU", "user": {"location": {"city": "Acworth", "state": "GA", "country": "United States"}}, "player": {"id": 1808159, "gamerTag": "Subzero", "prefix": "KSU", "user": {"location": {"city": "Acworth", "state": "GA", "country": "United States"}}}}]}, "standing": {"placement": 2, "stats": {"score": {"value": 1}}}}, {"id": "94883107-1", "entrant": {"id": 21519158, "name": "Rain~", "participants": [{"id": 19774418, "gamerTag": "Rain~", "prefix": null, "user": {"location": {"city": "Atlanta", "state": "GA", "country": "United States"}}, "player": {"id": 4240164, "gamerTag": "Rain~", "prefix": null, "user": {"location": {"city": "Atlanta", "state": "GA", "country": "United States"}}}}]}, "standing": {"placement": 1, "stats": {"score": {"value": 2}}}}], "games": null}, {"id": 94883108, "state": 3, "round": 5, "fullRoundText": "Round 5", "completedAt": 1760140211, "winnerId": 21505942, "slots": [{"id": "94883108-0", "entrant": {"id": 21505942, "name": "Stock Stealer | T.K.O", "participants": [{"id": 19762677, "gamerTag": "T.K.O", "prefix": "Stock Stealer", "user": {"location": {"city": "Smyrna", "state": "GA", "country": "United States"}}, "player": {"id": 4933114, "gamerTag": "T.K.O", "prefix": "Stock Stealer", "user": {"location": {"city": "Smyrna", "state": "GA", "country": "United States"}}}}]}, "standing": {"placement": 1, "stats": {"score": {"value": 2}}}}, {"id": "94883108-1", "entrant": {"id": 21515534, "name": "KSU | MikePTM", "participants": [{"id": 19771355, "gamerTag": "MikePTM", "prefix": "KSU", "user": {"location": {"city": null, "state": null, "country": "United States"}}, "player": {"id": 3586658, "gamerTag": "MikePTM", "prefix": "KSU", "user": {"location": {"city": null, "state": null, "country": "United States"}}}}]}, "standing": {"placement": 2, "stats": {"score": {"value": 0}}}}], "games": null}, {"id": 94883101, "state": 3, "round": 4, "fullRoundText": "Round 4", "completedAt": 1760143696, "winnerId": 21506293, "slots": [{"id": "94883101-0", "entrant": {"id": 21506293, "name": "RM | GUMP2 | AO ASHI SEASON 2 2026", "participants": [{"id": 19763018, "gamerTag": "AO ASHI SEASON 2 2026", "prefix": "RM | GUMP2", "user": {"location": {"city": "Lawrenceville", "state": "GA", "country": "United States"}}, "player": {"id": 2409815, "gamerTag": "AO ASHI SEASON 2 2026", "prefix": "RM | GUMP2", "user": {"location": {"city": "Lawrenceville", "state": "GA", "country": "United States"}}}}]}, "standing": {"placement": 1, "stats": {"score": {"value": 2}}}}, {"id": "94883101-1", "entrant": {"id": 21512536, "name": "CHEESE", "participants": [{"id": 19768567, "gamerTag": "CHEESE", "prefix": null, "user": {"location": {"city": "Buford", "state": "GA", "country": "United States"}}, "player": {"id": 3429754, "gamerTag": "CHEESE", "prefix": null, "user": {"location": {"city": "Buford", "state": "GA", "country": "United States"}}}}]}, "standing": {"placement": 2, "stats": {"score": {"value": 0}}}}], "games": null}, {"id": 94883102, "state": 3, "round": 4, "fullRoundText": "Round 4", "completedAt": 1760142983, "winnerId": 21515754, "slots": [{"id": "94883102-0", "entrant": {"id": 21515754, "name": "KSU | Subzero", "participants": [{"id": 19771561, "gamerTag": "Subzero", "prefix": "KSU", "user": {"location": {"city": "Acworth", "state": "GA", "country": "United States"}}, "player": {"id": 1808159, "gamerTag": "Subzero", "prefix": "KSU", "user": {"location": {"city": "Acworth", "state": "GA", "country": "United States"}}}}]}, "standing": {"placement": 1, "stats": {"score": {"value": 2}}}}, {"id": "94883102-1", "entrant": {"id": 21505958, "name": "carlop", "participants": [{"id": 19762689, "gamerTag": "carlop", "prefix": null, "user": {"location": {"city": "Johns Creek", "state": "GA", "country": "United States"}}, "player": {"id": 3431919, "gamerTag": "carlop", "prefix": null, "user": {"location": {"city": "Johns Creek", "state": "GA", "country": "United States"}}}}]}, "standing": {"placement": 2, "stats": {"score": {"value": 0}}}}], "games": [{"id": 33201836, "orderNum": 1, "winnerId": 21515754, "entrant1Score": null, "entrant2Score": 0, "stage": null, "selections": [{"id": 49021720, "selectionType": "CHARACTER", "selectionValue": 1286, "entrant": {"id": 21505958}, "character": {"id": 1286, "name": "Fox"}}, {"id": 49021721, "selectionType": "CHARACTER", "selectionValue": 1453, "entrant": {"id": 21515754}, "character": {"id": 1453, "name": "Joker"}}]}, {"id": 33201837, "orderNum": 2, "winnerId": 21515754, "entrant1Score": null, "entrant2Score": 0, "stage": null, "selections": [{"id": 49021722, "selectionType": "CHARACTER", "selectionValue": 1286, "entrant": {"id": 21505958}, "character": {"id": 1286, "name": "Fox"}}, {"id": 49021723, "selectionType": "CHARACTER", "selectionValue": 1341, "entrant": {"id": 21515754}, "character": {"id": 1341, "name": "Zero Suit Samus"}}]}]}, {"id": 94883103, "state": 3, "round": 4, "fullRoundText": "Round 4", "completedAt": 1760142923, "winnerId": 21505993, "slots": [{"id": "94883103-0", "entrant": {"id": 21505942, "name": "Stock Stealer | T.K.O", "participants": [{"id": 19762677, "gamerTag": "T.K.O", "prefix": "Stock Stealer", "user": {"location": {"city": "Smyrna", "state": "GA", "country": "United States"}}, "player": {"id": 4933114, "gamerTag": "T.K.O", "prefix": "Stock Stealer", "user": {"location": {"city": "Smyrna", "state": "GA", "country": "United States"}}}}]}, "standing": {"placement": 2, "stats": {"score": {"value": 0}}}}, {"id": "94883103-1", "entrant": {"id": 21505993, "name": "red dot", "participants": [{"id": 19762721, "gamerTag": "red dot", "prefix": "", "user": {"location": {"city": "Milton", "state": "GA", "country": "United States"}}, "player": {"id": 1812177, "gamerTag": "red dot", "prefix": "", "user": {"location": {"city": "Milton", "state": "GA", "country": "United States"}}}}]}, "standing": {"placement": 1, "stats": {"score": {"value": 2}}}}], "games": null}]}}}