{"event": {"sets": {"pageInfo": {"totalPages": 1, "total": 10}, "nodes": [{"id": 94028029, "state": 3, "round": 5, "fullRoundText": "Round 5", "completedAt": 1758240698, "winnerId": 21294096, "slots": [{"id": "94028029-0", "entrant": {"id": 21294096, "name": "EVIL | Alas", "participants": [{"id": 19576970, "gamerTag": "Alas", "prefix": "EVIL", "user": {"location": {"city": null, "state": null, "country": null}}, "player": {"id": 25946, "gamerTag": "Alas", "prefix": "EVIL", "user": {"location": {"city": null, "state": null, "country": null}}}}]}, "standing": {"placement": 1, "stats": {"score": {"value": 3}}}}, {"id": "94028029-1", "entrant": {"id": 21294105, "name": "DD | Kingpoyothefirst", "participants": [{"id": 19576980, "gamerTag": "Kingpoyothefirst", "prefix": "DD", "user": {"location": {"city": null, "state": null, "country": null}}, "player": {"id": 2934299, "gamerTag": "Kingpoyothefirst", "prefix": "DD", "user": {"location": {"city": null, "state": null, "country": null}}}}]}, "standing": {"placement": 2, "stats": {"score": {"value": 2}}}}], "games": null}, {"id": 94028030, "state": 3, "round": 5, "fullRoundText": "Round 5", "completedAt": 1758243779, "winnerId": 21312495, "slots": [{"id": "94028030-0", "entrant": {"id": 21311741, "name": "sanrio enjoyer", "participants": [{"id": 19592330, "gamerTag": "sanrio enjoyer", "prefix": "", "user": {"location": {"city": "Atlanta", "state": "GA", "country": "United States"}}, "player": {"id": 3792585, "gamerTag": "sanrio enjoyer", "prefix": "", "user": {"location": {"city": "Atlanta", "state": "GA", "country": "United States"}}}}]}, "standing": {"placement": 2, "stats": {"score": {"value": 1}}}}, {"id": "94028030-1", "entrant": {"id": 21312495, "name": "69TacoTuesday69", "participants": [{"id": 19593037, "gamerTag": "69TacoTuesday69", "prefix": "", "user": {"location": {"city": "Atlanta", "state": "GA", "country": "United States"}}, "player": {"id": 158130, "gamerTag": "69TacoTuesday69", "prefix": "", "user": {"location": {"city": "Atlanta", "state": "GA", "country": "United States"}}}}]}, "standing": {"placement": 1, "stats": {"score": {"value": 3}}}}], "games": null}, {"id": 94028027, "state": 3, "round": 4, "fullRoundText": "Round 4", "completedAt": 1758242352, "winnerId": 21294096, "slots": [{"id": "94028027-0", "entrant": {"id": 21294096, "name": "EVIL | Alas", "participants": [{"id": 19576970, "gamerTag": "Alas", "prefix": "EVIL", "user": {"location": {"city": null, "state": null, "country": null}}, "player": {"id": 25946, "gamerTag": "Alas", "prefix": "EVIL", "user": {"location": {"city": null, "state": null, "country": null}}}}]}, "standing": {"placement": 1, "stats": {"score": {"value": 3}}}}, {"id": "94028027-1", "entrant": {"id": 21308559, "name": "TPS | $CAITLIN", "participants": [{"id": 19589701, "gamerTag": "$CAITLIN", "prefix": "TPS", "user": {"location": {"city": "Kennesaw", "state": "GA", "country": "United States"}}, "player": {"id": 3422494, "gamerTag": "$CAITLIN", "prefix": "TPS", "user": {"location": {"city": "Kennesaw", "state": "GA", "country": "United States"}}}}]}, "standing": {"placement": 2, "stats": {"score": {"value": 0}}}}], "games": null}, {"id": 94028028, "state": 3, "round": 4, "fullRoundText": "Round 4", "completedAt": 1758242757, "winnerId": 21294105, "slots": [{"id": "94028028-0", "entrant": {"id": 21311741, "name": "sanrio enjoyer", "participants": [{"id": 19592330, "gamerTag": "sanrio enjoyer", "prefix": "", "user": {"location": {"city": "Atlanta", "state": "GA", "country": "United States"}}, "player": {"id": 3792585, "gamerTag": "sanrio enjoyer", "prefix": "", "user": {"location": {"city": "Atlanta", "state": "GA", "country": "United States"}}}}]}, "standing": {"placement": 2, "stats": {"score": {"value": 0}}}}, {"id": "94028028-1", "entrant": {"id": 21294105, "name": "DD | Kingpoyothefirst", "participants": [{"id": 19576980, "gamerTag": "Kingpoyothefirst", "prefix": "DD", "user": {"location": {"city": null, "state": null, "country": null}}, "player": {"id": 2934299, "gamerTag": "Kingpoyothefirst", "prefix": "DD", "user": {"location": {"city": null, "state": null, "country": null}}}}]}, "standing": {"placement": 1, "stats": {"score": {"value": 3}}}}], "games": null}, {"id": 94028025, "state": 3, "round": 3, "fullRoundText": "Round 3", "completedAt": 1758241763, "winnerId": 21311741, "slots": [{"id": "94028025-0", "entrant": {"id": 21294096, "name": "EVIL | Alas", "participants": [{"id": 19576970, "gamerTag": "Alas", "prefix": "EVIL", "user": {"location": {"city": null, "state": null, "country": null}}, "player": {"id": 25946, "gamerTag": "Alas", "prefix": "EVIL", "user": {"location": {"city": null, "state": null, "country": null}}}}]}, "standing": {"placement": 2, "stats": {"score": {"value": 1}}}}, {"id": "94028025-1", "entrant": {"id": 21311741, "name": "sanrio enjoyer", "participants": [{"id": 19592330, "gamerTag": "sanrio enjoyer", "prefix": "", "user": {"location": {"city": "Atlanta", "state": "GA", "country": "United States"}}, "player": {"id": 3792585, "gamerTag": "sanrio enjoyer", "prefix": "", "user": {"location": {"city": "Atlanta", "state": "GA", "country": "United States"}}}}]}, "standing": {"placement": 1, "stats": {"score": {"value": 3}}}}], "games": null}, {"id": 94028026, "state": 3, "round": 3, "fullRoundText": "Round 3", "completedAt": 1758241250, "winnerId": 21312495, "slots": [{"id": "94028026-0", "entrant": {"id": 21312495, "name": "69TacoTuesday69", "participants": [{"id": 19593037, "gamerTag": "69TacoTuesday69", "prefix": "", "user": {"location": {"city": "Atlanta", "state": "GA", "country": "United States"}}, "player": {"id": 158130, "gamerTag": "69TacoTuesday69", "prefix": "", "user": {"location": {"city": "Atlanta", "state": "GA", "country": "United States"}}}}]}, "standing": {"placement": 1, "stats": {"score": {"value": 3}}}}, {"id": "94028026-1", "entrant": {"id": 21308559, "name": "TPS | $CAITLIN", "participants": [{"id": 19589701, "gamerTag": "$CAITLIN", "prefix": "TPS", "user": {"location": {"city": "Kennesaw", "state": "GA", "country": "United States"}}, "player": {"id": 3422494, "gamerTag": "$CAITLIN", "prefix": "TPS", "user": {"location": {"city": "Kennesaw", "state": "GA", "country": "United States"}}}}]}, "standing": {"placement": 2, "stats": {"score": {"value": 0}}}}], "games": null}, {"id": 94028023, "state": 3, "round": 2, "fullRoundText": "Round 2", "completedAt": 1758243093, "winnerId": 21312495, "slots": [{"id": "94028023-0", "entrant": {"id": 21294096, "name": "EVIL | Alas", "participants": [{"id": 19576970, "gamerTag": "Alas", "prefix": "EVIL", "user": {"location": {"city": null, "state": null, "country": null}}, "player": {"id": 25946, "gamerTag": "Alas", "prefix": "EVIL", "user": {"location": {"city": null, "state": null, "country": null}}}}]}, "standing": {"placement": 2, "stats": {"score": {"value": 0}}}}, {"id": "94028023-1", "entrant": {"id": 21312495, "name": "69TacoTuesday69", "participants": [{"id": 19593037, "gamerTag": "69TacoTuesday69", "prefix": "", "user": {"location": {"city": "Atlanta", "state": "GA", "country": "United States"}}, "player": {"id": 158130, "gamerTag": "69TacoTuesday69", "prefix": "", "user": {"location": {"city": "Atlanta", "state": "GA", "country": "United States"}}}}]}, "standing": {"placement": 1, "stats": {"score": {"value": 3}}}}], "games": null}, {"id": 94028024, "state": 3, "round": 2, "fullRoundText": "Round 2", "completedAt": 1758243223, "winnerId": 21294105, "slots": [{"id": "94028024-0", "entrant": {"id": 21294105, "name": "DD | Kingpoyothefirst", "participants": [{"id": 19576980, "gamerTag": "Kingpoyothefirst", "prefix": "DD", "user": {"location": {"city": null, "state": null, "country": null}}, "player": {"id": 2934299, "gamerTag": "Kingpoyothefirst", "prefix": "DD", "user": {"location": {"city": null, "state": null, "country": null}}}}]}, "standing": {"placement": 1, "stats": {"score": {"value": 3}}}}, {"id": "94028024-1", "entrant": {"id": 21308559, "name": "TPS | $CAITLIN", "participants": [{"id": 19589701, "gamerTag": "$CAITLIN", "prefix": "TPS", "user": {"location": {"city": "Kennesaw", "state": "GA", "country": "United States"}}, "player": {"id": 3422494, "gamerTag": "$CAITLIN", "prefix": "TPS", "user": {"location": {"city": "Kennesaw", "state": "GA", "country": "United States"}}}}]}, "standing": {"placement": 2, "stats": {"score": {"value": 0}}}}], "games": null}, {"id": 94028021, "state": 3, "round": 1, "fullRoundText": "Round 1", "completedAt": 1758241910, "winnerId": 21312495, "slots": [{"id": "94028021-0", "entrant": {"id": 21294105, "name": "DD | Kingpoyothefirst", "participants": [{"id": 19576980, "gamerTag": "Kingpoyothefirst", "prefix": "DD", "user": {"location": {"city": null, "state": null, "country": null}}, "player": {"id": 2934299, "gamerTag": "Kingpoyothefirst", "prefix": "DD", "user": {"location": {"city": null, "state": null, "country": null}}}}]}, "standing": {"placement": 2, "stats": {"score": {"value": 0}}}}, {"id": "94028021-1", "entrant": {"id": 21312495, "name": "69TacoTuesday69", "participants": [{"id": 19593037, "gamerTag": "69TacoTuesday69", "prefix": "", "user": {"location": {"city": "Atlanta", "state": "GA", "country": "United States"}}, "player": {"id": 158130, "gamerTag": "69TacoTuesday69", "prefix": "", "user": {"location": {"city": "Atlanta", "state": "GA", "country": "United States"}}}}]}, "standing": {"placement": 1, "stats": {"score": {"value": 3}}}}], "games": null}, {"id": 94028022, "state": 3, "round": 1, "fullRoundText": "Round 1", "completedAt": 1758240080, "winnerId": 21311741, "slots": [{"id": "94028022-0", "entrant": {"id": 21308559, "name": "TPS | $CAITLIN", "participants": [{"id": 19589701, "gamerTag": "$CAITLIN", "prefix": "TPS", "user": {"location": {"city": "Kennesaw", "state": "GA", "country": "United States"}}, "player": {"id": 3422494, "gamerTag": "$CAITLIN", "prefix": "TPS", "user": {"location": {"city": "Kennesaw", "state": "GA", "country": "United States"}}}}]}, "standing": {"placement": 2, "stats": {"score": {"value": 0}}}}, {"id": "94028022-1", "entrant": {"id": 21311741, "name": "sanrio enjoyer", "participants": [{"id": 19592330, "gamerTag": "sanrio enjoyer", "prefix": "", "user": {"location": {"city": "Atlanta", "state": "GA", "country": "United States"}}, "player": {"id": 3792585, "gamerTag": "sanrio enjoyer", "prefix": "", "user": {"location": {"city": "Atlanta", "state": "GA", "country": "United States"}}}}]}, "standing": {"placement": 1, "stats": {"score": {"value": 3}}}}], "games": [{"id": 32686144, "orderNum": 1, "winnerId": 21311741, "entrant1Score": 0, "entrant2Score": null, "stage": null, "selections": [{"id": 48200235, "selectionType": "CHARACTER", "selectionValue": 2, "entrant": {"id": 21308559}, "character": {"id": 2, "name": "Captain Falcon"}}, {"id": 48200236, "selectionType": "CHARACTER", "selectionValue": 9, "entrant": {"id": 21311741}, "character": {"id": 9, "name": "Jigglypuff"}}]}, {"id": 32686145, "orderNum": 2, "winnerId": 21311741, "entrant1Score": 0, "entrant2Score": 0, "stage": null, "selections": [{"id": 48200237, "selectionType": "CHARACTER", "selectionValue": 2, "entrant": {"id": 21308559}, "character": {"id": 2, "name": "Captain Falcon"}}, {"id": 48200238, "selectionType": "CHARACTER", "selectionValue": 9, "entrant": {"id": 21311741}, "character": {"id": 9, "name": "Jigglypuff"}}]}, {"id": 32686146, "orderNum": 3, "winnerId": 21311741, "entrant1Score": 0, "entrant2Score": null, "stage": null, "selections": [{"id": 48200239, "selectionType": "CHARACTER", "selectionValue": 2, "entrant": {"id": 21308559}, "character": {"id": 2, "name": "Captain Falcon"}}, {"id": 48200240, "selectionType": "CHARACTER", "selectionValue": 9, "entrant": {"id": 21311741}, "character": {"id": 9, "name": "Jigglypuff"}}]}]}]}}}