{"event": {"sets": {"pageInfo": {"totalPages": 2, "total": 25}, "nodes": [{"id": 94944574, "state": 3, "round": -4, "fullRoundText": "Losers Round 2", "completedAt": 1760222718, "winnerId": 21526958, "slots": [{"id": "94944574-0", "entrant": {"id": 21526958, "name": "Reboot | ohitshutch", "participants": [{"id": 19780967, "gamerTag": "ohitshutch", "prefix": "Reboot", "user": {"location": {"city": "Macon", "state": "GA", "country": "United States"}}, "player": {"id": 541397, "gamerTag": "ohitshutch", "prefix": "Reboot", "user": {"location": {"city": "Macon", "state": "GA", "country": "United States"}}}}]}, "standing": {"placement": 1, "stats": {"score": {"value": 2}}}}, {"id": "94944574-1", "entrant": {"id": 21203353, "name": "IcePac", "participants": [{"id": 19500055, "gamerTag": "IcePac", "prefix": null, "user": {"location": {"city": "Milledgeville", "state": "GA", "country": "United States"}}, "player": {"id": 3583587, "gamerTag": "IcePac", "prefix": null, "user": {"location": {"city": "Milledgeville", "state": "GA", "country": "United States"}}}}]}, "standing": {"placement": 2, "stats": {"score": {"value": 0}}}}], "games": null}, {"id": 94944575, "state": 3, "round": -4, "fullRoundText": "Losers Round 2", "completedAt": 1760222943, "winnerId": 21510861, "slots": [{"id": "94944575-0", "entrant": {"id": 21516706, "name": "Midira", "participants": [{"id": 19772385, "gamerTag": "Midira", "prefix": null, "user": {"location": {"city": "Kathleen", "state": "GA", "country": "United States"}}, "player": {"id": 779164, "gamerTag": "Midira", "prefix": null, "user": {"location": {"city": "Kathleen", "state": "GA", "country": "United States"}}}}]}, "standing": {"placement": 2, "stats": {"score": {"value": -1}}}}, {"id": "94944575-1", "entrant": {"id": 21510861, "name": "BlazingFox", "participants": [{"id": 19767193, "gamerTag": "BlazingFox", "prefix": "", "user": {"location": {"city": "Byron", "state": null, "country": "United States"}}, "player": {"id": 592139, "gamerTag": "BlazingFox", "prefix": "", "user": {"location": {"city": "Byron", "state": null, "country": "United States"}}}}]}, "standing": {"placement": 1, "stats": {"score": {"value": null}}}}], "games": null}, {"id": 94944576, "state": 3, "round": -4, "fullRoundText": "Losers Round 2", "completedAt": 1760223359, "winnerId": 21474594, "slots": [{"id": "94944576-0", "entrant": {"id": 21474594, "name": "HJE | LOL!", "participants": [{"id": 19734748, "gamerTag": "LOL!", "prefix": "HJE", "user": {"location": {"city": "Byron", "state": "GA", "country": "United States"}}, "player": {"id": 730420, "gamerTag": "LOL!", "prefix": "HJE", "user": {"location": {"city": "Byron", "state": "GA", "country": "United States"}}}}]}, "standing": {"placement": 1, "stats": {"score": {"value": 2}}}}, {"id": "94944576-1", "entrant": {"id": 21526259, "name": "Savage", "participants": [{"id": 19780350, "gamerTag": "Savage", "prefix": null, "user": {"location": {"city": "macon", "state": "GA", "country": "United States"}}, "player": {"id": 3508118, "gamerTag": "Savage", "prefix": null, "user": {"location": {"city": "macon", "state": "GA", "country": "United States"}}}}]}, "standing": {"placement": 2, "stats": {"score": {"value": 1}}}}], "games": null}, {"id": 94944577, "state": 3, "round": -4, "fullRoundText": "Losers Round 2", "completedAt": 1760223309, "winnerId": 21526155, "slots": [{"id": "94944577-0", "entrant": {"id": 21526155, "name": "RBG | Cpain20", "participants": [{"id": 19780258, "gamerTag": "Cpain20", "prefix": "RBG", "user": {"location": {"city": "Macon", "state": "GA", "country": "United States"}}, "player": {"id": 1528477, "gamerTag": "Cpain20", "prefix": "RBG", "user": {"location": {"city": "Macon", "state": "GA", "country": "United States"}}}}]}, "standing": {"placement": 1, "stats": {"score": {"value": 2}}}}, {"id": "94944577-1", "entrant": {"id": 21513588, "name": "Evernight", "participants": [{"id": 19769514, "gamerTag": "Evernight", "prefix": null, "user": {"location": {"city": "Macon", "state": "GA", "country": "United States"}}, "player": {"id": 548064, "gamerTag": "Evernight", "prefix": null, "user": {"location": {"city": "Macon", "state": "GA", "country": "United States"}}}}]}, "standing": {"placement": 2, "stats": {"score": {"value": 1}}}}], "games": null}, {"id": 94944571, "state": 3, "round": -3, "fullRoundText": "Losers Round 1", "completedAt": 1760222895, "winnerId": 21510861, "slots": [{"id": "94944571-0", "entrant": {"id": 21516708, "name": "DirtyDan", "participants": [{"id": 19772388, "gamerTag": "DirtyDan", "prefix": "", "user": {"location": {"city": "Centerville", "state": "GA", "country": "United States"}}, "player": {"id": 1995257, "gamerTag": "DirtyDan", "prefix": "", "user": {"location": {"city": "Centerville", "state": "GA", "country": "United States"}}}}]}, "standing": {"placement": 2, "stats": {"score": {"value": 1}}}}, {"id": "94944571-1", "entrant": {"id": 21510861, "name": "BlazingFox", "participants": [{"id": 19767193, "gamerTag": "BlazingFox", "prefix": "", "user": {"location": {"city": "Byron", "state": null, "country": "United States"}}, "player": {"id": 592139, "gamerTag": "BlazingFox", "prefix": "", "user": {"location": {"city": "Byron", "state": null, "country": "United States"}}}}]}, "standing": {"placement": 1, "stats": {"score": {"value": 2}}}}], "games": null}, {"id": 94944538, "state": 3, "round": 1, "fullRoundText": "Winners Round 1", "completedAt": 1760221212, "winnerId": 21526155, "slots": [{"id": "94944538-0", "entrant": {"id": 21203353, "name": "IcePac", "participants": [{"id": 19500055, "gamerTag": "IcePac", "prefix": null, "user": {"location": {"city": "Milledgeville", "state": "GA", "country": "United States"}}, "player": {"id": 3583587, "gamerTag": "IcePac", "prefix": null, "user": {"location": {"city": "Milledgeville", "state": "GA", "country": "United States"}}}}]}, "standing": {"placement": 2, "stats": {"score": {"value": 0}}}}, {"id": "94944538-1", "entrant": {"id": 21526155, "name": "RBG | Cpain20", "participants": [{"id": 19780258, "gamerTag": "Cpain20", "prefix": "RBG", "user": {"location": {"city": "Macon", "state": "GA", "country": "United States"}}, "player": {"id": 1528477, "gamerTag": "Cpain20", "prefix": "RBG", "user": {"location": {"city": "Macon", "state": "GA", "country": "United States"}}}}]}, "standing": {"placement": 1, "stats": {"score": {"value": 2}}}}], "games": null}, {"id": 94944539, "state": 3, "round": 1, "fullRoundText": "Winners Round 1", "completedAt": 1760221866, "winnerId": 21506862, "slots": [{"id": "94944539-0", "entrant": {"id": 21506862, "name": "BOLT | KhalRhaego", "participants": [{"id": 19763543, "gamerTag": "KhalRhaego", "prefix": "BOLT", "user": {"location": {"city": "Jonesboro", "state": "GA", "country": "United States"}}, "player": {"id": 4076327, "gamerTag": "KhalRhaego", "prefix": "BOLT", "user": {"location": {"city": "Jonesboro", "state": "GA", "country": "United States"}}}}]}, "standing": {"placement": 1, "stats": {"score": {"value": 2}}}}, {"id": "94944539-1", "entrant": {"id": 21516708, "name": "DirtyDan", "participants": [{"id": 19772388, "gamerTag": "DirtyDan", "prefix": "", "user": {"location": {"city": "Centerville", "state": "GA", "country": "United States"}}, "player": {"id": 1995257, "gamerTag": "DirtyDan", "prefix": "", "user": {"location": {"city": "Centerville", "state": "GA", "country": "United States"}}}}]}, "standing": {"placement": 2, "stats": {"score": {"value": 0}}}}], "games": null}, {"id": 94944540, "state": 3, "round": 1, "fullRoundText": "Winners Round 1", "completedAt": 1760222140, "winnerId": 21474594, "slots": [{"id": "94944540-0", "entrant": {"id": 21474594, "name": "HJE | LOL!", "participants": [{"id": 19734748, "gamerTag": "LOL!", "prefix": "HJE", "user": {"location": {"city": "Byron", "state": "GA", "country": "United States"}}, "player": {"id": 730420, "gamerTag": "LOL!", "prefix": "HJE", "user": {"location": {"city": "Byron", "state": "GA", "country": "United States"}}}}]}, "standing": {"placement": 1, "stats": {"score": {"value": 2}}}}, {"id": "94944540-1", "entrant": {"id": 21510861, "name": "BlazingFox", "participants": [{"id": 19767193, "gamerTag": "BlazingFox", "prefix": "", "user": {"location": {"city": "Byron", "state": null, "country": "United States"}}, "player": {"id": 592139, "gamerTag": "BlazingFox", "prefix": "", "user": {"location": {"city": "Byron", "state": null, "country": "United States"}}}}]}, "standing": {"placement": 2, "stats": {"score": {"value": 1}}}}], "games": null}, {"id": 94944542, "state": 3, "round": 1, "fullRoundText": "Winners Round 1", "completedAt": 1760221222, "winnerId": 21528100, "slots": [{"id": "94944542-0", "entrant": {"id": 21528100, "name": "Macho_Franchise", "participants": [{"id": 19782013, "gamerTag": "Macho_Franchise", "prefix": null, "user": {"location": {"city": "Marietta", "state": "GA", "country": "United States"}}, "player": {"id": 874463, "gamerTag": "Macho_Franchise", "prefix": null, "user": {"location": {"city": "Marietta", "state": "GA", "country": "United States"}}}}]}, "standing": {"placement": 1, "stats": {"score": {"value": 2}}}}, {"id": "94944542-1", "entrant": {"id": 21526259, "name": "Savage", "participants": [{"id": 19780350, "gamerTag": "Savage", "prefix": null, "user": {"location": {"city": "macon", "state": "GA", "country": "United States"}}, "player": {"id": 3508118, "gamerTag": "Savage", "prefix": null, "user": {"location": {"city": "macon", "state": "GA", "country": "United States"}}}}]}, "standing": {"placement": 2, "stats": {"score": {"value": 0}}}}], "games": null}, {"id": 94944544, "state": 3, "round": 1, "fullRoundText": "Winners Round 1", "completedAt": 1760221592, "winnerId": 21526958, "slots": [{"id": "94944544-0", "entrant": {"id": 21526958, "name": "Reboot | ohitshutch", "participants": [{"id": 19780967, "gamerTag": "ohitshutch", "prefix": "Reboot", "user": {"location": {"city": "Macon", "state": "GA", "country": "United States"}}, "player": {"id": 541397, "gamerTag": "ohitshutch", "prefix": "Reboot", "user": {"location": {"city": "Macon", "state": "GA", "country": "United States"}}}}]}, "standing": {"placement": 1, "stats": {"score": {"value": 2}}}}, {"id": "94944544-1", "entrant": {"id": 21513588, "name": "Evernight", "participants": [{"id": 19769514, "gamerTag": "Evernight", "prefix": null, "user": {"location": {"city": "Macon", "state": "GA", "country": "United States"}}, "player": {"id": 548064, "gamerTag": "Evernight", "prefix": null, "user": {"location": {"city": "Macon", "state": "GA", "country": "United States"}}}}]}, "standing": {"placement": 2, "stats": {"score": {"value": 0}}}}], "games": null}]}}}