{"phase": {"seeds": {"pageInfo": {"totalPages": 1, "total": 15}, "nodes": [{"id": 36553982, "seedNum": 1, "entrant": {"id": 21222780, "name": "jack | jazzman", "participants": [{"id": 19517155, "gamerTag": "jazzman", "prefix": "jack", "user": {"location": {"city": "Athens", "state": "GA", "country": "United States"}}, "player": {"id": 3883272, "gamerTag": "jazzman", "prefix": "jack", "user": {"location": {"city": "Athens", "state": "GA", "country": "United States"}}}}]}}, {"id": 36749127, "seedNum": 2, "entrant": {"id": 21359050, "name": "PolarStar", "participants": [{"id": 19634915, "gamerTag": "PolarStar", "prefix": "", "user": {"location": {"city": "Atlanta", "state": "GA", "country": "United States"}}, "player": {"id": 723586, "gamerTag": "PolarStar", "prefix": "", "user": {"location": {"city": "Atlanta", "state": "GA", "country": "United States"}}}}]}}, {"id": 36627095, "seedNum": 3, "entrant": {"id": 21274796, "name": "Vitamin C", "participants": [{"id": 19561722, "gamerTag": "Vitamin C", "prefix": null, "user": {"location": {"city": "Lawrenceville", "state": "GA", "country": "United States"}}, "player": {"id": 4943785, "gamerTag": "Vitamin C", "prefix": null, "user": {"location": {"city": "Lawrenceville", "state": "GA", "country": "United States"}}}}]}}, {"id": 36737838, "seedNum": 4, "entrant": {"id": 21351127, "name": "Iceee", "participants": [{"id": 19627671, "gamerTag": "Iceee", "prefix": "", "user": {"location": {"city": "Atlanta", "state": "GA", "country": "United States"}}, "player": {"id": 4944595, "gamerTag": "Iceee", "prefix": "", "user": {"location": {"city": "Atlanta", "state": "GA", "country": "United States"}}}}]}}, {"id": 36555510, "seedNum": 5, "entrant": {"id": 21223861, "name": "Delta", "participants": [{"id": 19518117, "gamerTag": "Delta", "prefix": null, "user": {"location": {"city": "Atlanta", "state": "GA", "country": "United States"}}, "player": {"id": 4944609, "gamerTag": "Delta", "prefix": "SD", "user": {"location": {"city": "Atlanta", "state": "GA", "country": "United States"}}}}]}}, {"id": 36744474, "seedNum": 6, "entrant": {"id": 21355651, "name": "MidGhost", "participants": [{"id": 19627896, "gamerTag": "MidGhost", "prefix": null, "user": {"location": {"city": null, "state": null, "country": "United States"}}, "player": {"id": 4954484, "gamerTag": "MidGhost", "prefix": "", "user": {"location": {"city": null, "state": null, "country": "United States"}}}}]}}, {"id": 36660526, "seedNum": 8, "entrant": {"id": 21298544, "name": "FF | Milex", "participants": [{"id": 19581187, "gamerTag": "Milex", "prefix": "FF", "user": {"location": {"city": null, "state": "FL", "country": "United States"}}, "player": {"id": 4945217, "gamerTag": "Milex", "prefix": "FF", "user": {"location": {"city": null, "state": "FL", "country": "United States"}}}}]}}, {"id": 36750417, "seedNum": 12, "entrant": {"id": 21360121, "name": "Gwazi", "participants": [{"id": 19635868, "gamerTag": "Gwazi", "prefix": null, "user": {"location": {"city": null, "state": null, "country": "United States"}}, "player": {"id": 4990350, "gamerTag": "Gwazi", "prefix": "", "user": {"location": {"city": null, "state": null, "country": "United States"}}}}]}}, {"id": 36647140, "seedNum": 7, "entrant": {"id": 21289289, "name": "Astrum", "participants": [{"id": 19573202, "gamerTag": "Astrum", "prefix": null, "user": {"location": {"city": null, "state": "GA", "country": "United States"}}, "player": {"id": 4943691, "gamerTag": "Astrum", "prefix": null, "user": {"location": {"city": null, "state": "GA", "country": "United States"}}}}]}}, {"id": 36748045, "seedNum": 9, "entrant": {"id": 21358045, "name": "Faze | Chase", "participants": [{"id": 19634089, "gamerTag": "Chase", "prefix": "Faze", "user": {"location": {"city": null, "state": null, "country": "United States"}}, "player": {"id": 4966247, "gamerTag": "Chase", "prefix": "Faze", "user": {"location": {"city": null, "state": null, "country": "United States"}}}}]}}, {"id": 36750428, "seedNum": 11, "entrant": {"id": 21360132, "name": "CD | Griffintooth", "participants": [{"id": 19635879, "gamerTag": "Griffintooth", "prefix": "CD", "user": {"location": {"city": null, "state": null, "country": "United States"}}, "player": {"id": 4990351, "gamerTag": "Griffintooth", "prefix": "CD", "user": {"location": {"city": null, "state": null, "country": "United States"}}}}]}}, {"id": 36615725, "seedNum": 15, "entrant": {"id": 21266519, "name": "LoudyKing101", "participants": [{"id": 19554958, "gamerTag": "LoudyKing101", "prefix": null, "user": {"location": {"city": null, "state": null, "country": "United States"}}, "player": {"id": 4965563, "gamerTag": "LoudyKing101", "prefix": "", "user": {"location": {"city": null, "state": null, "country": "United States"}}}}]}}, {"id": 36631324, "seedNum": 10, "entrant": {"id": 21277617, "name": "Jackie", "participants": [{"id": 19563754, "gamerTag": "Jackie", "prefix": "", "user": {"location": {"city": null, "state": null, "country": "United States"}}, "player": {"id": 4978563, "gamerTag": "Jackie", "prefix": "", "user": {"location": {"city": null, "state": null, "country": "United States"}}}}]}}, {"id": 36737915, "seedNum": 13, "entrant": {"id": 21351198, "name": "Jacob B", "participants": [{"id": 19627748, "gamerTag": "Jacob B", "prefix": "", "user": {"location": {"city": null, "state": null, "country": "United States"}}, "player": {"id": 4988805, "gamerTag": "Jacob B", "prefix": "", "user": {"location": {"city": null, "state": null, "country": "United States"}}}}]}}, {"id": 36709146, "seedNum": 14, "entrant": {"id": 21330346, "name": "t0urmented", "participants": [{"id": 19609024, "gamerTag": "t0urmented", "prefix": "", "user": {"location": {"city": null, "state": null, "country": "United States"}}, "player": {"id": 4986042, "gamerTag": "t0urmented", "prefix": "", "user": {"location": {"city": null, "state": null, "country": "United States"}}}}]}}]}}}