{"event": {"sets": {"pageInfo": {"totalPages": 2, "total": 26}, "nodes": [{"id": 92888440, "state": 3, "round": -4, "fullRoundText": "Losers Round 2", "completedAt": 1755742231, "winnerId": 21026193, "slots": [{"id": "92888440-0", "entrant": {"id": 21026193, "name": "Globberman", "participants": [{"id": 19341764, "gamerTag": "Globberman", "prefix": null, "user": {"location": {"city": "Snellville", "state": "GA", "country": "United States"}}, "player": {"id": 3722235, "gamerTag": "Globberman", "prefix": null, "user": {"location": {"city": "Snellville", "state": "GA", "country": "United States"}}}}]}, "standing": {"placement": 1, "stats": {"score": {"value": 2}}}}, {"id": "92888440-1", "entrant": {"id": 21026547, "name": "TNT | Sunset", "participants": [{"id": 19342069, "gamerTag": "Sunset", "prefix": "TNT", "user": {"location": {"city": "Forest Park", "state": "GA", "country": "United States"}}, "player": {"id": 544889, "gamerTag": "Sunset", "prefix": "TNT", "user": {"location": {"city": "Forest Park", "state": "GA", "country": "United States"}}}}]}, "standing": {"placement": 2, "stats": {"score": {"value": 0}}}}], "games": null}, {"id": 92888441, "state": 3, "round": -4, "fullRoundText": "Losers Round 2", "completedAt": 1755741503, "winnerId": 21026412, "slots": [{"id": "92888441-0", "entrant": {"id": 21026364, "name": "Divinity", "participants": [{"id": 19341906, "gamerTag": "Divinity", "prefix": "", "user": null, "player": {"id": 4932597, "gamerTag": "Divinity", "prefix": "", "user": null}}]}, "standing": {"placement": 2, "stats": {"score": {"value": 0}}}}, {"id": "92888441-1", "entrant": {"id": 21026412, "name": "TFT | BigCheese", "participants": [{"id": 19341943, "gamerTag": "BigCheese", "prefix": "TFT", "user": {"location": {"city": null, "state": null, "country": null}}, "player": {"id": 3991446, "gamerTag": "BigCheese", "prefix": "TFT", "user": {"location": {"city": null, "state": null, "country": null}}}}]}, "standing": {"placement": 1, "stats": {"score": {"value": 2}}}}], "games": null}, {"id": 92888442, "state": 3, "round": -4, "fullRoundText": "Losers Round 2", "completedAt": 1755741867, "winnerId": 21026553, "slots": [{"id": "92888442-0", "entrant": {"id": 21026553, "name": "Chris", "participants": [{"id": 19342071, "gamerTag": "Chris", "prefix": "", "user": null, "player": {"id": 4932619, "gamerTag": "Chris", "prefix": "", "user": null}}]}, "standing": {"placement": 1, "stats": {"score": {"value": 2}}}}, {"id": "92888442-1", "entrant": {"id": 21026537, "name": "TnT | Sid", "participants": [{"id": 19342057, "gamerTag": "Sid", "prefix": "TnT", "user": {"location": {"city": "Powder Springs", "state": "GA", "country": "United States"}}, "player": {"id": 1229067, "gamerTag": "Sid", "prefix": "TnT", "user": {"location": {"city": "Powder Springs", "state": "GA", "country": "United States"}}}}]}, "standing": {"placement": 2, "stats": {"score": {"value": 0}}}}], "games": null}, {"id": 92888436, "state": 3, "round": -3, "fullRoundText": "Losers Round 1", "completedAt": 1755740822, "winnerId": 21026547, "slots": [{"id": "92888436-0", "entrant": {"id": 20861540, "name": "Monad | Raguza", "participants": [{"id": 19196650, "gamerTag": "Raguza", "prefix": "Monad", "user": {"location": {"city": "Greer", "state": null, "country": "United States"}}, "player": {"id": 4838689, "gamerTag": "Raguza", "prefix": "Monad", "user": {"location": {"city": "Greer", "state": null, "country": "United States"}}}}]}, "standing": {"placement": 2, "stats": {"score": {"value": -1}}}}, {"id": "92888436-1", "entrant": {"id": 21026547, "name": "TNT | Sunset", "participants": [{"id": 19342069, "gamerTag": "Sunset", "prefix": "TNT", "user": {"location": {"city": "Forest Park", "state": "GA", "country": "United States"}}, "player": {"id": 544889, "gamerTag": "Sunset", "prefix": "TNT", "user": {"location": {"city": "Forest Park", "state": "GA", "country": "United States"}}}}]}, "standing": {"placement": 1, "stats": {"score": {"value": 0}}}}], "games": null}, {"id": 92888438, "state": 3, "round": -3, "fullRoundText": "Losers Round 1", "completedAt": 1755740826, "winnerId": 21026537, "slots": [{"id": "92888438-0", "entrant": {"id": 21026432, "name": "buffer 1", "participants": [{"id": 19341964, "gamerTag": "buffer 1", "prefix": "", "user": null, "player": {"id": 4685408, "gamerTag": "buffer 1", "prefix": "", "user": null}}]}, "standing": {"placement": 2, "stats": {"score": {"value": -1}}}}, {"id": "92888438-1", "entrant": {"id": 21026537, "name": "TnT | Sid", "participants": [{"id": 19342057, "gamerTag": "Sid", "prefix": "TnT", "user": {"location": {"city": "Powder Springs", "state": "GA", "country": "United States"}}, "player": {"id": 1229067, "gamerTag": "Sid", "prefix": "TnT", "user": {"location": {"city": "Powder Springs", "state": "GA", "country": "United States"}}}}]}, "standing": {"placement": 1, "stats": {"score": {"value": 0}}}}], "games": null}, {"id": 92888403, "state": 3, "round": 1, "fullRoundText": "Winners Round 1", "completedAt": 1755740562, "winnerId": 21026553, "slots": [{"id": "92888403-0", "entrant": {"id": 21026215, "name": "Pharrow", "participants": [{"id": 19341786, "gamerTag": "Pharrow", "prefix": "", "user": null, "player": {"id": 1108379, "gamerTag": "Pharrow", "prefix": "", "user": null}}]}, "standing": {"placement": 2, "stats": {"score": {"value": 1}}}}, {"id": "92888403-1", "entrant": {"id": 21026553, "name": "Chris", "participants": [{"id": 19342071, "gamerTag": "Chris", "prefix": "", "user": null, "player": {"id": 4932619, "gamerTag": "Chris", "prefix": "", "user": null}}]}, "standing": {"placement": 1, "stats": {"score": {"value": 2}}}}], "games": null}, {"id": 92888404, "state": 3, "round": 1, "fullRoundText": "Winners Round 1", "completedAt": 1755740795, "winnerId": 21026364, "slots": [{"id": "92888404-0", "entrant": {"id": 20861540, "name": "Monad | Raguza", "participants": [{"id": 19196650, "gamerTag": "Raguza", "prefix": "Monad", "user": {"location": {"city": "Greer", "state": null, "country": "United States"}}, "player": {"id": 4838689, "gamerTag": "Raguza", "prefix": "Monad", "user": {"location": {"city": "Greer", "state": null, "country": "United States"}}}}]}, "standing": {"placement": 2, "stats": {"score": {"value": -1}}}}, {"id": "92888404-1", "entrant": {"id": 21026364, "name": "Divinity", "participants": [{"id": 19341906, "gamerTag": "Divinity", "prefix": "", "user": null, "player": {"id": 4932597, "gamerTag": "Divinity", "prefix": "", "user": null}}]}, "standing": {"placement": 1, "stats": {"score": {"value": 0}}}}], "games": null}, {"id": 92888405, "state": 3, "round": 1, "fullRoundText": "Winners Round 1", "completedAt": 1755740379, "winnerId": 21025182, "slots": [{"id": "92888405-0", "entrant": {"id": 21025182, "name": "LogieBear", "participants": [{"id": 19340941, "gamerTag": "LogieBear", "prefix": "", "user": {"location": {"city": "Snellville", "state": "GA", "country": "United States"}}, "player": {"id": 3809706, "gamerTag": "LogieBear", "prefix": "", "user": {"location": {"city": "Snellville", "state": "GA", "country": "United States"}}}}]}, "standing": {"placement": 1, "stats": {"score": {"value": 2}}}}, {"id": "92888405-1", "entrant": {"id": 21026547, "name": "TNT | Sunset", "participants": [{"id": 19342069, "gamerTag": "Sunset", "prefix": "TNT", "user": {"location": {"city": "Forest Park", "state": "GA", "country": "United States"}}, "player": {"id": 544889, "gamerTag": "Sunset", "prefix": "TNT", "user": {"location": {"city": "Forest Park", "state": "GA", "country": "United States"}}}}]}, "standing": {"placement": 2, "stats": {"score": {"value": 0}}}}], "games": null}, {"id": 92888407, "state": 3, "round": 1, "fullRoundText": "Winners Round 1", "completedAt": 1755740981, "winnerId": 21026193, "slots": [{"id": "92888407-0", "entrant": {"id": 21026193, "name": "Globberman", "participants": [{"id": 19341764, "gamerTag": "Globberman", "prefix": null, "user": {"location": {"city": "Snellville", "state": "GA", "country": "United States"}}, "player": {"id": 3722235, "gamerTag": "Globberman", "prefix": null, "user": {"location": {"city": "Snellville", "state": "GA", "country": "United States"}}}}]}, "standing": {"placement": 1, "stats": {"score": {"value": 2}}}}, {"id": "92888407-1", "entrant": {"id": 21026412, "name": "TFT | BigCheese", "participants": [{"id": 19341943, "gamerTag": "BigCheese", "prefix": "TFT", "user": {"location": {"city": null, "state": null, "country": null}}, "player": {"id": 3991446, "gamerTag": "BigCheese", "prefix": "TFT", "user": {"location": {"city": null, "state": null, "country": null}}}}]}, "standing": {"placement": 2, "stats": {"score": {"value": 0}}}}], "games": null}, {"id": 92888408, "state": 3, "round": 1, "fullRoundText": "Winners Round 1", "completedAt": 1755740801, "winnerId": 20799121, "slots": [{"id": "92888408-0", "entrant": {"id": 20799121, "name": "Nurikami", "participants": [{"id": 19141964, "gamerTag": "Nurikami", "prefix": null, "user": {"location": {"city": "Sandy Springs", "state": "GA", "country": "United States"}}, "player": {"id": 2894467, "gamerTag": "Nurikami", "prefix": null, "user": {"location": {"city": "Sandy Springs", "state": "GA", "country": "United States"}}}}]}, "standing": {"placement": 1, "stats": {"score": {"value": 0}}}}, {"id": "92888408-1", "entrant": {"id": 21026432, "name": "buffer 1", "participants": [{"id": 19341964, "gamerTag": "buffer 1", "prefix": "", "user": null, "player": {"id": 4685408, "gamerTag": "buffer 1", "prefix": "", "user": null}}]}, "standing": {"placement": 2, "stats": {"score": {"value": -1}}}}], "games": null}, {"id": 92888409, "state": 3, "round": 1, "fullRoundText": "Winners Round 1", "completedAt": 1755740785, "winnerId": 21026572, "slots": [{"id": "92888409-0", "entrant": {"id": 21026572, "name": "Tim", "participants": [{"id": 19342090, "gamerTag": "Tim", "prefix": "", "user": null, "player": {"id": 4932624, "gamerTag": "Tim", "prefix": "", "user": null}}]}, "standing": {"placement": 1, "stats": {"score": {"value": 2}}}}, {"id": "92888409-1", "entrant": {"id": 21026537, "name": "TnT | Sid", "participants": [{"id": 19342057, "gamerTag": "Sid", "prefix": "TnT", "user": {"location": {"city": "Powder Springs", "state": "GA", "country": "United States"}}, "player": {"id": 1229067, "gamerTag": "Sid", "prefix": "TnT", "user": {"location": {"city": "Powder Springs", "state": "GA", "country": "United States"}}}}]}, "standing": {"placement": 2, "stats": {"score": {"value": 0}}}}], "games": null}]}}}