{"event": {"sets": {"pageInfo": {"totalPages": 1, "total": 6}, "nodes": [{"id": 92343231, "state": 3, "round": 3, "fullRoundText": "Final", "completedAt": 1754522518, "winnerId": 20899017, "slots": [{"id": "92343231-0", "entrant": {"id": 20899017, "name": "GUMP2 | Eleven", "participants": [{"id": 19229193, "gamerTag": "Eleven", "prefix": "GUMP2", "user": {"location": {"city": null, "state": null, "country": null}}, "player": {"id": 2348605, "gamerTag": "Ryu from Streets", "prefix": "GUMP2", "user": {"location": {"city": null, "state": null, "country": null}}}}]}, "standing": {"placement": 1, "stats": {"score": {"value": 2}}}}, {"id": "92343231-1", "entrant": {"id": 20897065, "name": "GUMP2 | ToxiC", "participants": [{"id": 19227450, "gamerTag": "ToxiC", "prefix": "GUMP2", "user": {"location": {"city": "Marietta", "state": "GA", "country": "United States"}}, "player": {"id": 2585804, "gamerTag": "ToxiC", "prefix": "GUMP2", "user": {"location": {"city": "Marietta", "state": "GA", "country": "United States"}}}}]}, "standing": {"placement": 2, "stats": {"score": {"value": 0}}}}], "games": null}, {"id": 92343229, "state": 3, "round": 2, "fullRoundText": "Semi-Final", "completedAt": 1754521477, "winnerId": 20899017, "slots": [{"id": "92343229-0", "entrant": {"id": 20899017, "name": "GUMP2 | Eleven", "participants": [{"id": 19229193, "gamerTag": "Eleven", "prefix": "GUMP2", "user": {"location": {"city": null, "state": null, "country": null}}, "player": {"id": 2348605, "gamerTag": "Ryu from Streets", "prefix": "GUMP2", "user": {"location": {"city": null, "state": null, "country": null}}}}]}, "standing": {"placement": 1, "stats": {"score": {"value": 2}}}}, {"id": "92343229-1", "entrant": {"id": 20897737, "name": "Boo", "participants": [{"id": 19228087, "gamerTag": "Boo", "prefix": "", "user": {"location": {"city": "Cumming", "state": "GA", "country": "United States"}}, "player": {"id": 2647915, "gamerTag": "Boo", "prefix": "", "user": {"location": {"city": "Cumming", "state": "GA", "country": "United States"}}}}]}, "standing": {"placement": 2, "stats": {"score": {"value": 0}}}}], "games": null}, {"id": 92343230, "state": 3, "round": 2, "fullRoundText": "Semi-Final", "completedAt": 1754522515, "winnerId": 20897065, "slots": [{"id": "92343230-0", "entrant": {"id": 20897065, "name": "GUMP2 | ToxiC", "participants": [{"id": 19227450, "gamerTag": "ToxiC", "prefix": "GUMP2", "user": {"location": {"city": "Marietta", "state": "GA", "country": "United States"}}, "player": {"id": 2585804, "gamerTag": "ToxiC", "prefix": "GUMP2", "user": {"location": {"city": "Marietta", "state": "GA", "country": "United States"}}}}]}, "standing": {"placement": 1, "stats": {"score": {"value": 2}}}}, {"id": "92343230-1", "entrant": {"id": 20899593, "name": "Zarek", "participants": [{"id": 19229673, "gamerTag": "Zarek", "prefix": "", "user": {"location": {"city": "Atlanta", "state": "GA", "country": "United States"}}, "player": {"id": 405682, "gamerTag": "Zarek", "prefix": "", "user": {"location": {"city": "Atlanta", "state": "GA", "country": "United States"}}}}]}, "standing": {"placement": 2, "stats": {"score": {"value": 0}}}}], "games": null}, {"id": 92343226, "state": 3, "round": 1, "fullRoundText": "Quarter-Final", "completedAt": 1754520201, "winnerId": 20897737, "slots": [{"id": "92343226-0", "entrant": {"id": 20897737, "name": "Boo", "participants": [{"id": 19228087, "gamerTag": "Boo", "prefix": "", "user": {"location": {"city": "Cumming", "state": "GA", "country": "United States"}}, "player": {"id": 2647915, "gamerTag": "Boo", "prefix": "", "user": {"location": {"city": "Cumming", "state": "GA", "country": "United States"}}}}]}, "standing": {"placement": 1, "stats": {"score": {"value": 2}}}}, {"id": "92343226-1", "entrant": {"id": 20896568, "name": "KSU | Subzero", "participants": [{"id": 19227006, "gamerTag": "Subzero", "prefix": "KSU", "user": {"location": {"city": "Acworth", "state": "GA", "country": "United States"}}, "player": {"id": 1808159, "gamerTag": "Subzero", "prefix": "KSU", "user": {"location": {"city": "Acworth", "state": "GA", "country": "United States"}}}}]}, "standing": {"placement": 2, "stats": {"score": {"value": 0}}}}], "games": null}, {"id": 92343227, "state": 3, "round": 1, "fullRoundText": "Quarter-Final", "completedAt": 1754520217, "winnerId": 20897065, "slots": [{"id": "92343227-0", "entrant": {"id": 20897065, "name": "GUMP2 | ToxiC", "participants": [{"id": 19227450, "gamerTag": "ToxiC", "prefix": "GUMP2", "user": {"location": {"city": "Marietta", "state": "GA", "country": "United States"}}, "player": {"id": 2585804, "gamerTag": "ToxiC", "prefix": "GUMP2", "user": {"location": {"city": "Marietta", "state": "GA", "country": "United States"}}}}]}, "standing": {"placement": 1, "stats": {"score": {"value": 2}}}}, {"id": "92343227-1", "entrant": {"id": 20900727, "name": "red dot", "participants": [{"id": 19229002, "gamerTag": "red dot", "prefix": "", "user": {"location": {"city": "Milton", "state": "GA", "country": "United States"}}, "player": {"id": 1812177, "gamerTag": "red dot", "prefix": "", "user": {"location": {"city": "Milton", "state": "GA", "country": "United States"}}}}]}, "standing": {"placement": 2, "stats": {"score": {"value": 0}}}}], "games": null}, {"id": 92343228, "state": 3, "round": 1, "fullRoundText": "Quarter-Final", "completedAt": 1754520719, "winnerId": 20899593, "slots": [{"id": "92343228-0", "entrant": {"id": 20900723, "name": "BGA | KSU | WhopperFloppers", "participants": [{"id": 19229599, "gamerTag": "WhopperFloppers", "prefix": "BGA | KSU", "user": {"location": {"city": null, "state": null, "country": "United States"}}, "player": {"id": 2564706, "gamerTag": "WhopperFloppers", "prefix": "BGA | KSU", "user": {"location": {"city": null, "state": null, "country": "United States"}}}}]}, "standing": {"placement": 2, "stats": {"score": {"value": 1}}}}, {"id": "92343228-1", "entrant": {"id": 20899593, "name": "Zarek", "participants": [{"id": 19229673, "gamerTag": "Zarek", "prefix": "", "user": {"location": {"city": "Atlanta", "state": "GA", "country": "United States"}}, "player": {"id": 405682, "gamerTag": "Zarek", "prefix": "", "user": {"location": {"city": "Atlanta", "state": "GA", "country": "United States"}}}}]}, "standing": {"placement": 1, "stats": {"score": {"value": 2}}}}], "games": null}]}}}