{"phase": {"seeds": {"pageInfo": {"totalPages": 1, "total": 10}, "nodes": [{"id": 35910121, "seedNum": 1, "entrant": {"id": 20811945, "name": "Cobalt", "participants": [{"id": 19152250, "gamerTag": "Cobalt", "prefix": null, "user": {"location": {"city": "Gainesville", "state": "GA", "country": "United States"}}, "player": {"id": 181792, "gamerTag": "Cobalt", "prefix": null, "user": {"location": {"city": "Gainesville", "state": "GA", "country": "United States"}}}}]}}, {"id": 35845907, "seedNum": 2, "entrant": {"id": 20773236, "name": "Jeni", "participants": [{"id": 19117750, "gamerTag": "Jeni", "prefix": "", "user": {"location": {"city": null, "state": null, "country": null}}, "player": {"id": 1499467, "gamerTag": "Jeni", "prefix": "", "user": {"location": {"city": null, "state": null, "country": null}}}}]}}, {"id": 35907208, "seedNum": 3, "entrant": {"id": 20810006, "name": "Sacred", "participants": [{"id": 19151012, "gamerTag": "Sacred", "prefix": "", "user": {"location": {"city": null, "state": null, "country": "United States"}}, "player": {"id": 1007555, "gamerTag": "Sacred", "prefix": "", "user": {"location": {"city": null, "state": null, "country": "United States"}}}}]}}, {"id": 35910066, "seedNum": 6, "entrant": {"id": 20811905, "name": "Boo", "participants": [{"id": 19152217, "gamerTag": "Boo", "prefix": "", "user": {"location": {"city": "Cumming", "state": "GA", "country": "United States"}}, "player": {"id": 2647915, "gamerTag": "Boo", "prefix": "", "user": {"location": {"city": "Cumming", "state": "GA", "country": "United States"}}}}]}}, {"id": 35909690, "seedNum": 4, "entrant": {"id": 20811687, "name": "Rain~", "participants": [{"id": 19152051, "gamerTag": "Rain~", "prefix": null, "user": {"location": {"city": "Atlanta", "state": "GA", "country": "United States"}}, "player": {"id": 4240164, "gamerTag": "Rain~", "prefix": null, "user": {"location": {"city": "Atlanta", "state": "GA", "country": "United States"}}}}]}}, {"id": 35904536, "seedNum": 5, "entrant": {"id": 20808541, "name": "carlop", "participants": [{"id": 19149807, "gamerTag": "carlop", "prefix": null, "user": {"location": {"city": "Johns Creek", "state": "GA", "country": "United States"}}, "player": {"id": 3431919, "gamerTag": "carlop", "prefix": null, "user": {"location": {"city": "Johns Creek", "state": "GA", "country": "United States"}}}}]}}, {"id": 35909045, "seedNum": 7, "entrant": {"id": 20811322, "name": "Bik spoon", "participants": [{"id": 19151804, "gamerTag": "Bik spoon", "prefix": "", "user": {"location": {"city": "Auburn", "state": "AL", "country": "United States"}}, "player": {"id": 1191430, "gamerTag": "Bik spoon", "prefix": "", "user": {"location": {"city": "Auburn", "state": "AL", "country": "United States"}}}}]}}, {"id": 35910719, "seedNum": 8, "entrant": {"id": 20812303, "name": "Billy Jones", "participants": [{"id": 19152524, "gamerTag": "Billy Jones", "prefix": "", "user": {"location": {"city": "Atlanta", "state": "GA", "country": "United States"}}, "player": {"id": 1004383, "gamerTag": "Billy Jones", "prefix": "", "user": {"location": {"city": "Atlanta", "state": "GA", "country": "United States"}}}}]}}, {"id": 35902005, "seedNum": 9, "entrant": {"id": 20807139, "name": "Mighty Morfin", "participants": [{"id": 19148330, "gamerTag": "Mighty Morfin", "prefix": "", "user": {"location": {"city": "Gainesville", "state": "GA", "country": "United States"}}, "player": {"id": 1630530, "gamerTag": "Mighty Morfin", "prefix": "", "user": {"location": {"city": "Gainesville", "state": "GA", "country": "United States"}}}}]}}, {"id": 35910326, "seedNum": 10, "entrant": {"id": 20812026, "name": "Moopisegg", "participants": [{"id": 19152311, "gamerTag": "Moopisegg", "prefix": "", "user": {"location": {"city": null, "state": null, "country": "United States"}}, "player": {"id": 4680890, "gamerTag": "Moopisegg", "prefix": "", "user": {"location": {"city": null, "state": null, "country": "United States"}}}}]}}]}}}