{"event": {"sets": {"pageInfo": {"totalPages": 1, "total": 14}, "nodes": [{"id": 93412063, "state": 3, "round": 4, "fullRoundText": "Grand Final", "completedAt": 1756867000, "winnerId": 21152099, "slots": [{"id": "93412063-0", "entrant": {"id": 21152099, "name": "KumaDusk", "participants": [{"id": 19455248, "gamerTag": "KumaDusk", "prefix": "", "user": {"location": {"city": "Lawrenceville", "state": "GA", "country": "United States"}}, "player": {"id": 253909, "gamerTag": "KumaDusk", "prefix": "", "user": {"location": {"city": "Lawrenceville", "state": "GA", "country": "United States"}}}}]}, "standing": {"placement": 1, "stats": {"score": {"value": null}}}}, {"id": "93412063-1", "entrant": {"id": 21151218, "name": "Boo", "participants": [{"id": 19454468, "gamerTag": "Boo", "prefix": "", "user": {"location": {"city": "Cumming", "state": "GA", "country": "United States"}}, "player": {"id": 2647915, "gamerTag": "Boo", "prefix": "", "user": {"location": {"city": "Cumming", "state": "GA", "country": "United States"}}}}]}, "standing": {"placement": 2, "stats": {"score": {"value": null}}}}], "games": null}, {"id": 93412062, "state": 3, "round": 3, "fullRoundText": "Winners Final", "completedAt": 1756863722, "winnerId": 21152099, "slots": [{"id": "93412062-0", "entrant": {"id": 21152099, "name": "KumaDusk", "participants": [{"id": 19455248, "gamerTag": "KumaDusk", "prefix": "", "user": {"location": {"city": "Lawrenceville", "state": "GA", "country": "United States"}}, "player": {"id": 253909, "gamerTag": "KumaDusk", "prefix": "", "user": {"location": {"city": "Lawrenceville", "state": "GA", "country": "United States"}}}}]}, "standing": {"placement": 1, "stats": {"score": {"value": 3}}}}, {"id": "93412062-1", "entrant": {"id": 21148634, "name": "Jeni", "participants": [{"id": 19452187, "gamerTag": "Jeni", "prefix": "", "user": {"location": {"city": null, "state": null, "country": null}}, "player": {"id": 1499467, "gamerTag": "Jeni", "prefix": "", "user": {"location": {"city": null, "state": null, "country": null}}}}]}, "standing": {"placement": 2, "stats": {"score": {"value": 1}}}}], "games": null}, {"id": 93412078, "state": 3, "round": -6, "fullRoundText": "Losers Final", "completedAt": 1756866468, "winnerId": 21151218, "slots": [{"id": "93412078-0", "entrant": {"id": 21148634, "name": "Jeni", "participants": [{"id": 19452187, "gamerTag": "Jeni", "prefix": "", "user": {"location": {"city": null, "state": null, "country": null}}, "player": {"id": 1499467, "gamerTag": "Jeni", "prefix": "", "user": {"location": {"city": null, "state": null, "country": null}}}}]}, "standing": {"placement": 2, "stats": {"score": {"value": 2}}}}, {"id": "93412078-1", "entrant": {"id": 21151218, "name": "Boo", "participants": [{"id": 19454468, "gamerTag": "Boo", "prefix": "", "user": {"location": {"city": "Cumming", "state": "GA", "country": "United States"}}, "player": {"id": 2647915, "gamerTag": "Boo", "prefix": "", "user": {"location": {"city": "Cumming", "state": "GA", "country": "United States"}}}}]}, "standing": {"placement": 1, "stats": {"score": {"value": 3}}}}], "games": null}, {"id": 93412077, "state": 3, "round": -5, "fullRoundText": "Losers Semi-Final", "completedAt": 1756866462, "winnerId": 21151218, "slots": [{"id": "93412077-0", "entrant": {"id": 21151913, "name": "Typical!", "participants": [{"id": 19455074, "gamerTag": "Typical!", "prefix": "", "user": {"location": {"city": "Cumming", "state": "GA", "country": "United States"}}, "player": {"id": 1227171, "gamerTag": "Typical!", "prefix": "", "user": {"location": {"city": "Cumming", "state": "GA", "country": "United States"}}}}]}, "standing": {"placement": 2, "stats": {"score": {"value": 2}}}}, {"id": "93412077-1", "entrant": {"id": 21151218, "name": "Boo", "participants": [{"id": 19454468, "gamerTag": "Boo", "prefix": "", "user": {"location": {"city": "Cumming", "state": "GA", "country": "United States"}}, "player": {"id": 2647915, "gamerTag": "Boo", "prefix": "", "user": {"location": {"city": "Cumming", "state": "GA", "country": "United States"}}}}]}, "standing": {"placement": 1, "stats": {"score": {"value": 3}}}}], "games": null}, {"id": 93412060, "state": 3, "round": 2, "fullRoundText": "Winners Semi-Final", "completedAt": 1756861849, "winnerId": 21152099, "slots": [{"id": "93412060-0", "entrant": {"id": 21152099, "name": "KumaDusk", "participants": [{"id": 19455248, "gamerTag": "KumaDusk", "prefix": "", "user": {"location": {"city": "Lawrenceville", "state": "GA", "country": "United States"}}, "player": {"id": 253909, "gamerTag": "KumaDusk", "prefix": "", "user": {"location": {"city": "Lawrenceville", "state": "GA", "country": "United States"}}}}]}, "standing": {"placement": 1, "stats": {"score": {"value": 3}}}}, {"id": "93412060-1", "entrant": {"id": 21138993, "name": "Mentayy", "participants": [{"id": 19443768, "gamerTag": "Mentayy", "prefix": "", "user": {"location": {"city": null, "state": "GA", "country": "United States"}}, "player": {"id": 2586911, "gamerTag": "Mentayy", "prefix": "", "user": {"location": {"city": null, "state": "GA", "country": "United States"}}}}]}, "standing": {"placement": 2, "stats": {"score": {"value": 0}}}}], "games": null}, {"id": 93412061, "state": 3, "round": 2, "fullRoundText": "Winners Semi-Final", "completedAt": 1756861271, "winnerId": 21148634, "slots": [{"id": "93412061-0", "entrant": {"id": 21148634, "name": "Jeni", "participants": [{"id": 19452187, "gamerTag": "Jeni", "prefix": "", "user": {"location": {"city": null, "state": null, "country": null}}, "player": {"id": 1499467, "gamerTag": "Jeni", "prefix": "", "user": {"location": {"city": null, "state": null, "country": null}}}}]}, "standing": {"placement": 1, "stats": {"score": {"value": 3}}}}, {"id": "93412061-1", "entrant": {"id": 21151913, "name": "Typical!", "participants": [{"id": 19455074, "gamerTag": "Typical!", "prefix": "", "user": {"location": {"city": "Cumming", "state": "GA", "country": "United States"}}, "player": {"id": 1227171, "gamerTag": "Typical!", "prefix": "", "user": {"location": {"city": "Cumming", "state": "GA", "country": "United States"}}}}]}, "standing": {"placement": 2, "stats": {"score": {"value": 0}}}}], "games": null}, {"id": 93412075, "state": 3, "round": -4, "fullRoundText": "Losers Quarter-Final", "completedAt": 1756862818, "winnerId": 21151913, "slots": [{"id": "93412075-0", "entrant": {"id": 21151913, "name": "Typical!", "participants": [{"id": 19455074, "gamerTag": "Typical!", "prefix": "", "user": {"location": {"city": "Cumming", "state": "GA", "country": "United States"}}, "player": {"id": 1227171, "gamerTag": "Typical!", "prefix": "", "user": {"location": {"city": "Cumming", "state": "GA", "country": "United States"}}}}]}, "standing": {"placement": 1, "stats": {"score": {"value": 3}}}}, {"id": "93412075-1", "entrant": {"id": 21139488, "name": "PitchingAce33", "participants": [{"id": 19444229, "gamerTag": "PitchingAce33", "prefix": "", "user": {"location": {"city": null, "state": "GA", "country": "United States"}}, "player": {"id": 1198327, "gamerTag": "PitchingAce33", "prefix": "", "user": {"location": {"city": null, "state": "GA", "country": "United States"}}}}]}, "standing": {"placement": 2, "stats": {"score": {"value": 1}}}}], "games": null}, {"id": 93412076, "state": 3, "round": -4, "fullRoundText": "Losers Quarter-Final", "completedAt": 1756863448, "winnerId": 21151218, "slots": [{"id": "93412076-0", "entrant": {"id": 21138993, "name": "Mentayy", "participants": [{"id": 19443768, "gamerTag": "Mentayy", "prefix": "", "user": {"location": {"city": null, "state": "GA", "country": "United States"}}, "player": {"id": 2586911, "gamerTag": "Mentayy", "prefix": "", "user": {"location": {"city": null, "state": "GA", "country": "United States"}}}}]}, "standing": {"placement": 2, "stats": {"score": {"value": 1}}}}, {"id": "93412076-1", "entrant": {"id": 21151218, "name": "Boo", "participants": [{"id": 19454468, "gamerTag": "Boo", "prefix": "", "user": {"location": {"city": "Cumming", "state": "GA", "country": "United States"}}, "player": {"id": 2647915, "gamerTag": "Boo", "prefix": "", "user": {"location": {"city": "Cumming", "state": "GA", "country": "United States"}}}}]}, "standing": {"placement": 1, "stats": {"score": {"value": 3}}}}], "games": [{"id": 32332482, "orderNum": 1, "winnerId": 21138993, "entrant1Score": null, "entrant2Score": 0, "stage": null, "selections": [{"id": 47656668, "selectionType": "CHARACTER", "selectionValue": 1326, "entrant": {"id": 21138993}, "character": {"id": 1326, "name": "Roy"}}, {"id": 47656669, "selectionType": "CHARACTER", "selectionValue": 1405, "entrant": {"id": 21151218}, "character": {"id": 1405, "name": "Mr. Game & Watch"}}]}, {"id": 32332483, "orderNum": 2, "winnerId": 21151218, "entrant1Score": 0, "entrant2Score": null, "stage": null, "selections": [{"id": 47656670, "selectionType": "CHARACTER", "selectionValue": 1326, "entrant": {"id": 21138993}, "character": {"id": 1326, "name": "Roy"}}, {"id": 47656671, "selectionType": "CHARACTER", "selectionValue": 1405, "entrant": {"id": 21151218}, "character": {"id": 1405, "name": "Mr. Game & Watch"}}]}, {"id": 32332484, "orderNum": 3, "winnerId": 21151218, "entrant1Score": 0, "entrant2Score": null, "stage": null, "selections": [{"id": 47656672, "selectionType": "CHARACTER", "selectionValue": 1326, "entrant": {"id": 21138993}, "character": {"id": 1326, "name": "Roy"}}, {"id": 47656673, "selectionType": "CHARACTER", "selectionValue": 1405, "entrant": {"id": 21151218}, "character": {"id": 1405, "name": "Mr. Game & Watch"}}]}, {"id": 32332485, "orderNum": 4, "winnerId": 21151218, "entrant1Score": 0, "entrant2Score": null, "stage": null, "selections": [{"id": 47656674, "selectionType": "CHARACTER", "selectionValue": 1795, "entrant": {"id": 21138993}, "character": {"id": 1795, "name": "Pyra & Mythra"}}, {"id": 47656675, "selectionType": "CHARACTER", "selectionValue": 1405, "entrant": {"id": 21151218}, "character": {"id": 1405, "name": "Mr. Game & Watch"}}]}]}, {"id": 93412073, "state": 3, "round": -3, "fullRoundText": "Losers Round 1", "completedAt": 1756861648, "winnerId": 21139488, "slots": [{"id": "93412073-0", "entrant": {"id": 21152406, "name": "Moopisegg", "participants": [{"id": 19455513, "gamerTag": "Moopisegg", "prefix": "", "user": {"location": {"city": null, "state": null, "country": "United States"}}, "player": {"id": 4680890, "gamerTag": "Moopisegg", "prefix": "", "user": {"location": {"city": null, "state": null, "country": "United States"}}}}]}, "standing": {"placement": 2, "stats": {"score": {"value": 1}}}}, {"id": "93412073-1", "entrant": {"id": 21139488, "name": "PitchingAce33", "participants": [{"id": 19444229, "gamerTag": "PitchingAce33", "prefix": "", "user": {"location": {"city": null, "state": "GA", "country": "United States"}}, "player": {"id": 1198327, "gamerTag": "PitchingAce33", "prefix": "", "user": {"location": {"city": null, "state": "GA", "country": "United States"}}}}]}, "standing": {"placement": 1, "stats": {"score": {"value": 3}}}}], "games": null}, {"id": 93412074, "state": 3, "round": -3, "fullRoundText": "Losers Round 1", "completedAt": 1756862335, "winnerId": 21151218, "slots": [{"id": "93412074-0", "entrant": {"id": 21152135, "name": "Hq", "participants": [{"id": 19455277, "gamerTag": "Hq", "prefix": "", "user": {"location": {"city": "Suwanee", "state": "GA", "country": "United States"}}, "player": {"id": 4680916, "gamerTag": "Hq", "prefix": "", "user": {"location": {"city": "Suwanee", "state": "GA", "country": "United States"}}}}]}, "standing": {"placement": 2, "stats": {"score": {"value": 0}}}}, {"id": "93412074-1", "entrant": {"id": 21151218, "name": "Boo", "participants": [{"id": 19454468, "gamerTag": "Boo", "prefix": "", "user": {"location": {"city": "Cumming", "state": "GA", "country": "United States"}}, "player": {"id": 2647915, "gamerTag": "Boo", "prefix": "", "user": {"location": {"city": "Cumming", "state": "GA", "country": "United States"}}}}]}, "standing": {"placement": 1, "stats": {"score": {"value": 3}}}}], "games": null}, {"id": 93412056, "state": 3, "round": 1, "fullRoundText": "Winners Quarter-Final", "completedAt": 1756860609, "winnerId": 21152099, "slots": [{"id": "93412056-0", "entrant": {"id": 21152099, "name": "KumaDusk", "participants": [{"id": 19455248, "gamerTag": "KumaDusk", "prefix": "", "user": {"location": {"city": "Lawrenceville", "state": "GA", "country": "United States"}}, "player": {"id": 253909, "gamerTag": "KumaDusk", "prefix": "", "user": {"location": {"city": "Lawrenceville", "state": "GA", "country": "United States"}}}}]}, "standing": {"placement": 1, "stats": {"score": {"value": 3}}}}, {"id": "93412056-1", "entrant": {"id": 21152406, "name": "Moopisegg", "participants": [{"id": 19455513, "gamerTag": "Moopisegg", "prefix": "", "user": {"location": {"city": null, "state": null, "country": "United States"}}, "player": {"id": 4680890, "gamerTag": "Moopisegg", "prefix": "", "user": {"location": {"city": null, "state": null, "country": "United States"}}}}]}, "standing": {"placement": 2, "stats": {"score": {"value": 0}}}}], "games": null}, {"id": 93412057, "state": 3, "round": 1, "fullRoundText": "Winners Quarter-Final", "completedAt": 1756859896, "winnerId": 21138993, "slots": [{"id": "93412057-0", "entrant": {"id": 21139488, "name": "PitchingAce33", "participants": [{"id": 19444229, "gamerTag": "PitchingAce33", "prefix": "", "user": {"location": {"city": null, "state": "GA", "country": "United States"}}, "player": {"id": 1198327, "gamerTag": "PitchingAce33", "prefix": "", "user": {"location": {"city": null, "state": "GA", "country": "United States"}}}}]}, "standing": {"placement": 2, "stats": {"score": {"value": 2}}}}, {"id": "93412057-1", "entrant": {"id": 21138993, "name": "Mentayy", "participants": [{"id": 19443768, "gamerTag": "Mentayy", "prefix": "", "user": {"location": {"city": null, "state": "GA", "country": "United States"}}, "player": {"id": 2586911, "gamerTag": "Mentayy", "prefix": "", "user": {"location": {"city": null, "state": "GA", "country": "United States"}}}}]}, "standing": {"placement": 1, "stats": {"score": {"value": 3}}}}], "games": null}, {"id": 93412058, "state": 3, "round": 1, "fullRoundText": "Winners Quarter-Final", "completedAt": 1756860335, "winnerId": 21148634, "slots": [{"id": "93412058-0", "entrant": {"id": 21148634, "name": "Jeni", "participants": [{"id": 19452187, "gamerTag": "Jeni", "prefix": "", "user": {"location": {"city": null, "state": null, "country": null}}, "player": {"id": 1499467, "gamerTag": "Jeni", "prefix": "", "user": {"location": {"city": null, "state": null, "country": null}}}}]}, "standing": {"placement": 1, "stats": {"score": {"value": 3}}}}, {"id": "93412058-1", "entrant": {"id": 21152135, "name": "Hq", "participants": [{"id": 19455277, "gamerTag": "Hq", "prefix": "", "user": {"location": {"city": "Suwanee", "state": "GA", "country": "United States"}}, "player": {"id": 4680916, "gamerTag": "Hq", "prefix": "", "user": {"location": {"city": "Suwanee", "state": "GA", "country": "United States"}}}}]}, "standing": {"placement": 2, "stats": {"score": {"value": 0}}}}], "games": null}, {"id": 93412059, "state": 3, "round": 1, "fullRoundText": "Winners Quarter-Final", "completedAt": 1756859592, "winnerId": 21151913, "slots": [{"id": "93412059-0", "entrant": {"id": 21151913, "name": "Typical!", "participants": [{"id": 19455074, "gamerTag": "Typical!", "prefix": "", "user": {"location": {"city": "Cumming", "state": "GA", "country": "United States"}}, "player": {"id": 1227171, "gamerTag": "Typical!", "prefix": "", "user": {"location": {"city": "Cumming", "state": "GA", "country": "United States"}}}}]}, "standing": {"placement": 1, "stats": {"score": {"value": 3}}}}, {"id": "93412059-1", "entrant": {"id": 21151218, "name": "Boo", "participants": [{"id": 19454468, "gamerTag": "Boo", "prefix": "", "user": {"location": {"city": "Cumming", "state": "GA", "country": "United States"}}, "player": {"id": 2647915, "gamerTag": "Boo", "prefix": "", "user": {"location": {"city": "Cumming", "state": "GA", "country": "United States"}}}}]}, "standing": {"placement": 2, "stats": {"score": {"value": 0}}}}], "games": null}]}}}