{"phase": {"seeds": {"pageInfo": {"totalPages": 1, "total": 17}, "nodes": [{"id": 36766067, "seedNum": 2, "entrant": {"id": 21370550, "name": "JJBREEZE", "participants": [{"id": 19645200, "gamerTag": "JJBREEZE", "prefix": "", "user": {"location": {"city": "Atlanta", "state": "GA", "country": "United States"}}, "player": {"id": 688460, "gamerTag": "JJBREEZE", "prefix": "", "user": {"location": {"city": "Atlanta", "state": "GA", "country": "United States"}}}}]}}, {"id": 36766715, "seedNum": 1, "entrant": {"id": 21371120, "name": "Ghost | NOMAR", "participants": [{"id": 19645782, "gamerTag": "NOMAR", "prefix": "Ghost", "user": {"location": {"city": "Jonesboro", "state": "GA", "country": "United States"}}, "player": {"id": 427989, "gamerTag": "NOMAR", "prefix": "Ghost", "user": {"location": {"city": "Jonesboro", "state": "GA", "country": "United States"}}}}]}}, {"id": 36766795, "seedNum": 4, "entrant": {"id": 21371174, "name": "Genghis D0n", "participants": [{"id": 19645839, "gamerTag": "Genghis D0n", "prefix": "", "user": {"location": {"city": "Atlanta", "state": "GA", "country": "United States"}}, "player": {"id": 724224, "gamerTag": "Genghis D0n", "prefix": "", "user": {"location": {"city": "Atlanta", "state": "GA", "country": "United States"}}}}]}}, {"id": 36759479, "seedNum": 5, "entrant": {"id": 21365394, "name": "Sativicaa", "participants": [{"id": 19640540, "gamerTag": "Sativicaa", "prefix": "", "user": {"location": {"city": "Atlanta", "state": null, "country": "United States"}}, "player": {"id": 1706244, "gamerTag": "Sativicaa", "prefix": "", "user": {"location": {"city": "Atlanta", "state": null, "country": "United States"}}}}]}}, {"id": 36760964, "seedNum": 3, "entrant": {"id": 21366394, "name": "BOLT | KhalRhaego", "participants": [{"id": 19641377, "gamerTag": "KhalRhaego", "prefix": "BOLT", "user": {"location": {"city": "Jonesboro", "state": "GA", "country": "United States"}}, "player": {"id": 4076327, "gamerTag": "KhalRhaego", "prefix": "BOLT", "user": {"location": {"city": "Jonesboro", "state": "GA", "country": "United States"}}}}]}}, {"id": 36765137, "seedNum": 6, "entrant": {"id": 21369873, "name": "O.N.2", "participants": [{"id": 19644588, "gamerTag": "O.N.2", "prefix": "", "user": {"location": {"city": "SNELLVILLE", "state": "GA", "country": "United States"}}, "player": {"id": 1042436, "gamerTag": "O.N.2", "prefix": "", "user": {"location": {"city": "SNELLVILLE", "state": "GA", "country": "United States"}}}}]}}, {"id": 36766520, "seedNum": 7, "entrant": {"id": 21370947, "name": "Iso.Dgaf", "participants": [{"id": 19645628, "gamerTag": "Iso.Dgaf", "prefix": null, "user": {"location": {"city": "Acworth", "state": "GA", "country": "United States"}}, "player": {"id": 4285541, "gamerTag": "Iso.Dgaf", "prefix": null, "user": {"location": {"city": "Acworth", "state": "GA", "country": "United States"}}}}]}}, {"id": 36765202, "seedNum": 10, "entrant": {"id": 21369940, "name": "Armanisaint", "participants": [{"id": 19644648, "gamerTag": "Armanisaint", "prefix": null, "user": {"location": {"city": "Roswell", "state": "GA", "country": "United States"}}, "player": {"id": 3943806, "gamerTag": "Armanisaint", "prefix": null, "user": {"location": {"city": "Roswell", "state": "GA", "country": "United States"}}}}]}}, {"id": 36766759, "seedNum": 8, "entrant": {"id": 21371158, "name": "InIt2WynneIt", "participants": [{"id": 19645826, "gamerTag": "InIt2WynneIt", "prefix": "", "user": {"location": {"city": "LAWRENCEVILLE", "state": "GA", "country": "United States"}}, "player": {"id": 260407, "gamerTag": "InIt2WynneIt", "prefix": "", "user": {"location": {"city": "LAWRENCEVILLE", "state": "GA", "country": "United States"}}}}]}}, {"id": 36758910, "seedNum": 9, "entrant": {"id": 21364905, "name": "Myk_JUMP", "participants": [{"id": 19640109, "gamerTag": "Myk_JUMP", "prefix": "", "user": {"location": {"city": "Atlanta", "state": "GA", "country": "United States"}}, "player": {"id": 469002, "gamerTag": "Myk_JUMP", "prefix": "", "user": {"location": {"city": "Atlanta", "state": "GA", "country": "United States"}}}}]}}, {"id": 36766198, "seedNum": 13, "entrant": {"id": 21370651, "name": "Squidneyy", "participants": [{"id": 19645292, "gamerTag": "Squidneyy", "prefix": null, "user": {"location": {"city": "Atlanta", "state": "GA", "country": "United States"}}, "player": {"id": 4202784, "gamerTag": "Squidneyy", "prefix": null, "user": {"location": {"city": "Atlanta", "state": "GA", "country": "United States"}}}}]}}, {"id": 36766860, "seedNum": 14, "entrant": {"id": 21371229, "name": "Fiji | 100 Latinas", "participants": [{"id": 19645885, "gamerTag": "100 Latinas", "prefix": "Fiji", "user": {"location": {"city": "Lithonia", "state": "GA", "country": "United States"}}, "player": {"id": 1890427, "gamerTag": "100 Latinas", "prefix": "Fiji", "user": {"location": {"city": "Lithonia", "state": "GA", "country": "United States"}}}}]}}, {"id": 36766710, "seedNum": 11, "entrant": {"id": 21371117, "name": "REHOO", "participants": [{"id": 19645780, "gamerTag": "REHOO", "prefix": null, "user": {"location": {"city": "jonesboro", "state": "GA", "country": "United States"}}, "player": {"id": 427983, "gamerTag": "REHOO", "prefix": null, "user": {"location": {"city": "jonesboro", "state": "GA", "country": "United States"}}}}]}}, {"id": 36753538, "seedNum": 12, "entrant": {"id": 21361988, "name": "Bronzjo", "participants": [{"id": 19637454, "gamerTag": "Bronzjo", "prefix": null, "user": {"location": {"city": "Lula", "state": "GA", "country": "United States"}}, "player": {"id": 4622459, "gamerTag": "Bronzjo", "prefix": null, "user": {"location": {"city": "Lula", "state": "GA", "country": "United States"}}}}]}}, {"id": 36767019, "seedNum": 15, "entrant": {"id": 21371361, "name": "TTMG | IlloriVice", "participants": [{"id": 19645991, "gamerTag": "IlloriVice", "prefix": "TTMG", "user": {"location": {"city": "Atlanta", "state": "GA", "country": "United States"}}, "player": {"id": 4981273, "gamerTag": "IlloriVice", "prefix": "TTMG", "user": {"location": {"city": "Atlanta", "state": "GA", "country": "United States"}}}}]}}, {"id": 36764339, "seedNum": 16, "entrant": {"id": 21369265, "name": "PrimeStone", "participants": [{"id": 19644007, "gamerTag": "PrimeStone", "prefix": null, "user": {"location": {"city": "Loganville", "state": "GA", "country": "United States"}}, "player": {"id": 1130909, "gamerTag": "PrimeStone", "prefix": null, "user": {"location": {"city": "Loganville", "state": "GA", "country": "United States"}}}}]}}, {"id": 36766740, "seedNum": 17, "entrant": {"id": 21371152, "name": "WVSH", "participants": [{"id": 19645819, "gamerTag": "WVSH", "prefix": null, "user": {"location": {"city": "Atlanta", "state": "GA", "country": "United States"}}, "player": {"id": 4660025, "gamerTag": "WVSH", "prefix": null, "user": {"location": {"city": "Atlanta", "state": "GA", "country": "United States"}}}}]}}]}}}