{"phase": {"seeds": {"pageInfo": {"totalPages": 1, "total": 5}, "nodes": [{"id": 36895719, "seedNum": 1, "entrant": {"id": 21459854, "name": "Maverick", "participants": [{"id": 19722559, "gamerTag": "Maverick", "prefix": "", "user": {"location": {"city": "Columbus", "state": "GA", "country": "United States"}}, "player": {"id": 1058777, "gamerTag": "Maverick", "prefix": "", "user": {"location": {"city": "Columbus", "state": "GA", "country": "United States"}}}}]}}, {"id": 36636536, "seedNum": 2, "entrant": {"id": 21281910, "name": "VM | Metabble", "participants": [{"id": 19566886, "gamerTag": "Metabble", "prefix": "VM", "user": {"location": {"city": null, "state": null, "country": null}}, "player": {"id": 1415184, "gamerTag": "Metabble", "prefix": "VM", "user": {"location": {"city": null, "state": null, "country": null}}}}]}}, {"id": 36513425, "seedNum": 3, "entrant": {"id": 21196866, "name": "Ashm | Cryptonite", "participants": [{"id": 19494080, "gamerTag": "Cryptonite", "prefix": "Ashm", "user": {"location": {"city": "Hamilton", "state": "GA", "country": "United States"}}, "player": {"id": 2300323, "gamerTag": "Cryptonite", "prefix": "Ashm", "user": {"location": {"city": "Hamilton", "state": "GA", "country": "United States"}}}}]}}, {"id": 36896834, "seedNum": 4, "entrant": {"id": 21460616, "name": "CSU | OfficeWalrus", "participants": [{"id": 19723166, "gamerTag": "OfficeWalrus", "prefix": "CSU", "user": {"location": {"city": "Columbus", "state": "GA", "country": "United States"}}, "player": {"id": 3860050, "gamerTag": "OfficeWalrus", "prefix": "CSU", "user": {"location": {"city": "Columbus", "state": "GA", "country": "United States"}}}}]}}, {"id": 36896858, "seedNum": 5, "entrant": {"id": 21460640, "name": "ddogg26", "participants": [{"id": 19723187, "gamerTag": "ddogg26", "prefix": "", "user": {"location": {"city": null, "state": null, "country": "United States"}}, "player": {"id": 3859990, "gamerTag": "ddogg26", "prefix": "", "user": {"location": {"city": null, "state": null, "country": "United States"}}}}]}}]}}}