{"event": {"sets": {"pageInfo": {"totalPages": 3, "total": 33}, "nodes": [{"id": 91612771, "state": 3, "round": -6, "fullRoundText": "Losers Round 3", "completedAt": 1752966724, "winnerId": 20715057, "slots": [{"id": "91612771-0", "entrant": {"id": 20715057, "name": "Goob Academy | Jiub", "participants": [{"id": 19065066, "gamerTag": "Jiub", "prefix": "Goob Academy", "user": {"location": {"city": "Warner Robins", "state": "GA", "country": "United States"}}, "player": {"id": 4457617, "gamerTag": "Jiub", "prefix": "Goob Academy", "user": {"location": {"city": "Warner Robins", "state": "GA", "country": "United States"}}}}]}, "standing": {"placement": 1, "stats": {"score": {"value": 2}}}}, {"id": "91612771-1", "entrant": {"id": 20738083, "name": "Area_478 | BigBoss_DP", "participants": [{"id": 19084415, "gamerTag": "BigBoss_DP", "prefix": "Area_478", "user": {"location": {"city": "Macon", "state": "GA", "country": "United States"}}, "player": {"id": 146751, "gamerTag": "BigBoss_DP", "prefix": "Area_478", "user": {"location": {"city": "Macon", "state": "GA", "country": "United States"}}}}]}, "standing": {"placement": 2, "stats": {"score": {"value": 1}}}}], "games": null}, {"id": 91612768, "state": 3, "round": -6, "fullRoundText": "Losers Round 3", "completedAt": 1752966303, "winnerId": 20687735, "slots": [{"id": "91612768-0", "entrant": {"id": 20687735, "name": "LOL!", "participants": [{"id": 19040814, "gamerTag": "LOL!", "prefix": "", "user": {"location": {"city": "Byron", "state": "GA", "country": "United States"}}, "player": {"id": 3212772, "gamerTag": "LOL!", "prefix": "", "user": {"location": {"city": "Byron", "state": "GA", "country": "United States"}}}}]}, "standing": {"placement": 1, "stats": {"score": {"value": 2}}}}, {"id": "91612768-1", "entrant": {"id": 20733686, "name": "JazzMo", "participants": [{"id": 19080951, "gamerTag": "JazzMo", "prefix": null, "user": {"location": {"city": "Macon", "state": "GA", "country": "United States"}}, "player": {"id": 2369252, "gamerTag": "JazzMo", "prefix": null, "user": {"location": {"city": "Macon", "state": "GA", "country": "United States"}}}}]}, "standing": {"placement": 2, "stats": {"score": {"value": 1}}}}], "games": null}, {"id": 91612769, "state": 3, "round": -6, "fullRoundText": "Losers Round 3", "completedAt": 1752966054, "winnerId": 20728191, "slots": [{"id": "91612769-0", "entrant": {"id": 20742649, "name": "Pear", "participants": [{"id": 18873736, "gamerTag": "Pear", "prefix": null, "user": {"location": {"city": "Macon", "state": "GA", "country": "United States"}}, "player": {"id": 3535960, "gamerTag": "Pear", "prefix": null, "user": {"location": {"city": "Macon", "state": "GA", "country": "United States"}}}}]}, "standing": {"placement": 2, "stats": {"score": {"value": 0}}}}, {"id": "91612769-1", "entrant": {"id": 20728191, "name": "AfterKast", "participants": [{"id": 19076237, "gamerTag": "AfterKast", "prefix": null, "user": {"location": {"city": "Macon", "state": "GA", "country": "United States"}}, "player": {"id": 3467624, "gamerTag": "AfterKast", "prefix": null, "user": {"location": {"city": "Macon", "state": "GA", "country": "United States"}}}}]}, "standing": {"placement": 1, "stats": {"score": {"value": 2}}}}], "games": null}, {"id": 91612770, "state": 3, "round": -6, "fullRoundText": "Losers Round 3", "completedAt": 1752967490, "winnerId": 20716809, "slots": [{"id": "91612770-0", "entrant": {"id": 20720517, "name": "Astroh", "participants": [{"id": 18873735, "gamerTag": "Astroh", "prefix": null, "user": {"location": {"city": "Byron", "state": "GA", "country": "United States"}}, "player": {"id": 1329801, "gamerTag": "Astroh", "prefix": null, "user": {"location": {"city": "Byron", "state": "GA", "country": "United States"}}}}]}, "standing": {"placement": 2, "stats": {"score": {"value": 0}}}}, {"id": "91612770-1", "entrant": {"id": 20716809, "name": "Espadah | ReaperNoLimit", "participants": [{"id": 19066360, "gamerTag": "ReaperNoLimit", "prefix": "Espadah", "user": {"location": {"city": "Warner robbins", "state": "GA", "country": "United States"}}, "player": {"id": 1650376, "gamerTag": "ReaperNoLimit", "prefix": "Espadah", "user": {"location": {"city": "Warner robbins", "state": "GA", "country": "United States"}}}}]}, "standing": {"placement": 1, "stats": {"score": {"value": 2}}}}], "games": null}, {"id": 91612764, "state": 3, "round": -5, "fullRoundText": "Losers Round 2", "completedAt": 1752965542, "winnerId": 20733686, "slots": [{"id": "91612764-0", "entrant": {"id": 20733686, "name": "JazzMo", "participants": [{"id": 19080951, "gamerTag": "JazzMo", "prefix": null, "user": {"location": {"city": "Macon", "state": "GA", "country": "United States"}}, "player": {"id": 2369252, "gamerTag": "JazzMo", "prefix": null, "user": {"location": {"city": "Macon", "state": "GA", "country": "United States"}}}}]}, "standing": {"placement": 1, "stats": {"score": {"value": 2}}}}, {"id": "91612764-1", "entrant": {"id": 20742608, "name": "MGA | Grapeshot", "participants": [{"id": 19088525, "gamerTag": "Grapeshot", "prefix": "MGA", "user": null, "player": {"id": 2896830, "gamerTag": "Grapeshot", "prefix": "MGA", "user": null}}]}, "standing": {"placement": 2, "stats": {"score": {"value": 1}}}}], "games": null}, {"id": 91612765, "state": 3, "round": -5, "fullRoundText": "Losers Round 2", "completedAt": 1752965971, "winnerId": 20728191, "slots": [{"id": "91612765-0", "entrant": {"id": 20737504, "name": "Evernight", "participants": [{"id": 19083933, "gamerTag": "Evernight", "prefix": null, "user": {"location": {"city": "Macon", "state": "GA", "country": "United States"}}, "player": {"id": 548064, "gamerTag": "Evernight", "prefix": null, "user": {"location": {"city": "Macon", "state": "GA", "country": "United States"}}}}]}, "standing": {"placement": 2, "stats": {"score": {"value": 1}}}}, {"id": "91612765-1", "entrant": {"id": 20728191, "name": "AfterKast", "participants": [{"id": 19076237, "gamerTag": "AfterKast", "prefix": null, "user": {"location": {"city": "Macon", "state": "GA", "country": "United States"}}, "player": {"id": 3467624, "gamerTag": "AfterKast", "prefix": null, "user": {"location": {"city": "Macon", "state": "GA", "country": "United States"}}}}]}, "standing": {"placement": 1, "stats": {"score": {"value": 2}}}}], "games": null}, {"id": 91612766, "state": 3, "round": -5, "fullRoundText": "Losers Round 2", "completedAt": 1752964065, "winnerId": 20716809, "slots": [{"id": "91612766-0", "entrant": {"id": 20742761, "name": "Mga | Start9er", "participants": [{"id": 19088652, "gamerTag": "Start9er", "prefix": "Mga", "user": null, "player": {"id": 4876342, "gamerTag": "Start9er", "prefix": "Mga", "user": null}}]}, "standing": {"placement": 2, "stats": {"score": {"value": 0}}}}, {"id": "91612766-1", "entrant": {"id": 20716809, "name": "Espadah | ReaperNoLimit", "participants": [{"id": 19066360, "gamerTag": "ReaperNoLimit", "prefix": "Espadah", "user": {"location": {"city": "Warner robbins", "state": "GA", "country": "United States"}}, "player": {"id": 1650376, "gamerTag": "ReaperNoLimit", "prefix": "Espadah", "user": {"location": {"city": "Warner robbins", "state": "GA", "country": "United States"}}}}]}, "standing": {"placement": 1, "stats": {"score": {"value": 2}}}}], "games": null}, {"id": 91612767, "state": 3, "round": -5, "fullRoundText": "Losers Round 2", "completedAt": 1752963955, "winnerId": 20738083, "slots": [{"id": "91612767-0", "entrant": {"id": 20738083, "name": "Area_478 | BigBoss_DP", "participants": [{"id": 19084415, "gamerTag": "BigBoss_DP", "prefix": "Area_478", "user": {"location": {"city": "Macon", "state": "GA", "country": "United States"}}, "player": {"id": 146751, "gamerTag": "BigBoss_DP", "prefix": "Area_478", "user": {"location": {"city": "Macon", "state": "GA", "country": "United States"}}}}]}, "standing": {"placement": 1, "stats": {"score": {"value": 2}}}}, {"id": "91612767-1", "entrant": {"id": 20647288, "name": "slingshot", "participants": [{"id": 19005905, "gamerTag": "slingshot", "prefix": "", "user": {"location": {"city": "Fort Valley", "state": "GA", "country": "United States"}}, "player": {"id": 3830780, "gamerTag": "slingshot", "prefix": "", "user": {"location": {"city": "Fort Valley", "state": "GA", "country": "United States"}}}}]}, "standing": {"placement": 2, "stats": {"score": {"value": 1}}}}], "games": null}, {"id": 91612699, "state": 3, "round": 2, "fullRoundText": "Winners Round 2", "completedAt": 1752963340, "winnerId": 20504091, "slots": [{"id": "91612699-0", "entrant": {"id": 20504091, "name": "MrMixtape", "participants": [{"id": 18873680, "gamerTag": "MrMixtape", "prefix": null, "user": {"location": {"city": null, "state": null, "country": null}}, "player": {"id": 3930310, "gamerTag": "MrMixtape", "prefix": null, "user": {"location": {"city": null, "state": null, "country": null}}}}]}, "standing": {"placement": 1, "stats": {"score": {"value": 2}}}}, {"id": "91612699-1", "entrant": {"id": 20647288, "name": "slingshot", "participants": [{"id": 19005905, "gamerTag": "slingshot", "prefix": "", "user": {"location": {"city": "Fort Valley", "state": "GA", "country": "United States"}}, "player": {"id": 3830780, "gamerTag": "slingshot", "prefix": "", "user": {"location": {"city": "Fort Valley", "state": "GA", "country": "United States"}}}}]}, "standing": {"placement": 2, "stats": {"score": {"value": 0}}}}], "games": null}, {"id": 91612700, "state": 3, "round": 2, "fullRoundText": "Winners Round 2", "completedAt": 1752963385, "winnerId": 20742649, "slots": [{"id": "91612700-0", "entrant": {"id": 20738083, "name": "Area_478 | BigBoss_DP", "participants": [{"id": 19084415, "gamerTag": "BigBoss_DP", "prefix": "Area_478", "user": {"location": {"city": "Macon", "state": "GA", "country": "United States"}}, "player": {"id": 146751, "gamerTag": "BigBoss_DP", "prefix": "Area_478", "user": {"location": {"city": "Macon", "state": "GA", "country": "United States"}}}}]}, "standing": {"placement": 2, "stats": {"score": {"value": 1}}}}, {"id": "91612700-1", "entrant": {"id": 20742649, "name": "Pear", "participants": [{"id": 18873736, "gamerTag": "Pear", "prefix": null, "user": {"location": {"city": "Macon", "state": "GA", "country": "United States"}}, "player": {"id": 3535960, "gamerTag": "Pear", "prefix": null, "user": {"location": {"city": "Macon", "state": "GA", "country": "United States"}}}}]}, "standing": {"placement": 1, "stats": {"score": {"value": 2}}}}], "games": null}, {"id": 91612701, "state": 3, "round": 2, "fullRoundText": "Winners Round 2", "completedAt": 1752963402, "winnerId": 20687735, "slots": [{"id": "91612701-0", "entrant": {"id": 20687735, "name": "LOL!", "participants": [{"id": 19040814, "gamerTag": "LOL!", "prefix": "", "user": {"location": {"city": "Byron", "state": "GA", "country": "United States"}}, "player": {"id": 3212772, "gamerTag": "LOL!", "prefix": "", "user": {"location": {"city": "Byron", "state": "GA", "country": "United States"}}}}]}, "standing": {"placement": 1, "stats": {"score": {"value": 2}}}}, {"id": "91612701-1", "entrant": {"id": 20716809, "name": "Espadah | ReaperNoLimit", "participants": [{"id": 19066360, "gamerTag": "ReaperNoLimit", "prefix": "Espadah", "user": {"location": {"city": "Warner robbins", "state": "GA", "country": "United States"}}, "player": {"id": 1650376, "gamerTag": "ReaperNoLimit", "prefix": "Espadah", "user": {"location": {"city": "Warner robbins", "state": "GA", "country": "United States"}}}}]}, "standing": {"placement": 2, "stats": {"score": {"value": 0}}}}], "games": null}, {"id": 91612702, "state": 3, "round": 2, "fullRoundText": "Winners Round 2", "completedAt": 1752963526, "winnerId": 20742661, "slots": [{"id": "91612702-0", "entrant": {"id": 20742761, "name": "Mga | Start9er", "participants": [{"id": 19088652, "gamerTag": "Start9er", "prefix": "Mga", "user": null, "player": {"id": 4876342, "gamerTag": "Start9er", "prefix": "Mga", "user": null}}]}, "standing": {"placement": 2, "stats": {"score": {"value": 0}}}}, {"id": "91612702-1", "entrant": {"id": 20742661, "name": "blendoben", "participants": [{"id": 18873734, "gamerTag": "blendoben", "prefix": null, "user": {"location": {"city": "Perry", "state": "GA", "country": "United States"}}, "player": {"id": 140048, "gamerTag": "blendoben", "prefix": null, "user": {"location": {"city": "Perry", "state": "GA", "country": "United States"}}}}]}, "standing": {"placement": 1, "stats": {"score": {"value": 2}}}}], "games": null}, {"id": 91612703, "state": 3, "round": 2, "fullRoundText": "Winners Round 2", "completedAt": 1752965050, "winnerId": 20687694, "slots": [{"id": "91612703-0", "entrant": {"id": 20687694, "name": "D3King", "participants": [{"id": 18873678, "gamerTag": "D3King", "prefix": null, "user": {"location": {"city": "Macon", "state": "GA", "country": "United States"}}, "player": {"id": 213861, "gamerTag": "D3King", "prefix": "YHWH", "user": {"location": {"city": "Macon", "state": "GA", "country": "United States"}}}}]}, "standing": {"placement": 1, "stats": {"score": {"value": 2}}}}, {"id": "91612703-1", "entrant": {"id": 20728191, "name": "AfterKast", "participants": [{"id": 19076237, "gamerTag": "AfterKast", "prefix": null, "user": {"location": {"city": "Macon", "state": "GA", "country": "United States"}}, "player": {"id": 3467624, "gamerTag": "AfterKast", "prefix": null, "user": {"location": {"city": "Macon", "state": "GA", "country": "United States"}}}}]}, "standing": {"placement": 2, "stats": {"score": {"value": 1}}}}], "games": null}, {"id": 91612704, "state": 3, "round": 2, "fullRoundText": "Winners Round 2", "completedAt": 1752963897, "winnerId": 20715057, "slots": [{"id": "91612704-0", "entrant": {"id": 20737504, "name": "Evernight", "participants": [{"id": 19083933, "gamerTag": "Evernight", "prefix": null, "user": {"location": {"city": "Macon", "state": "GA", "country": "United States"}}, "player": {"id": 548064, "gamerTag": "Evernight", "prefix": null, "user": {"location": {"city": "Macon", "state": "GA", "country": "United States"}}}}]}, "standing": {"placement": 2, "stats": {"score": {"value": 0}}}}, {"id": "91612704-1", "entrant": {"id": 20715057, "name": "Goob Academy | Jiub", "participants": [{"id": 19065066, "gamerTag": "Jiub", "prefix": "Goob Academy", "user": {"location": {"city": "Warner Robins", "state": "GA", "country": "United States"}}, "player": {"id": 4457617, "gamerTag": "Jiub", "prefix": "Goob Academy", "user": {"location": {"city": "Warner Robins", "state": "GA", "country": "United States"}}}}]}, "standing": {"placement": 1, "stats": {"score": {"value": 2}}}}], "games": null}, {"id": 91612705, "state": 3, "round": 2, "fullRoundText": "Winners Round 2", "completedAt": 1752963726, "winnerId": 20733544, "slots": [{"id": "91612705-0", "entrant": {"id": 20733544, "name": "Chato", "participants": [{"id": 19080847, "gamerTag": "Chato", "prefix": null, "user": {"location": {"city": null, "state": null, "country": null}}, "player": {"id": 657291, "gamerTag": "Chato", "prefix": null, "user": {"location": {"city": null, "state": null, "country": null}}}}]}, "standing": {"placement": 1, "stats": {"score": {"value": 2}}}}, {"id": "91612705-1", "entrant": {"id": 20742608, "name": "MGA | Grapeshot", "participants": [{"id": 19088525, "gamerTag": "Grapeshot", "prefix": "MGA", "user": null, "player": {"id": 2896830, "gamerTag": "Grapeshot", "prefix": "MGA", "user": null}}]}, "standing": {"placement": 2, "stats": {"score": {"value": 0}}}}], "games": null}]}}}