{"phase": {"seeds": {"pageInfo": {"totalPages": 1, "total": 8}, "nodes": [{"id": 36023433, "seedNum": 1, "entrant": {"id": 20879412, "name": "CJay", "participants": [{"id": 19212215, "gamerTag": "CJay", "prefix": null, "user": {"location": {"city": "tallahassee", "state": "FL", "country": "United States"}}, "player": {"id": 1852984, "gamerTag": "CJay", "prefix": null, "user": {"location": {"city": "tallahassee", "state": "FL", "country": "United States"}}}}]}}, {"id": 36012915, "seedNum": 2, "entrant": {"id": 20874526, "name": "BE/JLE | CaptainMilkMan", "participants": [{"id": 19207847, "gamerTag": "CaptainMilkMan", "prefix": "BE/JLE", "user": {"location": {"city": "Albany", "state": "GA", "country": "United States"}}, "player": {"id": 1101654, "gamerTag": "CaptainMilkMan", "prefix": "BE/JLE", "user": {"location": {"city": "Albany", "state": "GA", "country": "United States"}}}}]}}, {"id": 35992222, "seedNum": 6, "entrant": {"id": 20862753, "name": "TheNickXV", "participants": [{"id": 19197510, "gamerTag": "TheNickXV", "prefix": "", "user": {"location": {"city": null, "state": "GA", "country": "United States"}}, "player": {"id": 1100033, "gamerTag": "TheNickXV", "prefix": "", "user": {"location": {"city": null, "state": "GA", "country": "United States"}}}}]}}, {"id": 36021541, "seedNum": 3, "entrant": {"id": 20878187, "name": "crimFANN", "participants": [{"id": 19210991, "gamerTag": "crimFANN", "prefix": "", "user": {"location": {"city": "Valdosta", "state": "GA", "country": "United States"}}, "player": {"id": 2366169, "gamerTag": "crimFANN", "prefix": "", "user": {"location": {"city": "Valdosta", "state": "GA", "country": "United States"}}}}]}}, {"id": 35992870, "seedNum": 4, "entrant": {"id": 20863233, "name": "Alex828", "participants": [{"id": 19197963, "gamerTag": "Alex828", "prefix": "", "user": {"location": {"city": "Valdosta", "state": "GA", "country": "United States"}}, "player": {"id": 1630146, "gamerTag": "Alex828", "prefix": "", "user": {"location": {"city": "Valdosta", "state": "GA", "country": "United States"}}}}]}}, {"id": 36292771, "seedNum": 5, "entrant": {"id": 21048704, "name": "Braai", "participants": [{"id": 19362225, "gamerTag": "Braai", "prefix": "", "user": {"location": {"city": "Nicholls", "state": null, "country": "United States"}}, "player": {"id": 2627801, "gamerTag": "Braai", "prefix": "", "user": {"location": {"city": "Nicholls", "state": null, "country": "United States"}}}}]}}, {"id": 36055452, "seedNum": 7, "entrant": {"id": 20901445, "name": "RJ2077", "participants": [{"id": 19231372, "gamerTag": "RJ2077", "prefix": null, "user": {"location": {"city": "Newton", "state": "GA", "country": "United States"}}, "player": {"id": 4453997, "gamerTag": "RJ2077", "prefix": null, "user": {"location": {"city": "Newton", "state": "GA", "country": "United States"}}}}]}}, {"id": 36299000, "seedNum": 8, "entrant": {"id": 21052804, "name": "VSU | KittyToast", "participants": [{"id": 19366055, "gamerTag": "KittyToast", "prefix": "VSU", "user": {"location": {"city": "Valdosta", "state": "GA", "country": "United States"}}, "player": {"id": 3477801, "gamerTag": "KittyToast", "prefix": "VSU", "user": {"location": {"city": "Valdosta", "state": "GA", "country": "United States"}}}}]}}]}}}