{"phase": {"seeds": {"pageInfo": {"totalPages": 1, "total": 6}, "nodes": [{"id": 36519664, "seedNum": 1, "entrant": {"id": 21200800, "name": "4o4 | CoNavySeal", "participants": [{"id": 19497686, "gamerTag": "CoNavySeal", "prefix": "4o4", "user": {"location": {"city": "Alpharetta", "state": "GA", "country": "United States"}}, "player": {"id": 3818891, "gamerTag": "CoNavySeal", "prefix": "4o4", "user": {"location": {"city": "Alpharetta", "state": "GA", "country": "United States"}}}}]}}, {"id": 36519665, "seedNum": 2, "entrant": {"id": 21200802, "name": "United", "participants": [{"id": 19497687, "gamerTag": "United", "prefix": null, "user": {"location": {"city": "Atlanta", "state": "GA", "country": "United States"}}, "player": {"id": 4416768, "gamerTag": "United", "prefix": null, "user": {"location": {"city": "Atlanta", "state": "GA", "country": "United States"}}}}]}}, {"id": 36519685, "seedNum": 3, "entrant": {"id": 21200820, "name": "AO5 | ImPhenyl", "participants": [{"id": 19497705, "gamerTag": "ImPhenyl", "prefix": "AO5", "user": {"location": {"city": "Lawrenceville", "state": "GA", "country": "United States"}}, "player": {"id": 3256876, "gamerTag": "ImPhenyl", "prefix": "AO5", "user": {"location": {"city": "Lawrenceville", "state": "GA", "country": "United States"}}}}]}}, {"id": 36519737, "seedNum": 4, "entrant": {"id": 21200864, "name": "SaintK", "participants": [{"id": 19497742, "gamerTag": "SaintK", "prefix": "", "user": {"location": {"city": "Atlanta", "state": "GA", "country": "United States"}}, "player": {"id": 4963363, "gamerTag": "SaintK", "prefix": "", "user": {"location": {"city": "Atlanta", "state": "GA", "country": "United States"}}}}]}}, {"id": 36519739, "seedNum": 5, "entrant": {"id": 21200866, "name": "LVL? | VaR", "participants": [{"id": 19497745, "gamerTag": "VaR", "prefix": "LVL?", "user": {"location": {"city": "Atlanta", "state": "GA", "country": "United States"}}, "player": {"id": 329546, "gamerTag": "VaR", "prefix": "GG", "user": {"location": {"city": "Atlanta", "state": "GA", "country": "United States"}}}}]}}, {"id": 36519795, "seedNum": 6, "entrant": {"id": 21200897, "name": "CHOsen", "participants": [{"id": 19497772, "gamerTag": "CHOsen", "prefix": null, "user": {"location": {"city": "Atlanta", "state": "GA", "country": "United States"}}, "player": {"id": 1478704, "gamerTag": "CHOsen", "prefix": null, "user": {"location": {"city": "Atlanta", "state": "GA", "country": "United States"}}}}]}}]}}}