{"event": {"sets": {"pageInfo": {"totalPages": 4, "total": 56}, "nodes": [{"id": 93792852, "state": 3, "round": 1, "fullRoundText": "Winners Round 1", "completedAt": 1757722659, "winnerId": 21243981, "slots": [{"id": "93792852-0", "entrant": {"id": 21243981, "name": "MTM | Bob Weiner", "participants": [{"id": 19535902, "gamerTag": "Bob Weiner", "prefix": "MTM", "user": {"location": {"city": "Kennesaw", "state": "GA", "country": "United States"}}, "player": {"id": 2142601, "gamerTag": "Bob Weiner", "prefix": "MTM", "user": {"location": {"city": "Kennesaw", "state": "GA", "country": "United States"}}}}]}, "standing": {"placement": 1, "stats": {"score": {"value": 2}}}}, {"id": "93792852-1", "entrant": {"id": 21249711, "name": "RAMS | Aloe", "participants": [{"id": 19541049, "gamerTag": "Aloe", "prefix": "RAMS", "user": {"location": {"city": "Marietta", "state": "GA", "country": "United States"}}, "player": {"id": 456565, "gamerTag": "Aloe", "prefix": "RAMS", "user": {"location": {"city": "Marietta", "state": "GA", "country": "United States"}}}}]}, "standing": {"placement": 2, "stats": {"score": {"value": 1}}}}], "games": null}, {"id": 93793066, "state": 3, "round": 1, "fullRoundText": "Winners Round 1", "completedAt": 1757723614, "winnerId": 21231241, "slots": [{"id": "93793066-0", "entrant": {"id": 21231241, "name": "TFT | Frank", "participants": [{"id": 19524445, "gamerTag": "Frank", "prefix": "TFT", "user": {"location": {"city": "Doraville", "state": "GA", "country": "United States"}}, "player": {"id": 1227401, "gamerTag": "Terry Labonte", "prefix": "TFT", "user": {"location": {"city": "Doraville", "state": "GA", "country": "United States"}}}}]}, "standing": {"placement": 1, "stats": {"score": {"value": 2}}}}, {"id": "93793066-1", "entrant": {"id": 21248853, "name": "The Scary Door", "participants": [{"id": 19540257, "gamerTag": "The Scary Door", "prefix": "", "user": {"location": {"city": "Atlanta", "state": "GA", "country": "United States"}}, "player": {"id": 4944131, "gamerTag": "The Scary Door", "prefix": "", "user": {"location": {"city": "Atlanta", "state": "GA", "country": "United States"}}}}]}, "standing": {"placement": 2, "stats": {"score": {"value": 0}}}}], "games": null}, {"id": 93793067, "state": 3, "round": 1, "fullRoundText": "Winners Round 1", "completedAt": 1757724598, "winnerId": 21244155, "slots": [{"id": "93793067-0", "entrant": {"id": 21244155, "name": "SamRice", "participants": [{"id": 19536051, "gamerTag": "SamRice", "prefix": "", "user": {"location": {"city": "Norcross", "state": "GA", "country": "United States"}}, "player": {"id": 2387403, "gamerTag": "SamRice", "prefix": "", "user": {"location": {"city": "Norcross", "state": "GA", "country": "United States"}}}}]}, "standing": {"placement": 1, "stats": {"score": {"value": 2}}}}, {"id": "93793067-1", "entrant": {"id": 21231680, "name": "Jahku$ha", "participants": [{"id": 19524820, "gamerTag": "Jahku$ha", "prefix": "", "user": {"location": {"city": "Atlanta", "state": "GA", "country": "United States"}}, "player": {"id": 4559746, "gamerTag": "Jahku$ha", "prefix": "", "user": {"location": {"city": "Atlanta", "state": "GA", "country": "United States"}}}}]}, "standing": {"placement": 2, "stats": {"score": {"value": 1}}}}], "games": null}, {"id": 93792853, "state": 3, "round": 1, "fullRoundText": "Winners Round 1", "completedAt": 1757722436, "winnerId": 21247988, "slots": [{"id": "93792853-0", "entrant": {"id": 21247988, "name": "WFF | Happy", "participants": [{"id": 19539452, "gamerTag": "Happy", "prefix": "WFF", "user": {"location": {"city": "Peachtree CIty", "state": "GA", "country": "United States"}}, "player": {"id": 1383907, "gamerTag": "Happy", "prefix": "WFF", "user": {"location": {"city": "Peachtree CIty", "state": "GA", "country": "United States"}}}}]}, "standing": {"placement": 1, "stats": {"score": {"value": 2}}}}, {"id": "93792853-1", "entrant": {"id": 21248949, "name": "BranchX", "participants": [{"id": 19540362, "gamerTag": "BranchX", "prefix": "", "user": null, "player": {"id": 4973165, "gamerTag": "BranchX", "prefix": "", "user": null}}]}, "standing": {"placement": 2, "stats": {"score": {"value": 0}}}}], "games": null}, {"id": 93793068, "state": 3, "round": 1, "fullRoundText": "Winners Round 1", "completedAt": 1757723626, "winnerId": 21245364, "slots": [{"id": "93793068-0", "entrant": {"id": 21245364, "name": "Kid Kaioken", "participants": [{"id": 19537054, "gamerTag": "Kid Kaioken", "prefix": "", "user": {"location": {"city": "Norcross", "state": "GA", "country": "United States"}}, "player": {"id": 2730912, "gamerTag": "Kid Kaioken", "prefix": "", "user": {"location": {"city": "Norcross", "state": "GA", "country": "United States"}}}}]}, "standing": {"placement": 1, "stats": {"score": {"value": 2}}}}, {"id": "93793068-1", "entrant": {"id": 21249377, "name": "Spenzobenzo", "participants": [{"id": 19540774, "gamerTag": "Spenzobenzo", "prefix": "", "user": {"location": {"city": "Stone Mountain", "state": "GA", "country": "United States"}}, "player": {"id": 4924927, "gamerTag": "Spenzobenzo", "prefix": "", "user": {"location": {"city": "Stone Mountain", "state": "GA", "country": "United States"}}}}]}, "standing": {"placement": 2, "stats": {"score": {"value": 0}}}}], "games": null}, {"id": 93792854, "state": 3, "round": 1, "fullRoundText": "Winners Round 1", "completedAt": 1757725083, "winnerId": 21246698, "slots": [{"id": "93792854-0", "entrant": {"id": 21246698, "name": "Nurikami", "participants": [{"id": 19538249, "gamerTag": "Nurikami", "prefix": null, "user": {"location": {"city": "Sandy Springs", "state": "GA", "country": "United States"}}, "player": {"id": 2894467, "gamerTag": "Nurikami", "prefix": null, "user": {"location": {"city": "Sandy Springs", "state": "GA", "country": "United States"}}}}]}, "standing": {"placement": 1, "stats": {"score": {"value": 2}}}}, {"id": "93792854-1", "entrant": {"id": 21249561, "name": "Doug | DougThePlug", "participants": [{"id": 19540927, "gamerTag": "DougThePlug", "prefix": "Doug", "user": {"location": {"city": "Atlanta", "state": "GA", "country": "United States"}}, "player": {"id": 3806745, "gamerTag": "DougThePlug", "prefix": "Doug", "user": {"location": {"city": "Atlanta", "state": "GA", "country": "United States"}}}}]}, "standing": {"placement": 2, "stats": {"score": {"value": 0}}}}], "games": null}, {"id": 93793069, "state": 3, "round": 1, "fullRoundText": "Winners Round 1", "completedAt": 1757723347, "winnerId": 21231904, "slots": [{"id": "93793069-0", "entrant": {"id": 21231904, "name": "RAMS | Bragmuffin", "participants": [{"id": 19525017, "gamerTag": "Bragmuffin", "prefix": "RAMS", "user": {"location": {"city": "Alpharetta", "state": "GA", "country": "United States"}}, "player": {"id": 2354073, "gamerTag": "Bragmuffin", "prefix": "RAMS", "user": {"location": {"city": "Alpharetta", "state": "GA", "country": "United States"}}}}]}, "standing": {"placement": 1, "stats": {"score": {"value": 2}}}}, {"id": "93793069-1", "entrant": {"id": 21248082, "name": "Vaseline", "participants": [{"id": 19539538, "gamerTag": "Vaseline", "prefix": null, "user": {"location": {"city": "Roswell", "state": "GA", "country": "United States"}}, "player": {"id": 3197862, "gamerTag": "Vaseline", "prefix": null, "user": {"location": {"city": "Roswell", "state": "GA", "country": "United States"}}}}]}, "standing": {"placement": 2, "stats": {"score": {"value": 0}}}}], "games": null}, {"id": 93794501, "state": 3, "round": -4, "fullRoundText": "Losers Quarter-Final", "completedAt": 1757731358, "winnerId": 21245556, "slots": [{"id": "93794501-0", "entrant": {"id": 21245556, "name": "CFL | Benji", "participants": [{"id": 19537210, "gamerTag": "Benji", "prefix": "CFL", "user": {"location": {"city": "Orlando", "state": "FL", "country": "United States"}}, "player": {"id": 2990255, "gamerTag": "Benji", "prefix": "CFL", "user": {"location": {"city": "Orlando", "state": "FL", "country": "United States"}}}}]}, "standing": {"placement": 1, "stats": {"score": {"value": 3}}}}, {"id": "93794501-1", "entrant": {"id": 21245364, "name": "Kid Kaioken", "participants": [{"id": 19537054, "gamerTag": "Kid Kaioken", "prefix": "", "user": {"location": {"city": "Norcross", "state": "GA", "country": "United States"}}, "player": {"id": 2730912, "gamerTag": "Kid Kaioken", "prefix": "", "user": {"location": {"city": "Norcross", "state": "GA", "country": "United States"}}}}]}, "standing": {"placement": 2, "stats": {"score": {"value": 0}}}}], "games": null}, {"id": 93794502, "state": 3, "round": -4, "fullRoundText": "Losers Quarter-Final", "completedAt": 1757731608, "winnerId": 21248727, "slots": [{"id": "93794502-0", "entrant": {"id": 21231241, "name": "TFT | Frank", "participants": [{"id": 19524445, "gamerTag": "Frank", "prefix": "TFT", "user": {"location": {"city": "Doraville", "state": "GA", "country": "United States"}}, "player": {"id": 1227401, "gamerTag": "Terry Labonte", "prefix": "TFT", "user": {"location": {"city": "Doraville", "state": "GA", "country": "United States"}}}}]}, "standing": {"placement": 2, "stats": {"score": {"value": 1}}}}, {"id": "93794502-1", "entrant": {"id": 21248727, "name": "FreeDubs", "participants": [{"id": 19540133, "gamerTag": "FreeDubs", "prefix": "", "user": {"location": {"city": "Atlanta", "state": null, "country": "United States"}}, "player": {"id": 4888408, "gamerTag": "FreeDubs", "prefix": "", "user": {"location": {"city": "Atlanta", "state": null, "country": "United States"}}}}]}, "standing": {"placement": 1, "stats": {"score": {"value": 3}}}}], "games": null}, {"id": 93794499, "state": 3, "round": -3, "fullRoundText": "Losers Round 1", "completedAt": 1757730568, "winnerId": 21245364, "slots": [{"id": "93794499-0", "entrant": {"id": 21246144, "name": "WDKL MTM | D*ron", "participants": [{"id": 19537735, "gamerTag": "D*ron", "prefix": "WDKL MTM", "user": {"location": {"city": "Smyrna", "state": "GA", "country": "United States"}}, "player": {"id": 516047, "gamerTag": "D*ron", "prefix": "WDKL MTM", "user": {"location": {"city": "Smyrna", "state": "GA", "country": "United States"}}}}]}, "standing": {"placement": 2, "stats": {"score": {"value": 0}}}}, {"id": "93794499-1", "entrant": {"id": 21245364, "name": "Kid Kaioken", "participants": [{"id": 19537054, "gamerTag": "Kid Kaioken", "prefix": "", "user": {"location": {"city": "Norcross", "state": "GA", "country": "United States"}}, "player": {"id": 2730912, "gamerTag": "Kid Kaioken", "prefix": "", "user": {"location": {"city": "Norcross", "state": "GA", "country": "United States"}}}}]}, "standing": {"placement": 1, "stats": {"score": {"value": 2}}}}], "games": null}, {"id": 93794500, "state": 3, "round": -3, "fullRoundText": "Losers Round 1", "completedAt": 1757730585, "winnerId": 21248727, "slots": [{"id": "93794500-0", "entrant": {"id": 21248727, "name": "FreeDubs", "participants": [{"id": 19540133, "gamerTag": "FreeDubs", "prefix": "", "user": {"location": {"city": "Atlanta", "state": null, "country": "United States"}}, "player": {"id": 4888408, "gamerTag": "FreeDubs", "prefix": "", "user": {"location": {"city": "Atlanta", "state": null, "country": "United States"}}}}]}, "standing": {"placement": 1, "stats": {"score": {"value": 2}}}}, {"id": "93794500-1", "entrant": {"id": 21246698, "name": "Nurikami", "participants": [{"id": 19538249, "gamerTag": "Nurikami", "prefix": null, "user": {"location": {"city": "Sandy Springs", "state": "GA", "country": "United States"}}, "player": {"id": 2894467, "gamerTag": "Nurikami", "prefix": null, "user": {"location": {"city": "Sandy Springs", "state": "GA", "country": "United States"}}}}]}, "standing": {"placement": 2, "stats": {"score": {"value": 0}}}}], "games": null}]}}}