{"event": {"sets": {"pageInfo": {"totalPages": 1, "total": 1}, "nodes": [{"id": 93925926, "state": 3, "round": 1, "fullRoundText": "Final", "completedAt": 1757904526, "winnerId": 21269998, "slots": [{"id": "93925926-0", "entrant": {"id": 21269998, "name": "Nurikami", "participants": [{"id": 19556099, "gamerTag": "Nurikami", "prefix": null, "user": {"location": {"city": "Sandy Springs", "state": "GA", "country": "United States"}}, "player": {"id": 2894467, "gamerTag": "Nurikami", "prefix": null, "user": {"location": {"city": "Sandy Springs", "state": "GA", "country": "United States"}}}}]}, "standing": {"placement": 1, "stats": {"score": {"value": 2}}}}, {"id": "93925926-1", "entrant": {"id": 21269999, "name": "Mickeydeez", "participants": [{"id": 19553120, "gamerTag": "Mickeydeez", "prefix": "", "user": {"location": {"city": "Atlanta", "state": "GA", "country": "United States"}}, "player": {"id": 4825580, "gamerTag": "Mickeydeez", "prefix": "", "user": {"location": {"city": "Atlanta", "state": "GA", "country": "United States"}}}}]}, "standing": {"placement": 2, "stats": {"score": {"value": 0}}}}], "games": [{"id": 32616567, "orderNum": 1, "winnerId": 21269998, "entrant1Score": 0, "entrant2Score": 0, "stage": null, "selections": [{"id": 48092836, "selectionType": "CHARACTER", "selectionValue": 1280, "entrant": {"id": 21269998}, "character": {"id": 1280, "name": "Donkey Kong"}}, {"id": 48092837, "selectionType": "CHARACTER", "selectionValue": 1340, "entrant": {"id": 21269999}, "character": {"id": 1340, "name": "Zelda"}}]}, {"id": 32616568, "orderNum": 2, "winnerId": 21269998, "entrant1Score": null, "entrant2Score": 0, "stage": null, "selections": [{"id": 48092838, "selectionType": "CHARACTER", "selectionValue": 1285, "entrant": {"id": 21269998}, "character": {"id": 1285, "name": "Falco"}}, {"id": 48092839, "selectionType": "CHARACTER", "selectionValue": 1340, "entrant": {"id": 21269999}, "character": {"id": 1340, "name": "Zelda"}}]}]}]}}}