{"phase": {"seeds": {"pageInfo": {"totalPages": 1, "total": 11}, "nodes": [{"id": 36989063, "seedNum": 1, "entrant": {"id": 21527771, "name": "UGA | LaJohn", "participants": [{"id": 19625380, "gamerTag": "LaJohn", "prefix": "UGA", "user": {"location": {"city": "Suwanee", "state": "GA", "country": "United States"}}, "player": {"id": 1742867, "gamerTag": "LaJohn", "prefix": "UGA", "user": {"location": {"city": "Suwanee", "state": "GA", "country": "United States"}}}}]}}, {"id": 36989109, "seedNum": 5, "entrant": {"id": 21527817, "name": "Harry", "participants": [{"id": 19748500, "gamerTag": "Harry", "prefix": null, "user": {"location": {"city": null, "state": null, "country": null}}, "player": {"id": 3623490, "gamerTag": "Harry", "prefix": null, "user": {"location": {"city": null, "state": null, "country": null}}}}]}}, {"id": 36989081, "seedNum": 7, "entrant": {"id": 21527784, "name": "Blue | BlueMarker", "participants": [{"id": 19625684, "gamerTag": "BlueMarker", "prefix": "Blue", "user": {"location": {"city": null, "state": "GA", "country": "United States"}}, "player": {"id": 2059555, "gamerTag": "BlueMarker", "prefix": "Blue", "user": {"location": {"city": null, "state": "GA", "country": "United States"}}}}]}}, {"id": 36989332, "seedNum": 2, "entrant": {"id": 21528009, "name": "Hq", "participants": [{"id": 19779428, "gamerTag": "Hq", "prefix": "", "user": {"location": {"city": "Suwanee", "state": "GA", "country": "United States"}}, "player": {"id": 4680916, "gamerTag": "Hq", "prefix": "", "user": {"location": {"city": "Suwanee", "state": "GA", "country": "United States"}}}}]}}, {"id": 36989337, "seedNum": 3, "entrant": {"id": 21528014, "name": "Envexity", "participants": [{"id": 19777521, "gamerTag": "Envexity", "prefix": null, "user": {"location": {"city": "", "state": "GA", "country": "United States"}}, "player": {"id": 4003882, "gamerTag": "Envexity", "prefix": null, "user": {"location": {"city": "", "state": "GA", "country": "United States"}}}}]}}, {"id": 36989090, "seedNum": 8, "entrant": {"id": 21527795, "name": "CHS | Saibotmain", "participants": [{"id": 19742908, "gamerTag": "Saibotmain", "prefix": "CHS", "user": {"location": {"city": "Commerce", "state": "GA", "country": "United States"}}, "player": {"id": 3943600, "gamerTag": "Saibotmain", "prefix": "CHS", "user": {"location": {"city": "Commerce", "state": "GA", "country": "United States"}}}}]}}, {"id": 36989066, "seedNum": 9, "entrant": {"id": 21527776, "name": "CC UGA | Infinite_Radiance", "participants": [{"id": 19640808, "gamerTag": "Infinite_Radiance", "prefix": "CC UGA", "user": {"location": {"city": null, "state": "GA", "country": "United States"}}, "player": {"id": 4926508, "gamerTag": "Infinite_Radiance", "prefix": "CC UGA", "user": {"location": {"city": null, "state": "GA", "country": "United States"}}}}]}}, {"id": 36989088, "seedNum": 10, "entrant": {"id": 21527791, "name": "Tzvi", "participants": [{"id": 19742899, "gamerTag": "Tzvi", "prefix": null, "user": {"location": {"city": "Commerce", "state": "GA", "country": "United States"}}, "player": {"id": 3940923, "gamerTag": "Tzvi", "prefix": null, "user": {"location": {"city": "Commerce", "state": "GA", "country": "United States"}}}}]}}, {"id": 36989079, "seedNum": 4, "entrant": {"id": 21527779, "name": "CC | Vertebrae", "participants": [{"id": 19625399, "gamerTag": "Vertebrae", "prefix": "CC", "user": {"location": {"city": "Athens", "state": "GA", "country": "United States"}}, "player": {"id": 1583946, "gamerTag": "Vertebrae", "prefix": "CC", "user": {"location": {"city": "Athens", "state": "GA", "country": "United States"}}}}]}}, {"id": 36989083, "seedNum": 6, "entrant": {"id": 21527786, "name": "Genaric_Human", "participants": [{"id": 19753872, "gamerTag": "Genaric_Human", "prefix": "", "user": {"location": {"city": null, "state": null, "country": "United States"}}, "player": {"id": 4427222, "gamerTag": "Genaric_Human", "prefix": "", "user": {"location": {"city": null, "state": null, "country": "United States"}}}}]}}, {"id": 36989105, "seedNum": 11, "entrant": {"id": 21527812, "name": "Deucejb125", "participants": [{"id": 19779649, "gamerTag": "Deucejb125", "prefix": "", "user": {"location": {"city": "Marietta", "state": null, "country": "United States"}}, "player": {"id": 3317853, "gamerTag": "Deucejb125", "prefix": "", "user": {"location": {"city": "Marietta", "state": null, "country": "United States"}}}}]}}]}}}