{"event": {"sets": {"pageInfo": {"totalPages": 2, "total": 24}, "nodes": [{"id": 94938563, "state": 3, "round": 5, "fullRoundText": "Grand Final", "completedAt": 1760225225, "winnerId": 21518277, "slots": [{"id": "94938563-0", "entrant": {"id": 21518277, "name": "Chato", "participants": [{"id": 19773674, "gamerTag": "Chato", "prefix": null, "user": {"location": {"city": null, "state": null, "country": null}}, "player": {"id": 657291, "gamerTag": "Chato", "prefix": null, "user": {"location": {"city": null, "state": null, "country": null}}}}]}, "standing": {"placement": 1, "stats": {"score": {"value": 3}}}}, {"id": "94938563-1", "entrant": {"id": 21525751, "name": "EDLN | D3King", "participants": [{"id": 19779896, "gamerTag": "D3King", "prefix": "EDLN", "user": {"location": {"city": "Macon", "state": "GA", "country": "United States"}}, "player": {"id": 213861, "gamerTag": "D3King", "prefix": "YHWH", "user": {"location": {"city": "Macon", "state": "GA", "country": "United States"}}}}]}, "standing": {"placement": 2, "stats": {"score": {"value": 1}}}}], "games": null}, {"id": 94938562, "state": 3, "round": 4, "fullRoundText": "Winners Final", "completedAt": 1760221383, "winnerId": 21518277, "slots": [{"id": "94938562-0", "entrant": {"id": 21527833, "name": "blendoben", "participants": [{"id": 19781783, "gamerTag": "blendoben", "prefix": null, "user": {"location": {"city": "Perry", "state": "GA", "country": "United States"}}, "player": {"id": 140048, "gamerTag": "blendoben", "prefix": null, "user": {"location": {"city": "Perry", "state": "GA", "country": "United States"}}}}]}, "standing": {"placement": 2, "stats": {"score": {"value": 0}}}}, {"id": "94938562-1", "entrant": {"id": 21518277, "name": "Chato", "participants": [{"id": 19773674, "gamerTag": "Chato", "prefix": null, "user": {"location": {"city": null, "state": null, "country": null}}, "player": {"id": 657291, "gamerTag": "Chato", "prefix": null, "user": {"location": {"city": null, "state": null, "country": null}}}}]}, "standing": {"placement": 1, "stats": {"score": {"value": 3}}}}], "games": null}, {"id": 94938595, "state": 3, "round": -8, "fullRoundText": "Losers Final", "completedAt": 1760223839, "winnerId": 21525751, "slots": [{"id": "94938595-0", "entrant": {"id": 21527833, "name": "blendoben", "participants": [{"id": 19781783, "gamerTag": "blendoben", "prefix": null, "user": {"location": {"city": "Perry", "state": "GA", "country": "United States"}}, "player": {"id": 140048, "gamerTag": "blendoben", "prefix": null, "user": {"location": {"city": "Perry", "state": "GA", "country": "United States"}}}}]}, "standing": {"placement": 2, "stats": {"score": {"value": 1}}}}, {"id": "94938595-1", "entrant": {"id": 21525751, "name": "EDLN | D3King", "participants": [{"id": 19779896, "gamerTag": "D3King", "prefix": "EDLN", "user": {"location": {"city": "Macon", "state": "GA", "country": "United States"}}, "player": {"id": 213861, "gamerTag": "D3King", "prefix": "YHWH", "user": {"location": {"city": "Macon", "state": "GA", "country": "United States"}}}}]}, "standing": {"placement": 1, "stats": {"score": {"value": 3}}}}], "games": null}, {"id": 94938594, "state": 3, "round": -7, "fullRoundText": "Losers Semi-Final", "completedAt": 1760223106, "winnerId": 21525751, "slots": [{"id": "94938594-0", "entrant": {"id": 21498178, "name": "JazzMo", "participants": [{"id": 19755884, "gamerTag": "JazzMo", "prefix": null, "user": {"location": {"city": "Macon", "state": "GA", "country": "United States"}}, "player": {"id": 2369252, "gamerTag": "JazzMo", "prefix": null, "user": {"location": {"city": "Macon", "state": "GA", "country": "United States"}}}}]}, "standing": {"placement": 2, "stats": {"score": {"value": 1}}}}, {"id": "94938594-1", "entrant": {"id": 21525751, "name": "EDLN | D3King", "participants": [{"id": 19779896, "gamerTag": "D3King", "prefix": "EDLN", "user": {"location": {"city": "Macon", "state": "GA", "country": "United States"}}, "player": {"id": 213861, "gamerTag": "D3King", "prefix": "YHWH", "user": {"location": {"city": "Macon", "state": "GA", "country": "United States"}}}}]}, "standing": {"placement": 1, "stats": {"score": {"value": 3}}}}], "games": null}, {"id": 94938560, "state": 3, "round": 3, "fullRoundText": "Winners Semi-Final", "completedAt": 1760220280, "winnerId": 21527833, "slots": [{"id": "94938560-0", "entrant": {"id": 21527833, "name": "blendoben", "participants": [{"id": 19781783, "gamerTag": "blendoben", "prefix": null, "user": {"location": {"city": "Perry", "state": "GA", "country": "United States"}}, "player": {"id": 140048, "gamerTag": "blendoben", "prefix": null, "user": {"location": {"city": "Perry", "state": "GA", "country": "United States"}}}}]}, "standing": {"placement": 1, "stats": {"score": {"value": 3}}}}, {"id": "94938560-1", "entrant": {"id": 21483142, "name": "MrMixtape", "participants": [{"id": 19742553, "gamerTag": "MrMixtape", "prefix": null, "user": {"location": {"city": null, "state": null, "country": null}}, "player": {"id": 3930310, "gamerTag": "MrMixtape", "prefix": null, "user": {"location": {"city": null, "state": null, "country": null}}}}]}, "standing": {"placement": 2, "stats": {"score": {"value": 0}}}}], "games": [{"id": 33231854, "orderNum": 1, "winnerId": 21527833, "entrant1Score": null, "entrant2Score": 0, "stage": null, "selections": null}, {"id": 33231923, "orderNum": 2, "winnerId": 21527833, "entrant1Score": null, "entrant2Score": 0, "stage": null, "selections": null}, {"id": 33231924, "orderNum": 3, "winnerId": 21527833, "entrant1Score": null, "entrant2Score": null, "stage": null, "selections": null}]}, {"id": 94938561, "state": 3, "round": 3, "fullRoundText": "Winners Semi-Final", "completedAt": 1760220820, "winnerId": 21518277, "slots": [{"id": "94938561-0", "entrant": {"id": 21518277, "name": "Chato", "participants": [{"id": 19773674, "gamerTag": "Chato", "prefix": null, "user": {"location": {"city": null, "state": null, "country": null}}, "player": {"id": 657291, "gamerTag": "Chato", "prefix": null, "user": {"location": {"city": null, "state": null, "country": null}}}}]}, "standing": {"placement": 1, "stats": {"score": {"value": 3}}}}, {"id": "94938561-1", "entrant": {"id": 21525751, "name": "EDLN | D3King", "participants": [{"id": 19779896, "gamerTag": "D3King", "prefix": "EDLN", "user": {"location": {"city": "Macon", "state": "GA", "country": "United States"}}, "player": {"id": 213861, "gamerTag": "D3King", "prefix": "YHWH", "user": {"location": {"city": "Macon", "state": "GA", "country": "United States"}}}}]}, "standing": {"placement": 2, "stats": {"score": {"value": 0}}}}], "games": null}, {"id": 94938592, "state": 3, "round": -6, "fullRoundText": "Losers Quarter-Final", "completedAt": 1760221269, "winnerId": 21498178, "slots": [{"id": "94938592-0", "entrant": {"id": 21483142, "name": "MrMixtape", "participants": [{"id": 19742553, "gamerTag": "MrMixtape", "prefix": null, "user": {"location": {"city": null, "state": null, "country": null}}, "player": {"id": 3930310, "gamerTag": "MrMixtape", "prefix": null, "user": {"location": {"city": null, "state": null, "country": null}}}}]}, "standing": {"placement": 2, "stats": {"score": {"value": 0}}}}, {"id": "94938592-1", "entrant": {"id": 21498178, "name": "JazzMo", "participants": [{"id": 19755884, "gamerTag": "JazzMo", "prefix": null, "user": {"location": {"city": "Macon", "state": "GA", "country": "United States"}}, "player": {"id": 2369252, "gamerTag": "JazzMo", "prefix": null, "user": {"location": {"city": "Macon", "state": "GA", "country": "United States"}}}}]}, "standing": {"placement": 1, "stats": {"score": {"value": 3}}}}], "games": null}, {"id": 94938593, "state": 3, "round": -6, "fullRoundText": "Losers Quarter-Final", "completedAt": 1760222356, "winnerId": 21525751, "slots": [{"id": "94938593-0", "entrant": {"id": 21525751, "name": "EDLN | D3King", "participants": [{"id": 19779896, "gamerTag": "D3King", "prefix": "EDLN", "user": {"location": {"city": "Macon", "state": "GA", "country": "United States"}}, "player": {"id": 213861, "gamerTag": "D3King", "prefix": "YHWH", "user": {"location": {"city": "Macon", "state": "GA", "country": "United States"}}}}]}, "standing": {"placement": 1, "stats": {"score": {"value": 3}}}}, {"id": "94938593-1", "entrant": {"id": 21527590, "name": "Astroh", "participants": [{"id": 19781527, "gamerTag": "Astroh", "prefix": null, "user": {"location": {"city": "Byron", "state": "GA", "country": "United States"}}, "player": {"id": 1329801, "gamerTag": "Astroh", "prefix": null, "user": {"location": {"city": "Byron", "state": "GA", "country": "United States"}}}}]}, "standing": {"placement": 2, "stats": {"score": {"value": 2}}}}], "games": null}, {"id": 94938590, "state": 3, "round": -5, "fullRoundText": "Losers Round 3", "completedAt": 1760220488, "winnerId": 21498178, "slots": [{"id": "94938590-0", "entrant": {"id": 21510860, "name": "BlazingFox", "participants": [{"id": 19767193, "gamerTag": "BlazingFox", "prefix": "", "user": {"location": {"city": "Byron", "state": null, "country": "United States"}}, "player": {"id": 592139, "gamerTag": "BlazingFox", "prefix": "", "user": {"location": {"city": "Byron", "state": null, "country": "United States"}}}}]}, "standing": {"placement": 2, "stats": {"score": {"value": 1}}}}, {"id": "94938590-1", "entrant": {"id": 21498178, "name": "JazzMo", "participants": [{"id": 19755884, "gamerTag": "JazzMo", "prefix": null, "user": {"location": {"city": "Macon", "state": "GA", "country": "United States"}}, "player": {"id": 2369252, "gamerTag": "JazzMo", "prefix": null, "user": {"location": {"city": "Macon", "state": "GA", "country": "United States"}}}}]}, "standing": {"placement": 1, "stats": {"score": {"value": 3}}}}], "games": null}, {"id": 94938591, "state": 3, "round": -5, "fullRoundText": "Losers Round 3", "completedAt": 1760220325, "winnerId": 21527590, "slots": [{"id": "94938591-0", "entrant": {"id": 21527590, "name": "Astroh", "participants": [{"id": 19781527, "gamerTag": "Astroh", "prefix": null, "user": {"location": {"city": "Byron", "state": "GA", "country": "United States"}}, "player": {"id": 1329801, "gamerTag": "Astroh", "prefix": null, "user": {"location": {"city": "Byron", "state": "GA", "country": "United States"}}}}]}, "standing": {"placement": 1, "stats": {"score": {"value": 3}}}}, {"id": "94938591-1", "entrant": {"id": 21513586, "name": "Evernight", "participants": [{"id": 19769514, "gamerTag": "Evernight", "prefix": null, "user": {"location": {"city": "Macon", "state": "GA", "country": "United States"}}, "player": {"id": 548064, "gamerTag": "Evernight", "prefix": null, "user": {"location": {"city": "Macon", "state": "GA", "country": "United States"}}}}]}, "standing": {"placement": 2, "stats": {"score": {"value": 1}}}}], "games": [{"id": 33231845, "orderNum": 1, "winnerId": 21527590, "entrant1Score": null, "entrant2Score": 0, "stage": null, "selections": null}, {"id": 33231939, "orderNum": 2, "winnerId": 21513586, "entrant1Score": 0, "entrant2Score": null, "stage": null, "selections": null}, {"id": 33231940, "orderNum": 3, "winnerId": 21527590, "entrant1Score": null, "entrant2Score": 0, "stage": null, "selections": null}, {"id": 33232015, "orderNum": 4, "winnerId": 21527590, "entrant1Score": null, "entrant2Score": null, "stage": null, "selections": null}]}, {"id": 94938556, "state": 3, "round": 2, "fullRoundText": "Winners Quarter-Final", "completedAt": 1760218316, "winnerId": 21527833, "slots": [{"id": "94938556-0", "entrant": {"id": 21527833, "name": "blendoben", "participants": [{"id": 19781783, "gamerTag": "blendoben", "prefix": null, "user": {"location": {"city": "Perry", "state": "GA", "country": "United States"}}, "player": {"id": 140048, "gamerTag": "blendoben", "prefix": null, "user": {"location": {"city": "Perry", "state": "GA", "country": "United States"}}}}]}, "standing": {"placement": 1, "stats": {"score": {"value": 2}}}}, {"id": "94938556-1", "entrant": {"id": 21527952, "name": "pveezy", "participants": [{"id": 19781878, "gamerTag": "pveezy", "prefix": null, "user": {"location": {"city": "Perry", "state": "GA", "country": "United States"}}, "player": {"id": 5014873, "gamerTag": "pveezy", "prefix": null, "user": {"location": {"city": "Perry", "state": "GA", "country": "United States"}}}}]}, "standing": {"placement": 2, "stats": {"score": {"value": 0}}}}], "games": null}, {"id": 94938557, "state": 3, "round": 2, "fullRoundText": "Winners Quarter-Final", "completedAt": 1760218853, "winnerId": 21483142, "slots": [{"id": "94938557-0", "entrant": {"id": 21483142, "name": "MrMixtape", "participants": [{"id": 19742553, "gamerTag": "MrMixtape", "prefix": null, "user": {"location": {"city": null, "state": null, "country": null}}, "player": {"id": 3930310, "gamerTag": "MrMixtape", "prefix": null, "user": {"location": {"city": null, "state": null, "country": null}}}}]}, "standing": {"placement": 1, "stats": {"score": {"value": 2}}}}, {"id": "94938557-1", "entrant": {"id": 21527590, "name": "Astroh", "participants": [{"id": 19781527, "gamerTag": "Astroh", "prefix": null, "user": {"location": {"city": "Byron", "state": "GA", "country": "United States"}}, "player": {"id": 1329801, "gamerTag": "Astroh", "prefix": null, "user": {"location": {"city": "Byron", "state": "GA", "country": "United States"}}}}]}, "standing": {"placement": 2, "stats": {"score": {"value": 0}}}}], "games": null}, {"id": 94938558, "state": 3, "round": 2, "fullRoundText": "Winners Quarter-Final", "completedAt": 1760218634, "winnerId": 21518277, "slots": [{"id": "94938558-0", "entrant": {"id": 21518277, "name": "Chato", "participants": [{"id": 19773674, "gamerTag": "Chato", "prefix": null, "user": {"location": {"city": null, "state": null, "country": null}}, "player": {"id": 657291, "gamerTag": "Chato", "prefix": null, "user": {"location": {"city": null, "state": null, "country": null}}}}]}, "standing": {"placement": 1, "stats": {"score": {"value": 2}}}}, {"id": "94938558-1", "entrant": {"id": 21498178, "name": "JazzMo", "participants": [{"id": 19755884, "gamerTag": "JazzMo", "prefix": null, "user": {"location": {"city": "Macon", "state": "GA", "country": "United States"}}, "player": {"id": 2369252, "gamerTag": "JazzMo", "prefix": null, "user": {"location": {"city": "Macon", "state": "GA", "country": "United States"}}}}]}, "standing": {"placement": 2, "stats": {"score": {"value": 0}}}}], "games": null}, {"id": 94938559, "state": 3, "round": 2, "fullRoundText": "Winners Quarter-Final", "completedAt": 1760219475, "winnerId": 21525751, "slots": [{"id": "94938559-0", "entrant": {"id": 21525751, "name": "EDLN | D3King", "participants": [{"id": 19779896, "gamerTag": "D3King", "prefix": "EDLN", "user": {"location": {"city": "Macon", "state": "GA", "country": "United States"}}, "player": {"id": 213861, "gamerTag": "D3King", "prefix": "YHWH", "user": {"location": {"city": "Macon", "state": "GA", "country": "United States"}}}}]}, "standing": {"placement": 1, "stats": {"score": {"value": 2}}}}, {"id": "94938559-1", "entrant": {"id": 21510860, "name": "BlazingFox", "participants": [{"id": 19767193, "gamerTag": "BlazingFox", "prefix": "", "user": {"location": {"city": "Byron", "state": null, "country": "United States"}}, "player": {"id": 592139, "gamerTag": "BlazingFox", "prefix": "", "user": {"location": {"city": "Byron", "state": null, "country": "United States"}}}}]}, "standing": {"placement": 2, "stats": {"score": {"value": 0}}}}], "games": null}, {"id": 94938586, "state": 3, "round": -4, "fullRoundText": "Losers Round 2", "completedAt": 1760219601, "winnerId": 21510860, "slots": [{"id": "94938586-0", "entrant": {"id": 21510860, "name": "BlazingFox", "participants": [{"id": 19767193, "gamerTag": "BlazingFox", "prefix": "", "user": {"location": {"city": "Byron", "state": null, "country": "United States"}}, "player": {"id": 592139, "gamerTag": "BlazingFox", "prefix": "", "user": {"location": {"city": "Byron", "state": null, "country": "United States"}}}}]}, "standing": {"placement": 1, "stats": {"score": {"value": null}}}}, {"id": "94938586-1", "entrant": {"id": 20877640, "name": "Demon of the Mist", "participants": [{"id": 19210495, "gamerTag": "Demon of the Mist", "prefix": "", "user": {"location": {"city": "Moultrie", "state": "GA", "country": "United States"}}, "player": {"id": 253938, "gamerTag": "Demon of the Mist", "prefix": "", "user": {"location": {"city": "Moultrie", "state": "GA", "country": "United States"}}}}]}, "standing": {"placement": 2, "stats": {"score": {"value": -1}}}}], "games": null}]}}}