{"event": {"sets": {"pageInfo": {"totalPages": 5, "total": 62}, "nodes": [{"id": 91652119, "state": 3, "round": 1, "fullRoundText": "Winners Round 1", "completedAt": 1753039953, "winnerId": 20571101, "slots": [{"id": "91652119-0", "entrant": {"id": 20571101, "name": "Emilia | Nera", "participants": [{"id": 18939968, "gamerTag": "Nera", "prefix": "Emilia", "user": {"location": {"city": "Greenville", "state": "SC", "country": "United States"}}, "player": {"id": 1660449, "gamerTag": "Nera", "prefix": "Emilia", "user": {"location": {"city": "Greenville", "state": "SC", "country": "United States"}}}}]}, "standing": {"placement": 1, "stats": {"score": {"value": 3}}}}, {"id": "91652119-1", "entrant": {"id": 20724337, "name": "EEL | Jabuns", "participants": [{"id": 19073031, "gamerTag": "Jabuns", "prefix": "EEL", "user": {"location": {"city": "Rex", "state": "GA", "country": "United States"}}, "player": {"id": 722240, "gamerTag": "Jabuns", "prefix": "EEL", "user": {"location": {"city": "Rex", "state": "GA", "country": "United States"}}}}]}, "standing": {"placement": 2, "stats": {"score": {"value": 0}}}}], "games": null}, {"id": 91652120, "state": 3, "round": 1, "fullRoundText": "Winners Round 1", "completedAt": 1753039196, "winnerId": 20572009, "slots": [{"id": "91652120-0", "entrant": {"id": 20572009, "name": "69TacoTuesday69", "participants": [{"id": 18940762, "gamerTag": "69TacoTuesday69", "prefix": "", "user": {"location": {"city": "Atlanta", "state": "GA", "country": "United States"}}, "player": {"id": 158130, "gamerTag": "69TacoTuesday69", "prefix": "", "user": {"location": {"city": "Atlanta", "state": "GA", "country": "United States"}}}}]}, "standing": {"placement": 1, "stats": {"score": {"value": 3}}}}, {"id": "91652120-1", "entrant": {"id": 20726598, "name": "noided", "participants": [{"id": 19074800, "gamerTag": "noided", "prefix": "", "user": {"location": {"city": "Atlanta", "state": "GA", "country": "United States"}}, "player": {"id": 2586521, "gamerTag": "noided", "prefix": "", "user": {"location": {"city": "Atlanta", "state": "GA", "country": "United States"}}}}]}, "standing": {"placement": 2, "stats": {"score": {"value": 1}}}}], "games": null}]}}}