{"phase": {"seeds": {"pageInfo": {"totalPages": 1, "total": 17}, "nodes": [{"id": 36939246, "seedNum": 1, "entrant": {"id": 21490612, "name": "GUMP2 | Ryu from Streets", "participants": [{"id": 19749208, "gamerTag": "Ryu from Streets", "prefix": "GUMP2", "user": {"location": {"city": null, "state": null, "country": null}}, "player": {"id": 2348605, "gamerTag": "Ryu from Streets", "prefix": "GUMP2", "user": {"location": {"city": null, "state": null, "country": null}}}}]}}, {"id": 36922542, "seedNum": 3, "entrant": {"id": 21478717, "name": "Vitamin C", "participants": [{"id": 19738500, "gamerTag": "Vitamin C", "prefix": null, "user": {"location": {"city": "Lawrenceville", "state": "GA", "country": "United States"}}, "player": {"id": 4943785, "gamerTag": "Vitamin C", "prefix": null, "user": {"location": {"city": "Lawrenceville", "state": "GA", "country": "United States"}}}}]}}, {"id": 36760262, "seedNum": 2, "entrant": {"id": 21365920, "name": "jazzman", "participants": [{"id": 19640964, "gamerTag": "jazzman", "prefix": null, "user": {"location": {"city": "Athens", "state": "GA", "country": "United States"}}, "player": {"id": 3883272, "gamerTag": "jazzman", "prefix": "jack", "user": {"location": {"city": "Athens", "state": "GA", "country": "United States"}}}}]}}, {"id": 36940322, "seedNum": 4, "entrant": {"id": 21491395, "name": "PolarStar", "participants": [{"id": 19749926, "gamerTag": "PolarStar", "prefix": "", "user": {"location": {"city": "Atlanta", "state": "GA", "country": "United States"}}, "player": {"id": 723586, "gamerTag": "PolarStar", "prefix": "", "user": {"location": {"city": "Atlanta", "state": "GA", "country": "United States"}}}}]}}, {"id": 36888172, "seedNum": 9, "entrant": {"id": 21453790, "name": "Illude_z", "participants": [{"id": 19717480, "gamerTag": "Illude_z", "prefix": null, "user": {"location": {"city": "Fitzgerald", "state": "GA", "country": "United States"}}, "player": {"id": 4144962, "gamerTag": "Illude_z", "prefix": null, "user": {"location": {"city": "Fitzgerald", "state": "GA", "country": "United States"}}}}]}}, {"id": 36830642, "seedNum": 10, "entrant": {"id": 21414152, "name": "Astrum", "participants": [{"id": 19682997, "gamerTag": "Astrum", "prefix": null, "user": {"location": {"city": null, "state": "GA", "country": "United States"}}, "player": {"id": 4943691, "gamerTag": "Astrum", "prefix": null, "user": {"location": {"city": null, "state": "GA", "country": "United States"}}}}]}}, {"id": 36788777, "seedNum": 5, "entrant": {"id": 21386295, "name": "Delta", "participants": [{"id": 19659097, "gamerTag": "Delta", "prefix": null, "user": {"location": {"city": "Atlanta", "state": "GA", "country": "United States"}}, "player": {"id": 4944609, "gamerTag": "Delta", "prefix": "SD", "user": {"location": {"city": "Atlanta", "state": "GA", "country": "United States"}}}}]}}, {"id": 36789339, "seedNum": 6, "entrant": {"id": 21386657, "name": "MidGhost", "participants": [{"id": 19659418, "gamerTag": "MidGhost", "prefix": "", "user": {"location": {"city": null, "state": null, "country": "United States"}}, "player": {"id": 4954484, "gamerTag": "MidGhost", "prefix": "", "user": {"location": {"city": null, "state": null, "country": "United States"}}}}]}}, {"id": 36927451, "seedNum": 7, "entrant": {"id": 21482549, "name": "Zer0ed", "participants": [{"id": 19741966, "gamerTag": "Zer0ed", "prefix": "", "user": {"location": {"city": null, "state": null, "country": "United States"}}, "player": {"id": 4955092, "gamerTag": "Zer0ed", "prefix": "", "user": {"location": {"city": null, "state": null, "country": "United States"}}}}]}}, {"id": 36939390, "seedNum": 8, "entrant": {"id": 21490726, "name": "MossyCharger", "participants": [{"id": 19749309, "gamerTag": "MossyCharger", "prefix": null, "user": {"location": {"city": "Atlanta", "state": "GA", "country": "United States"}}, "player": {"id": 4945351, "gamerTag": "MossyCharger", "prefix": null, "user": {"location": {"city": "Atlanta", "state": "GA", "country": "United States"}}}}]}}, {"id": 36845918, "seedNum": 13, "entrant": {"id": 21425279, "name": "UrPosts", "participants": [{"id": 19692850, "gamerTag": "UrPosts", "prefix": "", "user": {"location": {"city": null, "state": null, "country": "United States"}}, "player": {"id": 5000729, "gamerTag": "UrPosts", "prefix": "", "user": {"location": {"city": null, "state": null, "country": "United States"}}}}]}}, {"id": 36830360, "seedNum": 14, "entrant": {"id": 21413921, "name": "AceT", "participants": [{"id": 19682787, "gamerTag": "AceT", "prefix": "", "user": {"location": {"city": "Atlanta", "state": "GA", "country": "United States"}}, "player": {"id": 4956503, "gamerTag": "AceT", "prefix": "", "user": {"location": {"city": "Atlanta", "state": "GA", "country": "United States"}}}}]}}, {"id": 36918457, "seedNum": 12, "entrant": {"id": 21475708, "name": "t0rmntd", "participants": [{"id": 19735787, "gamerTag": "t0rmntd", "prefix": "", "user": {"location": {"city": null, "state": null, "country": "United States"}}, "player": {"id": 5007637, "gamerTag": "t0rmntd", "prefix": "", "user": {"location": {"city": null, "state": null, "country": "United States"}}}}]}}, {"id": 36789377, "seedNum": 15, "entrant": {"id": 21386692, "name": "Milex", "participants": [{"id": 19659443, "gamerTag": "Milex", "prefix": "", "user": {"location": {"city": null, "state": "FL", "country": "United States"}}, "player": {"id": 4945217, "gamerTag": "Milex", "prefix": "FF", "user": {"location": {"city": null, "state": "FL", "country": "United States"}}}}]}}, {"id": 36776934, "seedNum": 16, "entrant": {"id": 21378152, "name": "A_OR-EOZ_", "participants": [{"id": 19651963, "gamerTag": "A_OR-EOZ_", "prefix": "", "user": {"location": {"city": null, "state": "GA", "country": "United States"}}, "player": {"id": 4993125, "gamerTag": "A_OR-EOZ_", "prefix": "DO", "user": {"location": {"city": null, "state": "GA", "country": "United States"}}}}]}}, {"id": 36761284, "seedNum": 17, "entrant": {"id": 21366674, "name": "LoudyKing101", "participants": [{"id": 19641624, "gamerTag": "LoudyKing101", "prefix": null, "user": {"location": {"city": null, "state": null, "country": "United States"}}, "player": {"id": 4965563, "gamerTag": "LoudyKing101", "prefix": "", "user": {"location": {"city": null, "state": null, "country": "United States"}}}}]}}, {"id": 36885318, "seedNum": 11, "entrant": {"id": 21451627, "name": "Jebron69", "participants": [{"id": 19715557, "gamerTag": "Jebron69", "prefix": "", "user": {"location": {"city": null, "state": null, "country": "Zimbabwe"}}, "player": {"id": 5004137, "gamerTag": "Jebron69", "prefix": "", "user": {"location": {"city": null, "state": null, "country": "Zimbabwe"}}}}]}}]}}}