{"phase": {"seeds": {"pageInfo": {"totalPages": 1, "total": 12}, "nodes": [{"id": 36911535, "seedNum": 1, "entrant": {"id": 21471078, "name": "drubyplz", "participants": [{"id": 19731683, "gamerTag": "drubyplz", "prefix": null, "user": {"location": {"city": "Augusta", "state": "GA", "country": "United States"}}, "player": {"id": 150393, "gamerTag": "drubyplz", "prefix": null, "user": {"location": {"city": "Augusta", "state": "GA", "country": "United States"}}}}]}}, {"id": 36812490, "seedNum": 2, "entrant": {"id": 21403404, "name": "TMNS | Shiki Senpai", "participants": [{"id": 19673342, "gamerTag": "Shiki Senpai", "prefix": "TMNS", "user": {"location": {"city": null, "state": "GA", "country": "United States"}}, "player": {"id": 2254075, "gamerTag": "Shiki Senpai", "prefix": "TMNS", "user": {"location": {"city": null, "state": "GA", "country": "United States"}}}}]}}, {"id": 36910722, "seedNum": 4, "entrant": {"id": 21470479, "name": "Licorice", "participants": [{"id": 19731250, "gamerTag": "Licorice", "prefix": "", "user": {"location": {"city": null, "state": "GA", "country": "United States"}}, "player": {"id": 3559388, "gamerTag": "Licorice", "prefix": "", "user": {"location": {"city": null, "state": "GA", "country": "United States"}}}}]}}, {"id": 36778062, "seedNum": 5, "entrant": {"id": 21379050, "name": "N/A | Laexae", "participants": [{"id": 19652632, "gamerTag": "Laexae", "prefix": "N/A", "user": {"location": {"city": null, "state": null, "country": "United States"}}, "player": {"id": 4993217, "gamerTag": "Laexae", "prefix": "N/A", "user": {"location": {"city": null, "state": null, "country": "United States"}}}}]}}, {"id": 36896553, "seedNum": 3, "entrant": {"id": 21460482, "name": "DELETERIOUS", "participants": [{"id": 19723044, "gamerTag": "DELETERIOUS", "prefix": "", "user": {"location": {"city": "Fort Gordon", "state": "GA", "country": "United States"}}, "player": {"id": 3292722, "gamerTag": "DELETERIOUS", "prefix": "", "user": {"location": {"city": "Fort Gordon", "state": "GA", "country": "United States"}}}}]}}, {"id": 36776707, "seedNum": 6, "entrant": {"id": 21377947, "name": "ATLRiot", "participants": [{"id": 19651791, "gamerTag": "ATLRiot", "prefix": "", "user": {"location": {"city": "Augusta", "state": "GA", "country": "United States"}}, "player": {"id": 2057913, "gamerTag": "ATLRiot", "prefix": "", "user": {"location": {"city": "Augusta", "state": "GA", "country": "United States"}}}}]}}, {"id": 36793475, "seedNum": 9, "entrant": {"id": 21389472, "name": "Yamcha157", "participants": [{"id": 19661817, "gamerTag": "Yamcha157", "prefix": null, "user": {"location": {"city": null, "state": null, "country": null}}, "player": {"id": 3440866, "gamerTag": "Yamcha157", "prefix": null, "user": {"location": {"city": null, "state": null, "country": null}}}}]}}, {"id": 36877882, "seedNum": 10, "entrant": {"id": 21446690, "name": "Nave", "participants": [{"id": 19711171, "gamerTag": "Nave", "prefix": "", "user": {"location": {"city": null, "state": null, "country": "United States"}}, "player": {"id": 4956370, "gamerTag": "Nave", "prefix": "", "user": {"location": {"city": null, "state": null, "country": "United States"}}}}]}}, {"id": 36912534, "seedNum": 7, "entrant": {"id": 21471793, "name": "cheddarcola", "participants": [{"id": 19732245, "gamerTag": "cheddarcola", "prefix": null, "user": {"location": {"city": null, "state": null, "country": "United States"}}, "player": {"id": 4724537, "gamerTag": "cheddarcola", "prefix": null, "user": {"location": {"city": null, "state": null, "country": "United States"}}}}]}}, {"id": 36912040, "seedNum": 8, "entrant": {"id": 21471377, "name": "LTS | Akane", "participants": [{"id": 19731951, "gamerTag": "Akane", "prefix": "LTS", "user": {"location": {"city": "Martinez", "state": "GA", "country": "United States"}}, "player": {"id": 1082873, "gamerTag": "Akane", "prefix": "LTS", "user": {"location": {"city": "Martinez", "state": "GA", "country": "United States"}}}}]}}, {"id": 36912157, "seedNum": 11, "entrant": {"id": 21471435, "name": "Spooky Booty Arts", "participants": [{"id": 19731996, "gamerTag": "Spooky Booty Arts", "prefix": null, "user": null, "player": {"id": 5006874, "gamerTag": "Spooky Booty Arts", "prefix": null, "user": null}}]}}, {"id": 36838540, "seedNum": 12, "entrant": {"id": 21419784, "name": "Wolvy", "participants": [{"id": 19688083, "gamerTag": "Wolvy", "prefix": "", "user": {"location": {"city": null, "state": null, "country": "United States"}}, "player": {"id": 5000003, "gamerTag": "Wolvy", "prefix": "", "user": {"location": {"city": null, "state": null, "country": "United States"}}}}]}}]}}}