{"event": {"sets": {"pageInfo": {"totalPages": 1, "total": 9}, "nodes": [{"id": 91596931, "state": 3, "round": 4, "fullRoundText": "Final", "completedAt": 1752955627, "winnerId": 20740835, "slots": [{"id": "91596931-0", "entrant": {"id": 20740835, "name": "SNRS | SmokePudding", "participants": [{"id": 19086832, "gamerTag": "SmokePudding", "prefix": "SNRS", "user": {"location": {"city": "Riverdale", "state": "GA", "country": "United States"}}, "player": {"id": 281776, "gamerTag": "SmokePudding", "prefix": "", "user": {"location": {"city": "Riverdale", "state": "GA", "country": "United States"}}}}]}, "standing": {"placement": 1, "stats": {"score": {"value": null}}}}, {"id": "91596931-1", "entrant": {"id": 20739886, "name": "Station", "participants": [{"id": 19085936, "gamerTag": "Station", "prefix": "", "user": {"location": {"city": null, "state": null, "country": "United States"}}, "player": {"id": 3944248, "gamerTag": "Station", "prefix": "", "user": {"location": {"city": null, "state": null, "country": "United States"}}}}]}, "standing": {"placement": 2, "stats": {"score": {"value": null}}}}], "games": null}, {"id": 91596929, "state": 3, "round": 3, "fullRoundText": "Semi-Final", "completedAt": 1752955162, "winnerId": 20740835, "slots": [{"id": "91596929-0", "entrant": {"id": 20740835, "name": "SNRS | SmokePudding", "participants": [{"id": 19086832, "gamerTag": "SmokePudding", "prefix": "SNRS", "user": {"location": {"city": "Riverdale", "state": "GA", "country": "United States"}}, "player": {"id": 281776, "gamerTag": "SmokePudding", "prefix": "", "user": {"location": {"city": "Riverdale", "state": "GA", "country": "United States"}}}}]}, "standing": {"placement": 1, "stats": {"score": {"value": null}}}}, {"id": "91596929-1", "entrant": {"id": 20738846, "name": "Thoughtzlol", "participants": [{"id": 19084989, "gamerTag": "Thoughtzlol", "prefix": "", "user": {"location": {"city": "Morrow", "state": "GA", "country": "United States"}}, "player": {"id": 2171922, "gamerTag": "Thoughtzlol", "prefix": "", "user": {"location": {"city": "Morrow", "state": "GA", "country": "United States"}}}}]}, "standing": {"placement": 2, "stats": {"score": {"value": null}}}}], "games": null}, {"id": 91596930, "state": 3, "round": 3, "fullRoundText": "Semi-Final", "completedAt": 1752955333, "winnerId": 20739886, "slots": [{"id": "91596930-0", "entrant": {"id": 20740228, "name": "ZB | Gerard", "participants": [{"id": 19086246, "gamerTag": "Gerard", "prefix": "ZB", "user": {"location": {"city": "Atlanta", "state": "GA", "country": "United States"}}, "player": {"id": 325542, "gamerTag": "Gerard", "prefix": "ZB", "user": {"location": {"city": "Atlanta", "state": "GA", "country": "United States"}}}}]}, "standing": {"placement": 2, "stats": {"score": {"value": null}}}}, {"id": "91596930-1", "entrant": {"id": 20739886, "name": "Station", "participants": [{"id": 19085936, "gamerTag": "Station", "prefix": "", "user": {"location": {"city": null, "state": null, "country": "United States"}}, "player": {"id": 3944248, "gamerTag": "Station", "prefix": "", "user": {"location": {"city": null, "state": null, "country": "United States"}}}}]}, "standing": {"placement": 1, "stats": {"score": {"value": null}}}}], "games": null}, {"id": 91596925, "state": 3, "round": 2, "fullRoundText": "Quarter-Final", "completedAt": 1752954755, "winnerId": 20740835, "slots": [{"id": "91596925-0", "entrant": {"id": 20644833, "name": "Hobbit", "participants": [{"id": 19004014, "gamerTag": "Hobbit", "prefix": null, "user": {"location": {"city": null, "state": "GA", "country": "United States"}}, "player": {"id": 4025480, "gamerTag": "Hobbit", "prefix": null, "user": {"location": {"city": null, "state": "GA", "country": "United States"}}}}]}, "standing": {"placement": 2, "stats": {"score": {"value": null}}}}, {"id": "91596925-1", "entrant": {"id": 20740835, "name": "SNRS | SmokePudding", "participants": [{"id": 19086832, "gamerTag": "SmokePudding", "prefix": "SNRS", "user": {"location": {"city": "Riverdale", "state": "GA", "country": "United States"}}, "player": {"id": 281776, "gamerTag": "SmokePudding", "prefix": "", "user": {"location": {"city": "Riverdale", "state": "GA", "country": "United States"}}}}]}, "standing": {"placement": 1, "stats": {"score": {"value": null}}}}], "games": null}, {"id": 91596926, "state": 3, "round": 2, "fullRoundText": "Quarter-Final", "completedAt": 1752954238, "winnerId": 20738846, "slots": [{"id": "91596926-0", "entrant": {"id": 20735624, "name": "Smith_Claxton", "participants": [{"id": 19082494, "gamerTag": "Smith_Claxton", "prefix": null, "user": {"location": {"city": "Griffin", "state": "GA", "country": "United States"}}, "player": {"id": 3459922, "gamerTag": "Smith_Claxton", "prefix": null, "user": {"location": {"city": "Griffin", "state": "GA", "country": "United States"}}}}]}, "standing": {"placement": 2, "stats": {"score": {"value": -1}}}}, {"id": "91596926-1", "entrant": {"id": 20738846, "name": "Thoughtzlol", "participants": [{"id": 19084989, "gamerTag": "Thoughtzlol", "prefix": "", "user": {"location": {"city": "Morrow", "state": "GA", "country": "United States"}}, "player": {"id": 2171922, "gamerTag": "Thoughtzlol", "prefix": "", "user": {"location": {"city": "Morrow", "state": "GA", "country": "United States"}}}}]}, "standing": {"placement": 1, "stats": {"score": {"value": null}}}}], "games": null}, {"id": 91596927, "state": 3, "round": 2, "fullRoundText": "Quarter-Final", "completedAt": 1752955002, "winnerId": 20740228, "slots": [{"id": "91596927-0", "entrant": {"id": 20652278, "name": "ZB | Juniper", "participants": [{"id": 19010377, "gamerTag": "Juniper", "prefix": "ZB", "user": {"location": {"city": "Morrow", "state": "GA", "country": "United States"}}, "player": {"id": 46895, "gamerTag": "Juniper", "prefix": "ZB", "user": {"location": {"city": "Morrow", "state": "GA", "country": "United States"}}}}]}, "standing": {"placement": 2, "stats": {"score": {"value": null}}}}, {"id": "91596927-1", "entrant": {"id": 20740228, "name": "ZB | Gerard", "participants": [{"id": 19086246, "gamerTag": "Gerard", "prefix": "ZB", "user": {"location": {"city": "Atlanta", "state": "GA", "country": "United States"}}, "player": {"id": 325542, "gamerTag": "Gerard", "prefix": "ZB", "user": {"location": {"city": "Atlanta", "state": "GA", "country": "United States"}}}}]}, "standing": {"placement": 1, "stats": {"score": {"value": null}}}}], "games": null}, {"id": 91596928, "state": 3, "round": 2, "fullRoundText": "Quarter-Final", "completedAt": 1752954575, "winnerId": 20739886, "slots": [{"id": "91596928-0", "entrant": {"id": 20661306, "name": "TROLLGANG | Love", "participants": [{"id": 19018380, "gamerTag": "Love", "prefix": "TROLLGANG", "user": {"location": {"city": null, "state": null, "country": null}}, "player": {"id": 1601669, "gamerTag": "Love", "prefix": "TROLLGANG", "user": {"location": {"city": null, "state": null, "country": null}}}}]}, "standing": {"placement": 2, "stats": {"score": {"value": null}}}}, {"id": "91596928-1", "entrant": {"id": 20739886, "name": "Station", "participants": [{"id": 19085936, "gamerTag": "Station", "prefix": "", "user": {"location": {"city": null, "state": null, "country": "United States"}}, "player": {"id": 3944248, "gamerTag": "Station", "prefix": "", "user": {"location": {"city": null, "state": null, "country": "United States"}}}}]}, "standing": {"placement": 1, "stats": {"score": {"value": null}}}}], "games": null}, {"id": 91596918, "state": 3, "round": 1, "fullRoundText": "Round 1", "completedAt": 1752953854, "winnerId": 20740835, "slots": [{"id": "91596918-0", "entrant": {"id": 20740811, "name": "Riley", "participants": [{"id": 19086813, "gamerTag": "Riley", "prefix": "", "user": null, "player": {"id": 4875431, "gamerTag": "Riley", "prefix": "", "user": null}}]}, "standing": {"placement": 2, "stats": {"score": {"value": null}}}}, {"id": "91596918-1", "entrant": {"id": 20740835, "name": "SNRS | SmokePudding", "participants": [{"id": 19086832, "gamerTag": "SmokePudding", "prefix": "SNRS", "user": {"location": {"city": "Riverdale", "state": "GA", "country": "United States"}}, "player": {"id": 281776, "gamerTag": "SmokePudding", "prefix": "", "user": {"location": {"city": "Riverdale", "state": "GA", "country": "United States"}}}}]}, "standing": {"placement": 1, "stats": {"score": {"value": null}}}}], "games": null}, {"id": 91596922, "state": 3, "round": 1, "fullRoundText": "Round 1", "completedAt": 1752954224, "winnerId": 20740228, "slots": [{"id": "91596922-0", "entrant": {"id": 20740228, "name": "ZB | Gerard", "participants": [{"id": 19086246, "gamerTag": "Gerard", "prefix": "ZB", "user": {"location": {"city": "Atlanta", "state": "GA", "country": "United States"}}, "player": {"id": 325542, "gamerTag": "Gerard", "prefix": "ZB", "user": {"location": {"city": "Atlanta", "state": "GA", "country": "United States"}}}}]}, "standing": {"placement": 1, "stats": {"score": {"value": null}}}}, {"id": "91596922-1", "entrant": {"id": 20741093, "name": "ZB | wolfy", "participants": [{"id": 19086119, "gamerTag": "wolfy", "prefix": "ZB", "user": {"location": {"city": "Tyrone", "state": "GA", "country": "United States"}}, "player": {"id": 295981, "gamerTag": "wolfy", "prefix": "ZB", "user": {"location": {"city": "Tyrone", "state": "GA", "country": "United States"}}}}]}, "standing": {"placement": 2, "stats": {"score": {"value": null}}}}], "games": null}]}}}