{"event": {"sets": {"pageInfo": {"totalPages": 4, "total": 60}, "nodes": [{"id": 93722041, "state": 3, "round": -4, "fullRoundText": "Losers Round 2", "completedAt": 1757552110, "winnerId": 21226375, "slots": [{"id": "93722041-0", "entrant": {"id": 21226375, "name": "100% | juice", "participants": [{"id": 19520303, "gamerTag": "juice", "prefix": "100%", "user": {"location": {"city": "atlanta", "state": "GA", "country": "United States"}}, "player": {"id": 146905, "gamerTag": "juice", "prefix": "100%", "user": {"location": {"city": "atlanta", "state": "GA", "country": "United States"}}}}]}, "standing": {"placement": 1, "stats": {"score": {"value": 2}}}}, {"id": "93722041-1", "entrant": {"id": 21199914, "name": "Bronzjo", "participants": [{"id": 19496878, "gamerTag": "Bronzjo", "prefix": null, "user": {"location": {"city": "Lula", "state": "GA", "country": "United States"}}, "player": {"id": 4622459, "gamerTag": "Bronzjo", "prefix": null, "user": {"location": {"city": "Lula", "state": "GA", "country": "United States"}}}}]}, "standing": {"placement": 2, "stats": {"score": {"value": 0}}}}], "games": null}, {"id": 93722042, "state": 3, "round": -4, "fullRoundText": "Losers Round 2", "completedAt": 1757552389, "winnerId": 21224680, "slots": [{"id": "93722042-0", "entrant": {"id": 21224680, "name": "O.N.2", "participants": [{"id": 19518833, "gamerTag": "O.N.2", "prefix": "", "user": {"location": {"city": "SNELLVILLE", "state": "GA", "country": "United States"}}, "player": {"id": 1042436, "gamerTag": "O.N.2", "prefix": "", "user": {"location": {"city": "SNELLVILLE", "state": "GA", "country": "United States"}}}}]}, "standing": {"placement": 1, "stats": {"score": {"value": 2}}}}, {"id": "93722042-1", "entrant": {"id": 21226605, "name": "Jet Midder", "participants": [{"id": 19520512, "gamerTag": "Jet Midder", "prefix": null, "user": {"location": {"city": null, "state": null, "country": null}}, "player": {"id": 2363656, "gamerTag": "Jet Dayo", "prefix": null, "user": {"location": {"city": null, "state": null, "country": null}}}}]}, "standing": {"placement": 2, "stats": {"score": {"value": 0}}}}], "games": null}, {"id": 93722043, "state": 3, "round": -4, "fullRoundText": "Losers Round 2", "completedAt": 1757551919, "winnerId": 21227597, "slots": [{"id": "93722043-0", "entrant": {"id": 21227597, "name": "Iso.Dgaf", "participants": [{"id": 19521440, "gamerTag": "Iso.Dgaf", "prefix": null, "user": {"location": {"city": "Acworth", "state": "GA", "country": "United States"}}, "player": {"id": 4285541, "gamerTag": "Iso.Dgaf", "prefix": null, "user": {"location": {"city": "Acworth", "state": "GA", "country": "United States"}}}}]}, "standing": {"placement": 1, "stats": {"score": {"value": 2}}}}, {"id": "93722043-1", "entrant": {"id": 21224787, "name": "Free | Sereni", "participants": [{"id": 19518926, "gamerTag": "Sereni", "prefix": "Free", "user": {"location": {"city": null, "state": null, "country": "United States"}}, "player": {"id": 482535, "gamerTag": "Sereni", "prefix": "Free", "user": {"location": {"city": null, "state": null, "country": "United States"}}}}]}, "standing": {"placement": 2, "stats": {"score": {"value": 0}}}}], "games": null}, {"id": 93722044, "state": 3, "round": -4, "fullRoundText": "Losers Round 2", "completedAt": 1757552332, "winnerId": 21228017, "slots": [{"id": "93722044-0", "entrant": {"id": 21228017, "name": "REHOO", "participants": [{"id": 19521800, "gamerTag": "REHOO", "prefix": null, "user": {"location": {"city": "jonesboro", "state": "GA", "country": "United States"}}, "player": {"id": 427983, "gamerTag": "REHOO", "prefix": null, "user": {"location": {"city": "jonesboro", "state": "GA", "country": "United States"}}}}]}, "standing": {"placement": 1, "stats": {"score": {"value": 2}}}}, {"id": "93722044-1", "entrant": {"id": 21227837, "name": "StrataJay", "participants": [{"id": 19521654, "gamerTag": "StrataJay", "prefix": "", "user": {"location": {"city": "Grayson", "state": "GA", "country": "United States"}}, "player": {"id": 1112189, "gamerTag": "StrataJay", "prefix": "", "user": {"location": {"city": "Grayson", "state": "GA", "country": "United States"}}}}]}, "standing": {"placement": 2, "stats": {"score": {"value": 0}}}}], "games": null}, {"id": 93722045, "state": 3, "round": -4, "fullRoundText": "Losers Round 2", "completedAt": 1757551719, "winnerId": 21227866, "slots": [{"id": "93722045-0", "entrant": {"id": 21227866, "name": "4o4 | ToastyATL", "participants": [{"id": 19521678, "gamerTag": "ToastyATL", "prefix": "4o4", "user": {"location": {"city": "Atlanta", "state": "GA", "country": "United States"}}, "player": {"id": 368352, "gamerTag": "ToastyATL", "prefix": "4o4", "user": {"location": {"city": "Atlanta", "state": "GA", "country": "United States"}}}}]}, "standing": {"placement": 1, "stats": {"score": {"value": 2}}}}, {"id": "93722045-1", "entrant": {"id": 21227955, "name": "WVSH", "participants": [{"id": 19521749, "gamerTag": "WVSH", "prefix": null, "user": {"location": {"city": "Atlanta", "state": "GA", "country": "United States"}}, "player": {"id": 4660025, "gamerTag": "WVSH", "prefix": null, "user": {"location": {"city": "Atlanta", "state": "GA", "country": "United States"}}}}]}, "standing": {"placement": 2, "stats": {"score": {"value": 0}}}}], "games": null}, {"id": 93722046, "state": 3, "round": -4, "fullRoundText": "Losers Round 2", "completedAt": 1757551990, "winnerId": 21227334, "slots": [{"id": "93722046-0", "entrant": {"id": 21227334, "name": "LogieBear", "participants": [{"id": 19521200, "gamerTag": "LogieBear", "prefix": "", "user": {"location": {"city": "Snellville", "state": "GA", "country": "United States"}}, "player": {"id": 3809706, "gamerTag": "LogieBear", "prefix": "", "user": {"location": {"city": "Snellville", "state": "GA", "country": "United States"}}}}]}, "standing": {"placement": 1, "stats": {"score": {"value": 2}}}}, {"id": "93722046-1", "entrant": {"id": 21222650, "name": "Momokins", "participants": [{"id": 19517023, "gamerTag": "Momokins", "prefix": "", "user": {"location": {"city": "Atlanta", "state": "GA", "country": "United States"}}, "player": {"id": 612216, "gamerTag": "Momokins", "prefix": "", "user": {"location": {"city": "Atlanta", "state": "GA", "country": "United States"}}}}]}, "standing": {"placement": 2, "stats": {"score": {"value": 0}}}}], "games": null}, {"id": 93722047, "state": 3, "round": -4, "fullRoundText": "Losers Round 2", "completedAt": 1757552024, "winnerId": 21226238, "slots": [{"id": "93722047-0", "entrant": {"id": 21226238, "name": "HEAVENER", "participants": [{"id": 19520179, "gamerTag": "HEAVENER", "prefix": "", "user": {"location": {"city": "Marietta", "state": "GA", "country": "United States"}}, "player": {"id": 1829744, "gamerTag": "HEAVENER", "prefix": "", "user": {"location": {"city": "Marietta", "state": "GA", "country": "United States"}}}}]}, "standing": {"placement": 1, "stats": {"score": {"value": 2}}}}, {"id": "93722047-1", "entrant": {"id": 21225523, "name": "PAR | Romanova", "participants": [{"id": 19519587, "gamerTag": "Romanova", "prefix": "PAR", "user": {"location": {"city": "Atlanta", "state": "GA", "country": "United States"}}, "player": {"id": 228245, "gamerTag": "Romanova", "prefix": "PAR", "user": {"location": {"city": "Atlanta", "state": "GA", "country": "United States"}}}}]}, "standing": {"placement": 2, "stats": {"score": {"value": 0}}}}], "games": null}, {"id": 93722048, "state": 3, "round": -4, "fullRoundText": "Losers Round 2", "completedAt": 1757552234, "winnerId": 21227818, "slots": [{"id": "93722048-0", "entrant": {"id": 21226104, "name": "Aneubys", "participants": [{"id": 19520140, "gamerTag": "Aneubys", "prefix": "", "user": {"location": {"city": "Smyrna", "state": "GA", "country": "United States"}}, "player": {"id": 3901259, "gamerTag": "Aneubys", "prefix": "", "user": {"location": {"city": "Smyrna", "state": "GA", "country": "United States"}}}}]}, "standing": {"placement": 2, "stats": {"score": {"value": 0}}}}, {"id": "93722048-1", "entrant": {"id": 21227818, "name": "4o4 | blitz", "participants": [{"id": 19521635, "gamerTag": "blitz", "prefix": "4o4", "user": {"location": {"city": "Lawrenceville", "state": "GA", "country": "United States"}}, "player": {"id": 2228539, "gamerTag": "blitz", "prefix": "4o4", "user": {"location": {"city": "Lawrenceville", "state": "GA", "country": "United States"}}}}]}, "standing": {"placement": 1, "stats": {"score": {"value": 2}}}}], "games": null}, {"id": 93722034, "state": 3, "round": -3, "fullRoundText": "Losers Round 1", "completedAt": 1757551229, "winnerId": 21226605, "slots": [{"id": "93722034-0", "entrant": {"id": 21226605, "name": "Jet Midder", "participants": [{"id": 19520512, "gamerTag": "Jet Midder", "prefix": null, "user": {"location": {"city": null, "state": null, "country": null}}, "player": {"id": 2363656, "gamerTag": "Jet Dayo", "prefix": null, "user": {"location": {"city": null, "state": null, "country": null}}}}]}, "standing": {"placement": 1, "stats": {"score": {"value": 2}}}}, {"id": "93722034-1", "entrant": {"id": 21225549, "name": "Azarlith", "participants": [{"id": 19519607, "gamerTag": "Azarlith", "prefix": "", "user": {"location": {"city": "Lawrenceville", "state": null, "country": "United States"}}, "player": {"id": 3444743, "gamerTag": "Azarlith", "prefix": "", "user": {"location": {"city": "Lawrenceville", "state": null, "country": "United States"}}}}]}, "standing": {"placement": 2, "stats": {"score": {"value": 1}}}}], "games": null}, {"id": 93722035, "state": 3, "round": -3, "fullRoundText": "Losers Round 1", "completedAt": 1757551061, "winnerId": 21224787, "slots": [{"id": "93722035-0", "entrant": {"id": 21227145, "name": "SpaceSong", "participants": [{"id": 19521024, "gamerTag": "SpaceSong", "prefix": null, "user": {"location": {"city": "Norcross", "state": "GA", "country": "United States"}}, "player": {"id": 4530151, "gamerTag": "SpaceSong", "prefix": null, "user": {"location": {"city": "Norcross", "state": "GA", "country": "United States"}}}}]}, "standing": {"placement": 2, "stats": {"score": {"value": 0}}}}, {"id": "93722035-1", "entrant": {"id": 21224787, "name": "Free | Sereni", "participants": [{"id": 19518926, "gamerTag": "Sereni", "prefix": "Free", "user": {"location": {"city": null, "state": null, "country": "United States"}}, "player": {"id": 482535, "gamerTag": "Sereni", "prefix": "Free", "user": {"location": {"city": null, "state": null, "country": "United States"}}}}]}, "standing": {"placement": 1, "stats": {"score": {"value": 2}}}}], "games": null}, {"id": 93722036, "state": 3, "round": -3, "fullRoundText": "Losers Round 1", "completedAt": 1757550578, "winnerId": 21227837, "slots": [{"id": "93722036-0", "entrant": {"id": 21227136, "name": "Playmanji", "participants": [{"id": 19521016, "gamerTag": "Playmanji", "prefix": null, "user": {"location": {"city": "Loganville", "state": "GA", "country": "United States"}}, "player": {"id": 3442605, "gamerTag": "Playmanji", "prefix": null, "user": {"location": {"city": "Loganville", "state": "GA", "country": "United States"}}}}]}, "standing": {"placement": 2, "stats": {"score": {"value": 0}}}}, {"id": "93722036-1", "entrant": {"id": 21227837, "name": "StrataJay", "participants": [{"id": 19521654, "gamerTag": "StrataJay", "prefix": "", "user": {"location": {"city": "Grayson", "state": "GA", "country": "United States"}}, "player": {"id": 1112189, "gamerTag": "StrataJay", "prefix": "", "user": {"location": {"city": "Grayson", "state": "GA", "country": "United States"}}}}]}, "standing": {"placement": 1, "stats": {"score": {"value": 2}}}}], "games": null}, {"id": 93722037, "state": 3, "round": -3, "fullRoundText": "Losers Round 1", "completedAt": 1757550856, "winnerId": 21227955, "slots": [{"id": "93722037-0", "entrant": {"id": 21227955, "name": "WVSH", "participants": [{"id": 19521749, "gamerTag": "WVSH", "prefix": null, "user": {"location": {"city": "Atlanta", "state": "GA", "country": "United States"}}, "player": {"id": 4660025, "gamerTag": "WVSH", "prefix": null, "user": {"location": {"city": "Atlanta", "state": "GA", "country": "United States"}}}}]}, "standing": {"placement": 1, "stats": {"score": {"value": 2}}}}, {"id": "93722037-1", "entrant": {"id": 21223389, "name": "C-2", "participants": [{"id": 19517695, "gamerTag": "C-2", "prefix": "", "user": {"location": {"city": "Atlanta", "state": "GA", "country": "United States"}}, "player": {"id": 1228856, "gamerTag": "C-2", "prefix": "", "user": {"location": {"city": "Atlanta", "state": "GA", "country": "United States"}}}}]}, "standing": {"placement": 2, "stats": {"score": {"value": 0}}}}], "games": null}, {"id": 93722038, "state": 3, "round": -3, "fullRoundText": "Losers Round 1", "completedAt": 1757550814, "winnerId": 21222650, "slots": [{"id": "93722038-0", "entrant": {"id": 21227066, "name": "Fiji | 100 Latinas", "participants": [{"id": 19520955, "gamerTag": "100 Latinas", "prefix": "Fiji", "user": {"location": {"city": "Lithonia", "state": "GA", "country": "United States"}}, "player": {"id": 1890427, "gamerTag": "100 Latinas", "prefix": "Fiji", "user": {"location": {"city": "Lithonia", "state": "GA", "country": "United States"}}}}]}, "standing": {"placement": 2, "stats": {"score": {"value": 1}}}}, {"id": "93722038-1", "entrant": {"id": 21222650, "name": "Momokins", "participants": [{"id": 19517023, "gamerTag": "Momokins", "prefix": "", "user": {"location": {"city": "Atlanta", "state": "GA", "country": "United States"}}, "player": {"id": 612216, "gamerTag": "Momokins", "prefix": "", "user": {"location": {"city": "Atlanta", "state": "GA", "country": "United States"}}}}]}, "standing": {"placement": 1, "stats": {"score": {"value": 2}}}}], "games": null}, {"id": 93722039, "state": 3, "round": -3, "fullRoundText": "Losers Round 1", "completedAt": 1757551171, "winnerId": 21225523, "slots": [{"id": "93722039-0", "entrant": {"id": 21227749, "name": "Spiral", "participants": [{"id": 19521576, "gamerTag": "Spiral", "prefix": "", "user": {"location": {"city": "LITHONIA", "state": "GA", "country": "United States"}}, "player": {"id": 957192, "gamerTag": "Spiral", "prefix": "", "user": {"location": {"city": "LITHONIA", "state": "GA", "country": "United States"}}}}]}, "standing": {"placement": 2, "stats": {"score": {"value": 0}}}}, {"id": "93722039-1", "entrant": {"id": 21225523, "name": "PAR | Romanova", "participants": [{"id": 19519587, "gamerTag": "Romanova", "prefix": "PAR", "user": {"location": {"city": "Atlanta", "state": "GA", "country": "United States"}}, "player": {"id": 228245, "gamerTag": "Romanova", "prefix": "PAR", "user": {"location": {"city": "Atlanta", "state": "GA", "country": "United States"}}}}]}, "standing": {"placement": 1, "stats": {"score": {"value": 2}}}}], "games": null}, {"id": 93722040, "state": 3, "round": -3, "fullRoundText": "Losers Round 1", "completedAt": 1757551740, "winnerId": 21227818, "slots": [{"id": "93722040-0", "entrant": {"id": 21227818, "name": "4o4 | blitz", "participants": [{"id": 19521635, "gamerTag": "blitz", "prefix": "4o4", "user": {"location": {"city": "Lawrenceville", "state": "GA", "country": "United States"}}, "player": {"id": 2228539, "gamerTag": "blitz", "prefix": "4o4", "user": {"location": {"city": "Lawrenceville", "state": "GA", "country": "United States"}}}}]}, "standing": {"placement": 1, "stats": {"score": {"value": 2}}}}, {"id": "93722040-1", "entrant": {"id": 21222697, "name": "Hipster Lion", "participants": [{"id": 19517072, "gamerTag": "Hipster Lion", "prefix": "", "user": {"location": {"city": "College Park", "state": "GA", "country": "United States"}}, "player": {"id": 897409, "gamerTag": "Hipster Lion", "prefix": "", "user": {"location": {"city": "College Park", "state": "GA", "country": "United States"}}}}]}, "standing": {"placement": 2, "stats": {"score": {"value": 0}}}}], "games": null}]}}}