{"event": {"sets": {"pageInfo": {"totalPages": 2, "total": 27}, "nodes": [{"id": 94525859, "state": 3, "round": -4, "fullRoundText": "Losers Round 2", "completedAt": 1759279998, "winnerId": 21428504, "slots": [{"id": "94525859-0", "entrant": {"id": 21425904, "name": "Noodle", "participants": [{"id": 19693402, "gamerTag": "Noodle", "prefix": "", "user": {"location": {"city": "McDonough", "state": "GA", "country": "United States"}}, "player": {"id": 3029288, "gamerTag": "Noodle", "prefix": "", "user": {"location": {"city": "McDonough", "state": "GA", "country": "United States"}}}}]}, "standing": {"placement": 2, "stats": {"score": {"value": 0}}}}, {"id": "94525859-1", "entrant": {"id": 21428504, "name": "Archway", "participants": [{"id": 19695675, "gamerTag": "Archway", "prefix": "", "user": {"location": {"city": "Sandy Springs", "state": "GA", "country": "United States"}}, "player": {"id": 1435251, "gamerTag": "Archway", "prefix": "", "user": {"location": {"city": "Sandy Springs", "state": "GA", "country": "United States"}}}}]}, "standing": {"placement": 1, "stats": {"score": {"value": 3}}}}], "games": null}, {"id": 94525860, "state": 3, "round": -4, "fullRoundText": "Losers Round 2", "completedAt": 1759280497, "winnerId": 21422883, "slots": [{"id": "94525860-0", "entrant": {"id": 21422883, "name": "Brennan", "participants": [{"id": 19690718, "gamerTag": "Brennan", "prefix": "", "user": {"location": {"city": "Atlanta", "state": "GA", "country": "United States"}}, "player": {"id": 1856111, "gamerTag": "Brennan", "prefix": "", "user": {"location": {"city": "Atlanta", "state": "GA", "country": "United States"}}}}]}, "standing": {"placement": 1, "stats": {"score": {"value": 3}}}}, {"id": "94525860-1", "entrant": {"id": 21428320, "name": "Xangief", "participants": [{"id": 19695511, "gamerTag": "Xangief", "prefix": null, "user": {"location": {"city": "Atlanta", "state": "GA", "country": "United States"}}, "player": {"id": 135082, "gamerTag": "Xangief", "prefix": null, "user": {"location": {"city": "Atlanta", "state": "GA", "country": "United States"}}}}]}, "standing": {"placement": 2, "stats": {"score": {"value": 1}}}}], "games": null}, {"id": 94525861, "state": 3, "round": -4, "fullRoundText": "Losers Round 2", "completedAt": 1759280554, "winnerId": 21427945, "slots": [{"id": "94525861-0", "entrant": {"id": 21427945, "name": "Burboovas", "participants": [{"id": 19695184, "gamerTag": "Burboovas", "prefix": null, "user": {"location": {"city": null, "state": null, "country": null}}, "player": {"id": 3927191, "gamerTag": "Burboovas", "prefix": null, "user": {"location": {"city": null, "state": null, "country": null}}}}]}, "standing": {"placement": 1, "stats": {"score": {"value": 3}}}}, {"id": "94525861-1", "entrant": {"id": 21428595, "name": "EEK!", "participants": [{"id": 19695762, "gamerTag": "EEK!", "prefix": null, "user": {"location": {"city": "Atlanta", "state": "GA", "country": "United States"}}, "player": {"id": 148794, "gamerTag": "EEK!", "prefix": null, "user": {"location": {"city": "Atlanta", "state": "GA", "country": "United States"}}}}]}, "standing": {"placement": 2, "stats": {"score": {"value": 0}}}}], "games": null}, {"id": 94525862, "state": 3, "round": -4, "fullRoundText": "Losers Round 2", "completedAt": 1759280382, "winnerId": 21428218, "slots": [{"id": "94525862-0", "entrant": {"id": 21420710, "name": "Jabberwock", "participants": [{"id": 19688802, "gamerTag": "Jabberwock", "prefix": null, "user": {"location": {"city": "Jasper", "state": "GA", "country": "United States"}}, "player": {"id": 4954334, "gamerTag": "Jabberwock", "prefix": null, "user": {"location": {"city": "Jasper", "state": "GA", "country": "United States"}}}}]}, "standing": {"placement": 2, "stats": {"score": {"value": 0}}}}, {"id": "94525862-1", "entrant": {"id": 21428218, "name": "bsharkz", "participants": [{"id": 19695427, "gamerTag": "bsharkz", "prefix": "", "user": {"location": {"city": "Atlanta", "state": "FL", "country": "United States"}}, "player": {"id": 4297884, "gamerTag": "bsharkz", "prefix": "", "user": {"location": {"city": "Atlanta", "state": "FL", "country": "United States"}}}}]}, "standing": {"placement": 1, "stats": {"score": {"value": 3}}}}], "games": null}, {"id": 94525856, "state": 3, "round": -3, "fullRoundText": "Losers Round 1", "completedAt": 1759279602, "winnerId": 21428320, "slots": [{"id": "94525856-0", "entrant": {"id": 21428320, "name": "Xangief", "participants": [{"id": 19695511, "gamerTag": "Xangief", "prefix": null, "user": {"location": {"city": "Atlanta", "state": "GA", "country": "United States"}}, "player": {"id": 135082, "gamerTag": "Xangief", "prefix": null, "user": {"location": {"city": "Atlanta", "state": "GA", "country": "United States"}}}}]}, "standing": {"placement": 1, "stats": {"score": {"value": 3}}}}, {"id": "94525856-1", "entrant": {"id": 21426097, "name": "Pazure", "participants": [{"id": 19693539, "gamerTag": "Pazure", "prefix": null, "user": {"location": {"city": null, "state": null, "country": "United States"}}, "player": {"id": 72218, "gamerTag": "Pazure", "prefix": null, "user": {"location": {"city": null, "state": null, "country": "United States"}}}}]}, "standing": {"placement": 2, "stats": {"score": {"value": 0}}}}], "games": null}, {"id": 94525858, "state": 3, "round": -3, "fullRoundText": "Losers Round 1", "completedAt": 1759279477, "winnerId": 21428218, "slots": [{"id": "94525858-0", "entrant": {"id": 21428218, "name": "bsharkz", "participants": [{"id": 19695427, "gamerTag": "bsharkz", "prefix": "", "user": {"location": {"city": "Atlanta", "state": "FL", "country": "United States"}}, "player": {"id": 4297884, "gamerTag": "bsharkz", "prefix": "", "user": {"location": {"city": "Atlanta", "state": "FL", "country": "United States"}}}}]}, "standing": {"placement": 1, "stats": {"score": {"value": 3}}}}, {"id": "94525858-1", "entrant": {"id": 21428496, "name": "ToBeFrank | FF | SLAYlor Moon", "participants": [{"id": 19695668, "gamerTag": "SLAYlor Moon", "prefix": "ToBeFrank | FF", "user": {"location": {"city": "Atlanta", "state": "GA", "country": "United States"}}, "player": {"id": 267007, "gamerTag": "SLAYlor Moon", "prefix": "ToBeFrank | FF", "user": {"location": {"city": "Atlanta", "state": "GA", "country": "United States"}}}}]}, "standing": {"placement": 2, "stats": {"score": {"value": 0}}}}], "games": null}, {"id": 94525823, "state": 3, "round": 1, "fullRoundText": "Winners Round 1", "completedAt": 1759278830, "winnerId": 21420710, "slots": [{"id": "94525823-0", "entrant": {"id": 21428504, "name": "Archway", "participants": [{"id": 19695675, "gamerTag": "Archway", "prefix": "", "user": {"location": {"city": "Sandy Springs", "state": "GA", "country": "United States"}}, "player": {"id": 1435251, "gamerTag": "Archway", "prefix": "", "user": {"location": {"city": "Sandy Springs", "state": "GA", "country": "United States"}}}}]}, "standing": {"placement": 2, "stats": {"score": {"value": 1}}}}, {"id": "94525823-1", "entrant": {"id": 21420710, "name": "Jabberwock", "participants": [{"id": 19688802, "gamerTag": "Jabberwock", "prefix": null, "user": {"location": {"city": "Jasper", "state": "GA", "country": "United States"}}, "player": {"id": 4954334, "gamerTag": "Jabberwock", "prefix": null, "user": {"location": {"city": "Jasper", "state": "GA", "country": "United States"}}}}]}, "standing": {"placement": 1, "stats": {"score": {"value": 3}}}}], "games": null}, {"id": 94525824, "state": 3, "round": 1, "fullRoundText": "Winners Round 1", "completedAt": 1759278600, "winnerId": 21427945, "slots": [{"id": "94525824-0", "entrant": {"id": 21427945, "name": "Burboovas", "participants": [{"id": 19695184, "gamerTag": "Burboovas", "prefix": null, "user": {"location": {"city": null, "state": null, "country": null}}, "player": {"id": 3927191, "gamerTag": "Burboovas", "prefix": null, "user": {"location": {"city": null, "state": null, "country": null}}}}]}, "standing": {"placement": 1, "stats": {"score": {"value": 3}}}}, {"id": "94525824-1", "entrant": {"id": 21428320, "name": "Xangief", "participants": [{"id": 19695511, "gamerTag": "Xangief", "prefix": null, "user": {"location": {"city": "Atlanta", "state": "GA", "country": "United States"}}, "player": {"id": 135082, "gamerTag": "Xangief", "prefix": null, "user": {"location": {"city": "Atlanta", "state": "GA", "country": "United States"}}}}]}, "standing": {"placement": 2, "stats": {"score": {"value": 0}}}}], "games": null}, {"id": 94525825, "state": 3, "round": 1, "fullRoundText": "Winners Round 1", "completedAt": 1759279040, "winnerId": 21427720, "slots": [{"id": "94525825-0", "entrant": {"id": 21427720, "name": "Buddylikefriend", "participants": [{"id": 19694998, "gamerTag": "Buddylikefriend", "prefix": null, "user": {"location": {"city": "Atlanta", "state": "GA", "country": "United States"}}, "player": {"id": 785557, "gamerTag": "Buddylikefriend", "prefix": null, "user": {"location": {"city": "Atlanta", "state": "GA", "country": "United States"}}}}]}, "standing": {"placement": 1, "stats": {"score": {"value": 3}}}}, {"id": "94525825-1", "entrant": {"id": 21426097, "name": "Pazure", "participants": [{"id": 19693539, "gamerTag": "Pazure", "prefix": null, "user": {"location": {"city": null, "state": null, "country": "United States"}}, "player": {"id": 72218, "gamerTag": "Pazure", "prefix": null, "user": {"location": {"city": null, "state": null, "country": "United States"}}}}]}, "standing": {"placement": 2, "stats": {"score": {"value": 1}}}}], "games": null}, {"id": 94525827, "state": 3, "round": 1, "fullRoundText": "Winners Round 1", "completedAt": 1759278585, "winnerId": 21422883, "slots": [{"id": "94525827-0", "entrant": {"id": 21428595, "name": "EEK!", "participants": [{"id": 19695762, "gamerTag": "EEK!", "prefix": null, "user": {"location": {"city": "Atlanta", "state": "GA", "country": "United States"}}, "player": {"id": 148794, "gamerTag": "EEK!", "prefix": null, "user": {"location": {"city": "Atlanta", "state": "GA", "country": "United States"}}}}]}, "standing": {"placement": 2, "stats": {"score": {"value": 1}}}}, {"id": "94525827-1", "entrant": {"id": 21422883, "name": "Brennan", "participants": [{"id": 19690718, "gamerTag": "Brennan", "prefix": "", "user": {"location": {"city": "Atlanta", "state": "GA", "country": "United States"}}, "player": {"id": 1856111, "gamerTag": "Brennan", "prefix": "", "user": {"location": {"city": "Atlanta", "state": "GA", "country": "United States"}}}}]}, "standing": {"placement": 1, "stats": {"score": {"value": 3}}}}], "games": null}, {"id": 94525828, "state": 3, "round": 1, "fullRoundText": "Winners Round 1", "completedAt": 1759278448, "winnerId": 21420450, "slots": [{"id": "94525828-0", "entrant": {"id": 21420450, "name": "4o4 | chrisymandias", "participants": [{"id": 19688559, "gamerTag": "chrisymandias", "prefix": "4o4", "user": {"location": {"city": "Dacula", "state": "GA", "country": "United States"}}, "player": {"id": 258173, "gamerTag": "chrisymandias", "prefix": "4o4", "user": {"location": {"city": "Dacula", "state": "GA", "country": "United States"}}}}]}, "standing": {"placement": 1, "stats": {"score": {"value": 3}}}}, {"id": "94525828-1", "entrant": {"id": 21428218, "name": "bsharkz", "participants": [{"id": 19695427, "gamerTag": "bsharkz", "prefix": "", "user": {"location": {"city": "Atlanta", "state": "FL", "country": "United States"}}, "player": {"id": 4297884, "gamerTag": "bsharkz", "prefix": "", "user": {"location": {"city": "Atlanta", "state": "FL", "country": "United States"}}}}]}, "standing": {"placement": 2, "stats": {"score": {"value": 0}}}}], "games": null}, {"id": 94525829, "state": 3, "round": 1, "fullRoundText": "Winners Round 1", "completedAt": 1759278877, "winnerId": 21425904, "slots": [{"id": "94525829-0", "entrant": {"id": 21425904, "name": "Noodle", "participants": [{"id": 19693402, "gamerTag": "Noodle", "prefix": "", "user": {"location": {"city": "McDonough", "state": "GA", "country": "United States"}}, "player": {"id": 3029288, "gamerTag": "Noodle", "prefix": "", "user": {"location": {"city": "McDonough", "state": "GA", "country": "United States"}}}}]}, "standing": {"placement": 1, "stats": {"score": {"value": 3}}}}, {"id": "94525829-1", "entrant": {"id": 21428496, "name": "ToBeFrank | FF | SLAYlor Moon", "participants": [{"id": 19695668, "gamerTag": "SLAYlor Moon", "prefix": "ToBeFrank | FF", "user": {"location": {"city": "Atlanta", "state": "GA", "country": "United States"}}, "player": {"id": 267007, "gamerTag": "SLAYlor Moon", "prefix": "ToBeFrank | FF", "user": {"location": {"city": "Atlanta", "state": "GA", "country": "United States"}}}}]}, "standing": {"placement": 2, "stats": {"score": {"value": 0}}}}], "games": null}]}}}