{"event": {"sets": {"pageInfo": {"totalPages": 4, "total": 55}, "nodes": [{"id": 93154402, "state": 3, "round": 1, "fullRoundText": "Winners Round 1", "completedAt": 1756341224, "winnerId": 21094331, "slots": [{"id": "93154402-0", "entrant": {"id": 21094331, "name": "100% | juice", "participants": [{"id": 19403412, "gamerTag": "juice", "prefix": "100%", "user": {"location": {"city": "atlanta", "state": "GA", "country": "United States"}}, "player": {"id": 146905, "gamerTag": "juice", "prefix": "100%", "user": {"location": {"city": "atlanta", "state": "GA", "country": "United States"}}}}]}, "standing": {"placement": 1, "stats": {"score": {"value": 2}}}}, {"id": "93154402-1", "entrant": {"id": 21094757, "name": "Soku", "participants": [{"id": 19403806, "gamerTag": "Soku", "prefix": null, "user": {"location": {"city": "Suwanee", "state": "GA", "country": "United States"}}, "player": {"id": 4314131, "gamerTag": "Soku", "prefix": null, "user": {"location": {"city": "Suwanee", "state": "GA", "country": "United States"}}}}]}, "standing": {"placement": 2, "stats": {"score": {"value": 0}}}}], "games": null}, {"id": 93154404, "state": 3, "round": 1, "fullRoundText": "Winners Round 1", "completedAt": 1756341780, "winnerId": 21093861, "slots": [{"id": "93154404-0", "entrant": {"id": 21093861, "name": "C-2", "participants": [{"id": 19402969, "gamerTag": "C-2", "prefix": "", "user": {"location": {"city": "Atlanta", "state": "GA", "country": "United States"}}, "player": {"id": 1228856, "gamerTag": "C-2", "prefix": "", "user": {"location": {"city": "Atlanta", "state": "GA", "country": "United States"}}}}]}, "standing": {"placement": 1, "stats": {"score": {"value": 2}}}}, {"id": "93154404-1", "entrant": {"id": 21093977, "name": "Hipster Lion", "participants": [{"id": 19403075, "gamerTag": "Hipster Lion", "prefix": "", "user": {"location": {"city": "College Park", "state": "GA", "country": "United States"}}, "player": {"id": 897409, "gamerTag": "Hipster Lion", "prefix": "", "user": {"location": {"city": "College Park", "state": "GA", "country": "United States"}}}}]}, "standing": {"placement": 2, "stats": {"score": {"value": 0}}}}], "games": null}, {"id": 93154405, "state": 3, "round": 1, "fullRoundText": "Winners Round 1", "completedAt": 1756341247, "winnerId": 21094269, "slots": [{"id": "93154405-0", "entrant": {"id": 21094269, "name": "duetosideeffects", "participants": [{"id": 19403358, "gamerTag": "duetosideeffects", "prefix": "", "user": {"location": {"city": "Atlanta", "state": "GA", "country": "United States"}}, "player": {"id": 924041, "gamerTag": "duetosideeffects", "prefix": "", "user": {"location": {"city": "Atlanta", "state": "GA", "country": "United States"}}}}]}, "standing": {"placement": 1, "stats": {"score": {"value": 2}}}}, {"id": "93154405-1", "entrant": {"id": 21095013, "name": "ToBeFrank | FF | SLAYlor Moon", "participants": [{"id": 19402206, "gamerTag": "SLAYlor Moon", "prefix": "ToBeFrank | FF", "user": {"location": {"city": "Atlanta", "state": "GA", "country": "United States"}}, "player": {"id": 267007, "gamerTag": "SLAYlor Moon", "prefix": "ToBeFrank | FF", "user": {"location": {"city": "Atlanta", "state": "GA", "country": "United States"}}}}]}, "standing": {"placement": 2, "stats": {"score": {"value": 1}}}}], "games": null}, {"id": 93154406, "state": 3, "round": 1, "fullRoundText": "Winners Round 1", "completedAt": 1756340801, "winnerId": 21092667, "slots": [{"id": "93154406-0", "entrant": {"id": 21092667, "name": "Free | Sereni", "participants": [{"id": 19401894, "gamerTag": "Sereni", "prefix": "Free", "user": {"location": {"city": null, "state": null, "country": "United States"}}, "player": {"id": 482535, "gamerTag": "Sereni", "prefix": "Free", "user": {"location": {"city": null, "state": null, "country": "United States"}}}}]}, "standing": {"placement": 1, "stats": {"score": {"value": 2}}}}, {"id": "93154406-1", "entrant": {"id": 21092820, "name": "SpaceSong", "participants": [{"id": 19402045, "gamerTag": "SpaceSong", "prefix": null, "user": {"location": {"city": "Norcross", "state": "GA", "country": "United States"}}, "player": {"id": 4530151, "gamerTag": "SpaceSong", "prefix": null, "user": {"location": {"city": "Norcross", "state": "GA", "country": "United States"}}}}]}, "standing": {"placement": 2, "stats": {"score": {"value": 0}}}}], "games": null}, {"id": 93154408, "state": 3, "round": 1, "fullRoundText": "Winners Round 1", "completedAt": 1756340951, "winnerId": 21092292, "slots": [{"id": "93154408-0", "entrant": {"id": 21089778, "name": "Oni_Shogi", "participants": [{"id": 19399229, "gamerTag": "Oni_Shogi", "prefix": "", "user": {"location": {"city": "Atlanta", "state": "GA", "country": "United States"}}, "player": {"id": 1400524, "gamerTag": "Oni_Shogi", "prefix": "", "user": {"location": {"city": "Atlanta", "state": "GA", "country": "United States"}}}}]}, "standing": {"placement": 2, "stats": {"score": {"value": 0}}}}, {"id": "93154408-1", "entrant": {"id": 21092292, "name": "PrimeStone", "participants": [{"id": 19401547, "gamerTag": "PrimeStone", "prefix": null, "user": {"location": {"city": "Loganville", "state": "GA", "country": "United States"}}, "player": {"id": 1130909, "gamerTag": "PrimeStone", "prefix": null, "user": {"location": {"city": "Loganville", "state": "GA", "country": "United States"}}}}]}, "standing": {"placement": 1, "stats": {"score": {"value": 2}}}}], "games": null}, {"id": 93154409, "state": 3, "round": 1, "fullRoundText": "Winners Round 1", "completedAt": 1756340712, "winnerId": 21091742, "slots": [{"id": "93154409-0", "entrant": {"id": 21091742, "name": "BOLT | KhalRhaego", "participants": [{"id": 19401056, "gamerTag": "KhalRhaego", "prefix": "BOLT", "user": {"location": {"city": "Jonesboro", "state": "GA", "country": "United States"}}, "player": {"id": 4076327, "gamerTag": "KhalRhaego", "prefix": "BOLT", "user": {"location": {"city": "Jonesboro", "state": "GA", "country": "United States"}}}}]}, "standing": {"placement": 1, "stats": {"score": {"value": 2}}}}, {"id": "93154409-1", "entrant": {"id": 21094831, "name": "Bornsage", "participants": [{"id": 19403858, "gamerTag": "Bornsage", "prefix": null, "user": {"location": {"city": "Smyrna", "state": "GA", "country": "United States"}}, "player": {"id": 4681079, "gamerTag": "Bornsage", "prefix": null, "user": {"location": {"city": "Smyrna", "state": "GA", "country": "United States"}}}}]}, "standing": {"placement": 2, "stats": {"score": {"value": 0}}}}], "games": null}, {"id": 93154410, "state": 3, "round": 1, "fullRoundText": "Winners Round 1", "completedAt": 1756341074, "winnerId": 21094610, "slots": [{"id": "93154410-0", "entrant": {"id": 21094245, "name": "Owen Dos | BlackHeart", "participants": [{"id": 19403335, "gamerTag": "BlackHeart", "prefix": "Owen Dos", "user": {"location": {"city": "Buford", "state": "GA", "country": "United States"}}, "player": {"id": 2228433, "gamerTag": "BlackHeart", "prefix": "Owen Dos", "user": {"location": {"city": "Buford", "state": "GA", "country": "United States"}}}}]}, "standing": {"placement": 2, "stats": {"score": {"value": 1}}}}, {"id": "93154410-1", "entrant": {"id": 21094610, "name": "Cloud9Savage", "participants": [{"id": 19403679, "gamerTag": "Cloud9Savage", "prefix": null, "user": {"location": {"city": "McDonough", "state": "GA", "country": "United States"}}, "player": {"id": 4395697, "gamerTag": "Cloud9Savage", "prefix": null, "user": {"location": {"city": "McDonough", "state": "GA", "country": "United States"}}}}]}, "standing": {"placement": 1, "stats": {"score": {"value": 2}}}}], "games": null}, {"id": 93154412, "state": 3, "round": 1, "fullRoundText": "Winners Round 1", "completedAt": 1756340847, "winnerId": 21089715, "slots": [{"id": "93154412-0", "entrant": {"id": 21093216, "name": "Momokins", "participants": [{"id": 19402404, "gamerTag": "Momokins", "prefix": "", "user": {"location": {"city": "Atlanta", "state": "GA", "country": "United States"}}, "player": {"id": 612216, "gamerTag": "Momokins", "prefix": "", "user": {"location": {"city": "Atlanta", "state": "GA", "country": "United States"}}}}]}, "standing": {"placement": 2, "stats": {"score": {"value": 0}}}}, {"id": "93154412-1", "entrant": {"id": 21089715, "name": "MeanestPeen", "participants": [{"id": 19399173, "gamerTag": "MeanestPeen", "prefix": null, "user": {"location": {"city": null, "state": null, "country": null}}, "player": {"id": 2478267, "gamerTag": "MeanestPeen", "prefix": null, "user": {"location": {"city": null, "state": null, "country": null}}}}]}, "standing": {"placement": 1, "stats": {"score": {"value": 2}}}}], "games": null}, {"id": 93154413, "state": 3, "round": 1, "fullRoundText": "Winners Round 1", "completedAt": 1756340925, "winnerId": 21089852, "slots": [{"id": "93154413-0", "entrant": {"id": 21089852, "name": "StrataJay", "participants": [{"id": 19399299, "gamerTag": "StrataJay", "prefix": "", "user": {"location": {"city": "Grayson", "state": "GA", "country": "United States"}}, "player": {"id": 1112189, "gamerTag": "StrataJay", "prefix": "", "user": {"location": {"city": "Grayson", "state": "GA", "country": "United States"}}}}]}, "standing": {"placement": 1, "stats": {"score": {"value": 2}}}}, {"id": "93154413-1", "entrant": {"id": 21094886, "name": "CPU", "participants": [{"id": 19403903, "gamerTag": "CPU", "prefix": "", "user": null, "player": {"id": 4943891, "gamerTag": "CPU", "prefix": "", "user": null}}]}, "standing": {"placement": 2, "stats": {"score": {"value": 0}}}}], "games": null}, {"id": 93154414, "state": 3, "round": 1, "fullRoundText": "Winners Round 1", "completedAt": 1756340789, "winnerId": 21049969, "slots": [{"id": "93154414-0", "entrant": {"id": 21049969, "name": "Bronzjo", "participants": [{"id": 19363380, "gamerTag": "Bronzjo", "prefix": null, "user": {"location": {"city": "Lula", "state": "GA", "country": "United States"}}, "player": {"id": 4622459, "gamerTag": "Bronzjo", "prefix": null, "user": {"location": {"city": "Lula", "state": "GA", "country": "United States"}}}}]}, "standing": {"placement": 1, "stats": {"score": {"value": 2}}}}, {"id": "93154414-1", "entrant": {"id": 21094206, "name": "KingDeeDeeD", "participants": [{"id": 19403299, "gamerTag": "KingDeeDeeD", "prefix": "", "user": {"location": {"city": null, "state": null, "country": "United States"}}, "player": {"id": 4943818, "gamerTag": "KingDeeDeeD", "prefix": "", "user": {"location": {"city": null, "state": null, "country": "United States"}}}}]}, "standing": {"placement": 2, "stats": {"score": {"value": 0}}}}], "games": null}]}}}