{"event": {"sets": {"pageInfo": {"totalPages": 3, "total": 42}, "nodes": [{"id": 91754074, "state": 3, "round": -6, "fullRoundText": "Losers Round 3", "completedAt": 1753319078, "winnerId": 20778107, "slots": [{"id": "91754074-0", "entrant": {"id": 20774125, "name": "4o4 | KhalRhaego", "participants": [{"id": 19118443, "gamerTag": "KhalRhaego", "prefix": "4o4", "user": {"location": {"city": "Jonesboro", "state": "GA", "country": "United States"}}, "player": {"id": 4076327, "gamerTag": "KhalRhaego", "prefix": "BOLT", "user": {"location": {"city": "Jonesboro", "state": "GA", "country": "United States"}}}}]}, "standing": {"placement": 2, "stats": {"score": {"value": 0}}}}, {"id": "91754074-1", "entrant": {"id": 20778107, "name": "TS | Static", "participants": [{"id": 19122218, "gamerTag": "Static", "prefix": "TS", "user": {"location": {"city": null, "state": null, "country": "United States"}}, "player": {"id": 298731, "gamerTag": "Static", "prefix": "TS", "user": {"location": {"city": null, "state": null, "country": "United States"}}}}]}, "standing": {"placement": 1, "stats": {"score": {"value": 2}}}}], "games": null}, {"id": 91754075, "state": 3, "round": -6, "fullRoundText": "Losers Round 3", "completedAt": 1753319305, "winnerId": 20781352, "slots": [{"id": "91754075-0", "entrant": {"id": 20781708, "name": "Momokins", "participants": [{"id": 19125757, "gamerTag": "Momokins", "prefix": "", "user": {"location": {"city": "Atlanta", "state": "GA", "country": "United States"}}, "player": {"id": 612216, "gamerTag": "Momokins", "prefix": "", "user": {"location": {"city": "Atlanta", "state": "GA", "country": "United States"}}}}]}, "standing": {"placement": 2, "stats": {"score": {"value": 0}}}}, {"id": "91754075-1", "entrant": {"id": 20781352, "name": "Iso.Dgaf", "participants": [{"id": 19125417, "gamerTag": "Iso.Dgaf", "prefix": null, "user": {"location": {"city": "Acworth", "state": "GA", "country": "United States"}}, "player": {"id": 4285541, "gamerTag": "Iso.Dgaf", "prefix": null, "user": {"location": {"city": "Acworth", "state": "GA", "country": "United States"}}}}]}, "standing": {"placement": 1, "stats": {"score": {"value": 2}}}}], "games": null}, {"id": 91754076, "state": 3, "round": -6, "fullRoundText": "Losers Round 3", "completedAt": 1753319681, "winnerId": 20780877, "slots": [{"id": "91754076-0", "entrant": {"id": 20780877, "name": "Rel", "participants": [{"id": 19124836, "gamerTag": "Rel", "prefix": "", "user": {"location": {"city": "Atlanta", "state": null, "country": "United States"}}, "player": {"id": 2774889, "gamerTag": "Rel", "prefix": "", "user": {"location": {"city": "Atlanta", "state": null, "country": "United States"}}}}]}, "standing": {"placement": 1, "stats": {"score": {"value": 2}}}}, {"id": "91754076-1", "entrant": {"id": 20781426, "name": "REHOO", "participants": [{"id": 19125486, "gamerTag": "REHOO", "prefix": null, "user": {"location": {"city": "jonesboro", "state": "GA", "country": "United States"}}, "player": {"id": 427983, "gamerTag": "REHOO", "prefix": null, "user": {"location": {"city": "jonesboro", "state": "GA", "country": "United States"}}}}]}, "standing": {"placement": 2, "stats": {"score": {"value": 1}}}}], "games": null}, {"id": 91754069, "state": 3, "round": -5, "fullRoundText": "Losers Round 2", "completedAt": 1753318453, "winnerId": 20779100, "slots": [{"id": "91754069-0", "entrant": {"id": 20779100, "name": "Equivox", "participants": [{"id": 19123146, "gamerTag": "Equivox", "prefix": null, "user": {"location": {"city": "Atlanta", "state": "GA", "country": "United States"}}, "player": {"id": 2011920, "gamerTag": "Equivox", "prefix": null, "user": {"location": {"city": "Atlanta", "state": "GA", "country": "United States"}}}}]}, "standing": {"placement": 1, "stats": {"score": {"value": 2}}}}, {"id": "91754069-1", "entrant": {"id": 20780192, "name": "Jet Midder", "participants": [{"id": 19124188, "gamerTag": "Jet Midder", "prefix": null, "user": {"location": {"city": null, "state": null, "country": null}}, "player": {"id": 2363656, "gamerTag": "Jet Dayo", "prefix": null, "user": {"location": {"city": null, "state": null, "country": null}}}}]}, "standing": {"placement": 2, "stats": {"score": {"value": 0}}}}], "games": null}, {"id": 91754070, "state": 3, "round": -5, "fullRoundText": "Losers Round 2", "completedAt": 1753318613, "winnerId": 20778107, "slots": [{"id": "91754070-0", "entrant": {"id": 20780261, "name": "Armanisaint", "participants": [{"id": 19124255, "gamerTag": "Armanisaint", "prefix": null, "user": {"location": {"city": "Roswell", "state": "GA", "country": "United States"}}, "player": {"id": 3943806, "gamerTag": "Armanisaint", "prefix": null, "user": {"location": {"city": "Roswell", "state": "GA", "country": "United States"}}}}]}, "standing": {"placement": 2, "stats": {"score": {"value": 1}}}}, {"id": "91754070-1", "entrant": {"id": 20778107, "name": "TS | Static", "participants": [{"id": 19122218, "gamerTag": "Static", "prefix": "TS", "user": {"location": {"city": null, "state": null, "country": "United States"}}, "player": {"id": 298731, "gamerTag": "Static", "prefix": "TS", "user": {"location": {"city": null, "state": null, "country": "United States"}}}}]}, "standing": {"placement": 1, "stats": {"score": {"value": 2}}}}], "games": null}, {"id": 91754071, "state": 3, "round": -5, "fullRoundText": "Losers Round 2", "completedAt": 1753318815, "winnerId": 20781352, "slots": [{"id": "91754071-0", "entrant": {"id": 20781352, "name": "Iso.Dgaf", "participants": [{"id": 19125417, "gamerTag": "Iso.Dgaf", "prefix": null, "user": {"location": {"city": "Acworth", "state": "GA", "country": "United States"}}, "player": {"id": 4285541, "gamerTag": "Iso.Dgaf", "prefix": null, "user": {"location": {"city": "Acworth", "state": "GA", "country": "United States"}}}}]}, "standing": {"placement": 1, "stats": {"score": {"value": 2}}}}, {"id": "91754071-1", "entrant": {"id": 20780291, "name": "Myk_JUMP", "participants": [{"id": 19124288, "gamerTag": "Myk_JUMP", "prefix": "", "user": {"location": {"city": "Atlanta", "state": "GA", "country": "United States"}}, "player": {"id": 469002, "gamerTag": "Myk_JUMP", "prefix": "", "user": {"location": {"city": "Atlanta", "state": "GA", "country": "United States"}}}}]}, "standing": {"placement": 2, "stats": {"score": {"value": 1}}}}], "games": null}, {"id": 91754072, "state": 3, "round": -5, "fullRoundText": "Losers Round 2", "completedAt": 1753318588, "winnerId": 20781426, "slots": [{"id": "91754072-0", "entrant": {"id": 20781426, "name": "REHOO", "participants": [{"id": 19125486, "gamerTag": "REHOO", "prefix": null, "user": {"location": {"city": "jonesboro", "state": "GA", "country": "United States"}}, "player": {"id": 427983, "gamerTag": "REHOO", "prefix": null, "user": {"location": {"city": "jonesboro", "state": "GA", "country": "United States"}}}}]}, "standing": {"placement": 1, "stats": {"score": {"value": 2}}}}, {"id": "91754072-1", "entrant": {"id": 20777948, "name": "REMY", "participants": [{"id": 19122064, "gamerTag": "REMY", "prefix": null, "user": {"location": {"city": "Mableton", "state": "GA", "country": "United States"}}, "player": {"id": 4887443, "gamerTag": "REMY", "prefix": null, "user": {"location": {"city": "Mableton", "state": "GA", "country": "United States"}}}}]}, "standing": {"placement": 2, "stats": {"score": {"value": 0}}}}], "games": null}, {"id": 91754004, "state": 3, "round": 2, "fullRoundText": "Winners Round 2", "completedAt": 1753317292, "winnerId": 20781425, "slots": [{"id": "91754004-0", "entrant": {"id": 20781425, "name": "Ghost | NOMAR", "participants": [{"id": 19125485, "gamerTag": "NOMAR", "prefix": "Ghost", "user": {"location": {"city": "Jonesboro", "state": "GA", "country": "United States"}}, "player": {"id": 427989, "gamerTag": "NOMAR", "prefix": "Ghost", "user": {"location": {"city": "Jonesboro", "state": "GA", "country": "United States"}}}}]}, "standing": {"placement": 1, "stats": {"score": {"value": 2}}}}, {"id": "91754004-1", "entrant": {"id": 20778350, "name": "Greed", "participants": [{"id": 19122448, "gamerTag": "Greed", "prefix": "", "user": {"location": {"city": "Atlanta", "state": "GA", "country": "United States"}}, "player": {"id": 907329, "gamerTag": "Greed", "prefix": "", "user": {"location": {"city": "Atlanta", "state": "GA", "country": "United States"}}}}]}, "standing": {"placement": 2, "stats": {"score": {"value": 0}}}}], "games": null}, {"id": 91754005, "state": 3, "round": 2, "fullRoundText": "Winners Round 2", "completedAt": 1753317751, "winnerId": 20774125, "slots": [{"id": "91754005-0", "entrant": {"id": 20774125, "name": "4o4 | KhalRhaego", "participants": [{"id": 19118443, "gamerTag": "KhalRhaego", "prefix": "4o4", "user": {"location": {"city": "Jonesboro", "state": "GA", "country": "United States"}}, "player": {"id": 4076327, "gamerTag": "KhalRhaego", "prefix": "BOLT", "user": {"location": {"city": "Jonesboro", "state": "GA", "country": "United States"}}}}]}, "standing": {"placement": 1, "stats": {"score": {"value": 2}}}}, {"id": "91754005-1", "entrant": {"id": 20781426, "name": "REHOO", "participants": [{"id": 19125486, "gamerTag": "REHOO", "prefix": null, "user": {"location": {"city": "jonesboro", "state": "GA", "country": "United States"}}, "player": {"id": 427983, "gamerTag": "REHOO", "prefix": null, "user": {"location": {"city": "jonesboro", "state": "GA", "country": "United States"}}}}]}, "standing": {"placement": 2, "stats": {"score": {"value": 0}}}}], "games": null}, {"id": 91754006, "state": 3, "round": 2, "fullRoundText": "Winners Round 2", "completedAt": 1753318132, "winnerId": 20781783, "slots": [{"id": "91754006-0", "entrant": {"id": 20781783, "name": "duetosideeffects", "participants": [{"id": 19125824, "gamerTag": "duetosideeffects", "prefix": "", "user": {"location": {"city": "Atlanta", "state": "GA", "country": "United States"}}, "player": {"id": 924041, "gamerTag": "duetosideeffects", "prefix": "", "user": {"location": {"city": "Atlanta", "state": "GA", "country": "United States"}}}}]}, "standing": {"placement": 1, "stats": {"score": {"value": 2}}}}, {"id": "91754006-1", "entrant": {"id": 20780291, "name": "Myk_JUMP", "participants": [{"id": 19124288, "gamerTag": "Myk_JUMP", "prefix": "", "user": {"location": {"city": "Atlanta", "state": "GA", "country": "United States"}}, "player": {"id": 469002, "gamerTag": "Myk_JUMP", "prefix": "", "user": {"location": {"city": "Atlanta", "state": "GA", "country": "United States"}}}}]}, "standing": {"placement": 2, "stats": {"score": {"value": 1}}}}], "games": null}, {"id": 91754007, "state": 3, "round": 2, "fullRoundText": "Winners Round 2", "completedAt": 1753317454, "winnerId": 20779801, "slots": [{"id": "91754007-0", "entrant": {"id": 20781352, "name": "Iso.Dgaf", "participants": [{"id": 19125417, "gamerTag": "Iso.Dgaf", "prefix": null, "user": {"location": {"city": "Acworth", "state": "GA", "country": "United States"}}, "player": {"id": 4285541, "gamerTag": "Iso.Dgaf", "prefix": null, "user": {"location": {"city": "Acworth", "state": "GA", "country": "United States"}}}}]}, "standing": {"placement": 2, "stats": {"score": {"value": 1}}}}, {"id": "91754007-1", "entrant": {"id": 20779801, "name": "Eternia Corp. | HBKdoza", "participants": [{"id": 19123800, "gamerTag": "HBKdoza", "prefix": "Eternia Corp.", "user": {"location": {"city": "Decatur", "state": "GA", "country": "United States"}}, "player": {"id": 3426567, "gamerTag": "HBKdoza", "prefix": "Eternia Corp.", "user": {"location": {"city": "Decatur", "state": "GA", "country": "United States"}}}}]}, "standing": {"placement": 1, "stats": {"score": {"value": 2}}}}], "games": null}, {"id": 91754008, "state": 3, "round": 2, "fullRoundText": "Winners Round 2", "completedAt": 1753317314, "winnerId": 20780929, "slots": [{"id": "91754008-0", "entrant": {"id": 20780929, "name": "Pokchop", "participants": [{"id": 19124886, "gamerTag": "Pokchop", "prefix": "", "user": {"location": {"city": "Atlanta", "state": "GA", "country": "United States"}}, "player": {"id": 150402, "gamerTag": "Pokchop", "prefix": "", "user": {"location": {"city": "Atlanta", "state": "GA", "country": "United States"}}}}]}, "standing": {"placement": 1, "stats": {"score": {"value": 2}}}}, {"id": "91754008-1", "entrant": {"id": 20778107, "name": "TS | Static", "participants": [{"id": 19122218, "gamerTag": "Static", "prefix": "TS", "user": {"location": {"city": null, "state": null, "country": "United States"}}, "player": {"id": 298731, "gamerTag": "Static", "prefix": "TS", "user": {"location": {"city": null, "state": null, "country": "United States"}}}}]}, "standing": {"placement": 2, "stats": {"score": {"value": 0}}}}], "games": null}, {"id": 91754009, "state": 3, "round": 2, "fullRoundText": "Winners Round 2", "completedAt": 1753316700, "winnerId": 20780877, "slots": [{"id": "91754009-0", "entrant": {"id": 20780877, "name": "Rel", "participants": [{"id": 19124836, "gamerTag": "Rel", "prefix": "", "user": {"location": {"city": "Atlanta", "state": null, "country": "United States"}}, "player": {"id": 2774889, "gamerTag": "Rel", "prefix": "", "user": {"location": {"city": "Atlanta", "state": null, "country": "United States"}}}}]}, "standing": {"placement": 1, "stats": {"score": {"value": 2}}}}, {"id": "91754009-1", "entrant": {"id": 20780261, "name": "Armanisaint", "participants": [{"id": 19124255, "gamerTag": "Armanisaint", "prefix": null, "user": {"location": {"city": "Roswell", "state": "GA", "country": "United States"}}, "player": {"id": 3943806, "gamerTag": "Armanisaint", "prefix": null, "user": {"location": {"city": "Roswell", "state": "GA", "country": "United States"}}}}]}, "standing": {"placement": 2, "stats": {"score": {"value": 0}}}}], "games": null}, {"id": 91754010, "state": 3, "round": 2, "fullRoundText": "Winners Round 2", "completedAt": 1753317758, "winnerId": 20780219, "slots": [{"id": "91754010-0", "entrant": {"id": 20780219, "name": "JJBREEZE", "participants": [{"id": 19124215, "gamerTag": "JJBREEZE", "prefix": "", "user": {"location": {"city": "Atlanta", "state": "GA", "country": "United States"}}, "player": {"id": 688460, "gamerTag": "JJBREEZE", "prefix": "", "user": {"location": {"city": "Atlanta", "state": "GA", "country": "United States"}}}}]}, "standing": {"placement": 1, "stats": {"score": {"value": 2}}}}, {"id": "91754010-1", "entrant": {"id": 20780192, "name": "Jet Midder", "participants": [{"id": 19124188, "gamerTag": "Jet Midder", "prefix": null, "user": {"location": {"city": null, "state": null, "country": null}}, "player": {"id": 2363656, "gamerTag": "Jet Dayo", "prefix": null, "user": {"location": {"city": null, "state": null, "country": null}}}}]}, "standing": {"placement": 2, "stats": {"score": {"value": 0}}}}], "games": null}, {"id": 91754011, "state": 3, "round": 2, "fullRoundText": "Winners Round 2", "completedAt": 1753317635, "winnerId": 20781708, "slots": [{"id": "91754011-0", "entrant": {"id": 20767881, "name": "StrataJay", "participants": [{"id": 19113106, "gamerTag": "StrataJay", "prefix": "", "user": {"location": {"city": "Grayson", "state": "GA", "country": "United States"}}, "player": {"id": 1112189, "gamerTag": "StrataJay", "prefix": "", "user": {"location": {"city": "Grayson", "state": "GA", "country": "United States"}}}}]}, "standing": {"placement": 2, "stats": {"score": {"value": -1}}}}, {"id": "91754011-1", "entrant": {"id": 20781708, "name": "Momokins", "participants": [{"id": 19125757, "gamerTag": "Momokins", "prefix": "", "user": {"location": {"city": "Atlanta", "state": "GA", "country": "United States"}}, "player": {"id": 612216, "gamerTag": "Momokins", "prefix": "", "user": {"location": {"city": "Atlanta", "state": "GA", "country": "United States"}}}}]}, "standing": {"placement": 1, "stats": {"score": {"value": null}}}}], "games": null}]}}}