{"event": {"sets": {"pageInfo": {"totalPages": 5, "total": 62}, "nodes": [{"id": 91652191, "state": 3, "round": -6, "fullRoundText": "Losers Round 4", "completedAt": 1753045006, "winnerId": 20745121, "slots": [{"id": "91652191-0", "entrant": {"id": 20745121, "name": "Karan", "participants": [{"id": 19090863, "gamerTag": "Karan", "prefix": "", "user": {"location": {"city": "Atlanta", "state": "GA", "country": "United States"}}, "player": {"id": 35472, "gamerTag": "Karan", "prefix": "", "user": {"location": {"city": "Atlanta", "state": "GA", "country": "United States"}}}}]}, "standing": {"placement": 1, "stats": {"score": {"value": 3}}}}, {"id": "91652191-1", "entrant": {"id": 20716016, "name": "Alia", "participants": [{"id": 19065768, "gamerTag": "Alia", "prefix": "", "user": {"location": {"city": "Columbia", "state": "SC", "country": "United States"}}, "player": {"id": 3619482, "gamerTag": "Alia", "prefix": "", "user": {"location": {"city": "Columbia", "state": "SC", "country": "United States"}}}}]}, "standing": {"placement": 2, "stats": {"score": {"value": 2}}}}], "games": null}, {"id": 91652192, "state": 3, "round": -6, "fullRoundText": "Losers Round 4", "completedAt": 1753045679, "winnerId": 20571101, "slots": [{"id": "91652192-0", "entrant": {"id": 20571101, "name": "Emilia | Nera", "participants": [{"id": 18939968, "gamerTag": "Nera", "prefix": "Emilia", "user": {"location": {"city": "Greenville", "state": "SC", "country": "United States"}}, "player": {"id": 1660449, "gamerTag": "Nera", "prefix": "Emilia", "user": {"location": {"city": "Greenville", "state": "SC", "country": "United States"}}}}]}, "standing": {"placement": 1, "stats": {"score": {"value": 3}}}}, {"id": "91652192-1", "entrant": {"id": 20571149, "name": "GCB | fries", "participants": [{"id": 18940005, "gamerTag": "fries", "prefix": "GCB", "user": {"location": {"city": "Greer", "state": "SC", "country": "United States"}}, "player": {"id": 1120136, "gamerTag": "fries", "prefix": "GCB", "user": {"location": {"city": "Greer", "state": "SC", "country": "United States"}}}}]}, "standing": {"placement": 2, "stats": {"score": {"value": 1}}}}], "games": null}, {"id": 91652193, "state": 3, "round": -6, "fullRoundText": "Losers Round 4", "completedAt": 1753045666, "winnerId": 20722643, "slots": [{"id": "91652193-0", "entrant": {"id": 20722643, "name": "Austintacious", "participants": [{"id": 19071580, "gamerTag": "Austintacious", "prefix": "", "user": {"location": {"city": "Atlanta", "state": "GA", "country": "United States"}}, "player": {"id": 14025, "gamerTag": "Austintacious", "prefix": "", "user": {"location": {"city": "Atlanta", "state": "GA", "country": "United States"}}}}]}, "standing": {"placement": 1, "stats": {"score": {"value": 3}}}}, {"id": "91652193-1", "entrant": {"id": 20571158, "name": "skyguy | Chris Danger", "participants": [{"id": 18940013, "gamerTag": "Chris Danger", "prefix": "skyguy", "user": {"location": {"city": "Atlanta", "state": "GA", "country": "United States"}}, "player": {"id": 2808268, "gamerTag": "Chris Danger", "prefix": "skyguy", "user": {"location": {"city": "Atlanta", "state": "GA", "country": "United States"}}}}]}, "standing": {"placement": 2, "stats": {"score": {"value": 1}}}}], "games": null}, {"id": 91652186, "state": 3, "round": -5, "fullRoundText": "Losers Round 3", "completedAt": 1753044862, "winnerId": 20570702, "slots": [{"id": "91652186-0", "entrant": {"id": 20573154, "name": "Ronan", "participants": [{"id": 18941627, "gamerTag": "Ronan", "prefix": "", "user": {"location": {"city": "Atlanta", "state": "GA", "country": "United States"}}, "player": {"id": 147384, "gamerTag": "Ronan", "prefix": "", "user": {"location": {"city": "Atlanta", "state": "GA", "country": "United States"}}}}]}, "standing": {"placement": 2, "stats": {"score": {"value": 2}}}}, {"id": "91652186-1", "entrant": {"id": 20570702, "name": "lioX0X0", "participants": [{"id": 18939602, "gamerTag": "lioX0X0", "prefix": "", "user": {"location": {"city": "Atlanta", "state": "GA", "country": "United States"}}, "player": {"id": 2326935, "gamerTag": "lioX0X0", "prefix": "", "user": {"location": {"city": "Atlanta", "state": "GA", "country": "United States"}}}}]}, "standing": {"placement": 1, "stats": {"score": {"value": 3}}}}], "games": null}, {"id": 91652187, "state": 3, "round": -5, "fullRoundText": "Losers Round 3", "completedAt": 1753043398, "winnerId": 20716016, "slots": [{"id": "91652187-0", "entrant": {"id": 20716016, "name": "Alia", "participants": [{"id": 19065768, "gamerTag": "Alia", "prefix": "", "user": {"location": {"city": "Columbia", "state": "SC", "country": "United States"}}, "player": {"id": 3619482, "gamerTag": "Alia", "prefix": "", "user": {"location": {"city": "Columbia", "state": "SC", "country": "United States"}}}}]}, "standing": {"placement": 1, "stats": {"score": {"value": 3}}}}, {"id": "91652187-1", "entrant": {"id": 20573849, "name": "cheeks", "participants": [{"id": 18942208, "gamerTag": "cheeks", "prefix": "", "user": {"location": {"city": "Greenville", "state": "SC", "country": "United States"}}, "player": {"id": 2168044, "gamerTag": "cheeks", "prefix": "", "user": {"location": {"city": "Greenville", "state": "SC", "country": "United States"}}}}]}, "standing": {"placement": 2, "stats": {"score": {"value": 0}}}}], "games": null}, {"id": 91652188, "state": 3, "round": -5, "fullRoundText": "Losers Round 3", "completedAt": 1753044981, "winnerId": 20571149, "slots": [{"id": "91652188-0", "entrant": {"id": 20571452, "name": "skyguy | bag", "participants": [{"id": 18940280, "gamerTag": "bag", "prefix": "skyguy", "user": {"location": {"city": "Atlanta", "state": "GA", "country": "United States"}}, "player": {"id": 271346, "gamerTag": "bag", "prefix": "skyguy", "user": {"location": {"city": "Atlanta", "state": "GA", "country": "United States"}}}}]}, "standing": {"placement": 2, "stats": {"score": {"value": 1}}}}, {"id": "91652188-1", "entrant": {"id": 20571149, "name": "GCB | fries", "participants": [{"id": 18940005, "gamerTag": "fries", "prefix": "GCB", "user": {"location": {"city": "Greer", "state": "SC", "country": "United States"}}, "player": {"id": 1120136, "gamerTag": "fries", "prefix": "GCB", "user": {"location": {"city": "Greer", "state": "SC", "country": "United States"}}}}]}, "standing": {"placement": 1, "stats": {"score": {"value": 3}}}}], "games": [{"id": 31403039, "orderNum": 1, "winnerId": 20571149, "entrant1Score": 0, "entrant2Score": 0, "stage": null, "selections": [{"id": 46228669, "selectionType": "CHARACTER", "selectionValue": 7, "entrant": {"id": 20571452}, "character": {"id": 7, "name": "Ganondorf"}}]}, {"id": 31403040, "orderNum": 2, "winnerId": 20571452, "entrant1Score": null, "entrant2Score": 0, "stage": null, "selections": [{"id": 46228670, "selectionType": "CHARACTER", "selectionValue": 7, "entrant": {"id": 20571452}, "character": {"id": 7, "name": "Ganondorf"}}]}, {"id": 31403041, "orderNum": 3, "winnerId": 20571149, "entrant1Score": 0, "entrant2Score": 0, "stage": null, "selections": [{"id": 46228671, "selectionType": "CHARACTER", "selectionValue": 7, "entrant": {"id": 20571452}, "character": {"id": 7, "name": "Ganondorf"}}]}, {"id": 31403042, "orderNum": 4, "winnerId": 20571149, "entrant1Score": 0, "entrant2Score": 0, "stage": null, "selections": [{"id": 46228672, "selectionType": "CHARACTER", "selectionValue": 7, "entrant": {"id": 20571452}, "character": {"id": 7, "name": "Ganondorf"}}]}]}, {"id": 91652189, "state": 3, "round": -5, "fullRoundText": "Losers Round 3", "completedAt": 1753043644, "winnerId": 20571158, "slots": [{"id": "91652189-0", "entrant": {"id": 20571158, "name": "skyguy | Chris Danger", "participants": [{"id": 18940013, "gamerTag": "Chris Danger", "prefix": "skyguy", "user": {"location": {"city": "Atlanta", "state": "GA", "country": "United States"}}, "player": {"id": 2808268, "gamerTag": "Chris Danger", "prefix": "skyguy", "user": {"location": {"city": "Atlanta", "state": "GA", "country": "United States"}}}}]}, "standing": {"placement": 1, "stats": {"score": {"value": 3}}}}, {"id": "91652189-1", "entrant": {"id": 20636486, "name": "tomguy", "participants": [{"id": 18996782, "gamerTag": "tomguy", "prefix": "", "user": {"location": {"city": "Atlanta", "state": "GA", "country": "United States"}}, "player": {"id": 147458, "gamerTag": "tomguy", "prefix": "", "user": {"location": {"city": "Atlanta", "state": "GA", "country": "United States"}}}}]}, "standing": {"placement": 2, "stats": {"score": {"value": 0}}}}], "games": null}, {"id": 91652121, "state": 3, "round": 2, "fullRoundText": "Winners Round 2", "completedAt": 1753040158, "winnerId": 20583356, "slots": [{"id": "91652121-0", "entrant": {"id": 20583356, "name": "Colbol", "participants": [{"id": 18950278, "gamerTag": "Colbol", "prefix": "", "user": {"location": {"city": "Tucker", "state": "GA", "country": "United States"}}, "player": {"id": 1009, "gamerTag": "Colbol", "prefix": "", "user": {"location": {"city": "Tucker", "state": "GA", "country": "United States"}}}}]}, "standing": {"placement": 1, "stats": {"score": {"value": 3}}}}, {"id": "91652121-1", "entrant": {"id": 20636486, "name": "tomguy", "participants": [{"id": 18996782, "gamerTag": "tomguy", "prefix": "", "user": {"location": {"city": "Atlanta", "state": "GA", "country": "United States"}}, "player": {"id": 147458, "gamerTag": "tomguy", "prefix": "", "user": {"location": {"city": "Atlanta", "state": "GA", "country": "United States"}}}}]}, "standing": {"placement": 2, "stats": {"score": {"value": 0}}}}], "games": null}, {"id": 91652122, "state": 3, "round": 2, "fullRoundText": "Winners Round 2", "completedAt": 1753042153, "winnerId": 20745121, "slots": [{"id": "91652122-0", "entrant": {"id": 20571158, "name": "skyguy | Chris Danger", "participants": [{"id": 18940013, "gamerTag": "Chris Danger", "prefix": "skyguy", "user": {"location": {"city": "Atlanta", "state": "GA", "country": "United States"}}, "player": {"id": 2808268, "gamerTag": "Chris Danger", "prefix": "skyguy", "user": {"location": {"city": "Atlanta", "state": "GA", "country": "United States"}}}}]}, "standing": {"placement": 2, "stats": {"score": {"value": 2}}}}, {"id": "91652122-1", "entrant": {"id": 20745121, "name": "Karan", "participants": [{"id": 19090863, "gamerTag": "Karan", "prefix": "", "user": {"location": {"city": "Atlanta", "state": "GA", "country": "United States"}}, "player": {"id": 35472, "gamerTag": "Karan", "prefix": "", "user": {"location": {"city": "Atlanta", "state": "GA", "country": "United States"}}}}]}, "standing": {"placement": 1, "stats": {"score": {"value": 3}}}}], "games": null}, {"id": 91652123, "state": 3, "round": 2, "fullRoundText": "Winners Round 2", "completedAt": 1753041811, "winnerId": 20570674, "slots": [{"id": "91652123-0", "entrant": {"id": 20570674, "name": "natebug01", "participants": [{"id": 18939578, "gamerTag": "natebug01", "prefix": null, "user": {"location": {"city": "atl", "state": "GA", "country": "United States"}}, "player": {"id": 69973, "gamerTag": "natebug01", "prefix": null, "user": {"location": {"city": "atl", "state": "GA", "country": "United States"}}}}]}, "standing": {"placement": 1, "stats": {"score": {"value": 3}}}}, {"id": "91652123-1", "entrant": {"id": 20571149, "name": "GCB | fries", "participants": [{"id": 18940005, "gamerTag": "fries", "prefix": "GCB", "user": {"location": {"city": "Greer", "state": "SC", "country": "United States"}}, "player": {"id": 1120136, "gamerTag": "fries", "prefix": "GCB", "user": {"location": {"city": "Greer", "state": "SC", "country": "United States"}}}}]}, "standing": {"placement": 2, "stats": {"score": {"value": 0}}}}], "games": null}, {"id": 91652124, "state": 3, "round": 2, "fullRoundText": "Winners Round 2", "completedAt": 1753042365, "winnerId": 20570679, "slots": [{"id": "91652124-0", "entrant": {"id": 20571452, "name": "skyguy | bag", "participants": [{"id": 18940280, "gamerTag": "bag", "prefix": "skyguy", "user": {"location": {"city": "Atlanta", "state": "GA", "country": "United States"}}, "player": {"id": 271346, "gamerTag": "bag", "prefix": "skyguy", "user": {"location": {"city": "Atlanta", "state": "GA", "country": "United States"}}}}]}, "standing": {"placement": 2, "stats": {"score": {"value": 2}}}}, {"id": "91652124-1", "entrant": {"id": 20570679, "name": "Erran", "participants": [{"id": 18939583, "gamerTag": "Erran", "prefix": "", "user": {"location": {"city": "Atlanta", "state": "GA", "country": "United States"}}, "player": {"id": 36706, "gamerTag": "Erran", "prefix": "", "user": {"location": {"city": "Atlanta", "state": "GA", "country": "United States"}}}}]}, "standing": {"placement": 1, "stats": {"score": {"value": 3}}}}], "games": [{"id": 31402087, "orderNum": 1, "winnerId": 20571452, "entrant1Score": 0, "entrant2Score": 0, "stage": null, "selections": [{"id": 46227132, "selectionType": "CHARACTER", "selectionValue": 6, "entrant": {"id": 20570679}, "character": {"id": 6, "name": "Fox"}}, {"id": 46227133, "selectionType": "CHARACTER", "selectionValue": 7, "entrant": {"id": 20571452}, "character": {"id": 7, "name": "Ganondorf"}}]}, {"id": 31402088, "orderNum": 2, "winnerId": 20571452, "entrant1Score": null, "entrant2Score": 0, "stage": null, "selections": [{"id": 46227134, "selectionType": "CHARACTER", "selectionValue": 6, "entrant": {"id": 20570679}, "character": {"id": 6, "name": "Fox"}}, {"id": 46227135, "selectionType": "CHARACTER", "selectionValue": 7, "entrant": {"id": 20571452}, "character": {"id": 7, "name": "Ganondorf"}}]}, {"id": 31402089, "orderNum": 3, "winnerId": 20570679, "entrant1Score": 0, "entrant2Score": null, "stage": null, "selections": [{"id": 46227136, "selectionType": "CHARACTER", "selectionValue": 6, "entrant": {"id": 20570679}, "character": {"id": 6, "name": "Fox"}}, {"id": 46227137, "selectionType": "CHARACTER", "selectionValue": 7, "entrant": {"id": 20571452}, "character": {"id": 7, "name": "Ganondorf"}}]}, {"id": 31402090, "orderNum": 4, "winnerId": 20570679, "entrant1Score": 0, "entrant2Score": 0, "stage": null, "selections": [{"id": 46227138, "selectionType": "CHARACTER", "selectionValue": 6, "entrant": {"id": 20570679}, "character": {"id": 6, "name": "Fox"}}, {"id": 46227139, "selectionType": "CHARACTER", "selectionValue": 7, "entrant": {"id": 20571452}, "character": {"id": 7, "name": "Ganondorf"}}]}, {"id": 31402091, "orderNum": 5, "winnerId": 20570679, "entrant1Score": 0, "entrant2Score": null, "stage": null, "selections": [{"id": 46227140, "selectionType": "CHARACTER", "selectionValue": 6, "entrant": {"id": 20570679}, "character": {"id": 6, "name": "Fox"}}, {"id": 46227141, "selectionType": "CHARACTER", "selectionValue": 7, "entrant": {"id": 20571452}, "character": {"id": 7, "name": "Ganondorf"}}]}]}, {"id": 91652125, "state": 3, "round": 2, "fullRoundText": "Winners Round 2", "completedAt": 1753041126, "winnerId": 20573679, "slots": [{"id": "91652125-0", "entrant": {"id": 20573679, "name": "vivesthesia", "participants": [{"id": 18942059, "gamerTag": "vivesthesia", "prefix": null, "user": {"location": {"city": "Atlanta", "state": "GA", "country": "United States"}}, "player": {"id": 4395171, "gamerTag": "vivesthesia", "prefix": null, "user": {"location": {"city": "Atlanta", "state": "GA", "country": "United States"}}}}]}, "standing": {"placement": 1, "stats": {"score": {"value": 3}}}}, {"id": "91652125-1", "entrant": {"id": 20573849, "name": "cheeks", "participants": [{"id": 18942208, "gamerTag": "cheeks", "prefix": "", "user": {"location": {"city": "Greenville", "state": "SC", "country": "United States"}}, "player": {"id": 2168044, "gamerTag": "cheeks", "prefix": "", "user": {"location": {"city": "Greenville", "state": "SC", "country": "United States"}}}}]}, "standing": {"placement": 2, "stats": {"score": {"value": 0}}}}], "games": null}, {"id": 91652126, "state": 3, "round": 2, "fullRoundText": "Winners Round 2", "completedAt": 1753041082, "winnerId": 20722643, "slots": [{"id": "91652126-0", "entrant": {"id": 20722643, "name": "Austintacious", "participants": [{"id": 19071580, "gamerTag": "Austintacious", "prefix": "", "user": {"location": {"city": "Atlanta", "state": "GA", "country": "United States"}}, "player": {"id": 14025, "gamerTag": "Austintacious", "prefix": "", "user": {"location": {"city": "Atlanta", "state": "GA", "country": "United States"}}}}]}, "standing": {"placement": 1, "stats": {"score": {"value": 3}}}}, {"id": "91652126-1", "entrant": {"id": 20716016, "name": "Alia", "participants": [{"id": 19065768, "gamerTag": "Alia", "prefix": "", "user": {"location": {"city": "Columbia", "state": "SC", "country": "United States"}}, "player": {"id": 3619482, "gamerTag": "Alia", "prefix": "", "user": {"location": {"city": "Columbia", "state": "SC", "country": "United States"}}}}]}, "standing": {"placement": 2, "stats": {"score": {"value": 0}}}}], "games": null}, {"id": 91652127, "state": 3, "round": 2, "fullRoundText": "Winners Round 2", "completedAt": 1753042833, "winnerId": 20570953, "slots": [{"id": "91652127-0", "entrant": {"id": 20570953, "name": "audrey", "participants": [{"id": 18939831, "gamerTag": "audrey", "prefix": null, "user": {"location": {"city": "Dunwoody", "state": "GA", "country": "United States"}}, "player": {"id": 1335864, "gamerTag": "audrey", "prefix": null, "user": {"location": {"city": "Dunwoody", "state": "GA", "country": "United States"}}}}]}, "standing": {"placement": 1, "stats": {"score": {"value": 3}}}}, {"id": "91652127-1", "entrant": {"id": 20570702, "name": "lioX0X0", "participants": [{"id": 18939602, "gamerTag": "lioX0X0", "prefix": "", "user": {"location": {"city": "Atlanta", "state": "GA", "country": "United States"}}, "player": {"id": 2326935, "gamerTag": "lioX0X0", "prefix": "", "user": {"location": {"city": "Atlanta", "state": "GA", "country": "United States"}}}}]}, "standing": {"placement": 2, "stats": {"score": {"value": 0}}}}], "games": null}, {"id": 91652128, "state": 3, "round": 2, "fullRoundText": "Winners Round 2", "completedAt": 1753041872, "winnerId": 20571101, "slots": [{"id": "91652128-0", "entrant": {"id": 20571101, "name": "Emilia | Nera", "participants": [{"id": 18939968, "gamerTag": "Nera", "prefix": "Emilia", "user": {"location": {"city": "Greenville", "state": "SC", "country": "United States"}}, "player": {"id": 1660449, "gamerTag": "Nera", "prefix": "Emilia", "user": {"location": {"city": "Greenville", "state": "SC", "country": "United States"}}}}]}, "standing": {"placement": 1, "stats": {"score": {"value": 3}}}}, {"id": "91652128-1", "entrant": {"id": 20572009, "name": "69TacoTuesday69", "participants": [{"id": 18940762, "gamerTag": "69TacoTuesday69", "prefix": "", "user": {"location": {"city": "Atlanta", "state": "GA", "country": "United States"}}, "player": {"id": 158130, "gamerTag": "69TacoTuesday69", "prefix": "", "user": {"location": {"city": "Atlanta", "state": "GA", "country": "United States"}}}}]}, "standing": {"placement": 2, "stats": {"score": {"value": 1}}}}], "games": null}]}}}