{"event": {"sets": {"pageInfo": {"totalPages": 4, "total": 57}, "nodes": [{"id": 94802705, "state": 3, "round": 2, "fullRoundText": "Winners Round 2", "completedAt": 1759970295, "winnerId": 21498431, "slots": [{"id": "94802705-0", "entrant": {"id": 21498431, "name": "duetosideeffects", "participants": [{"id": 19756124, "gamerTag": "duetosideeffects", "prefix": "", "user": {"location": {"city": "Atlanta", "state": "GA", "country": "United States"}}, "player": {"id": 924041, "gamerTag": "duetosideeffects", "prefix": "", "user": {"location": {"city": "Atlanta", "state": "GA", "country": "United States"}}}}]}, "standing": {"placement": 1, "stats": {"score": {"value": 2}}}}, {"id": "94802705-1", "entrant": {"id": 21500471, "name": "C-2", "participants": [{"id": 19757983, "gamerTag": "C-2", "prefix": "", "user": {"location": {"city": "Atlanta", "state": "GA", "country": "United States"}}, "player": {"id": 1228856, "gamerTag": "C-2", "prefix": "", "user": {"location": {"city": "Atlanta", "state": "GA", "country": "United States"}}}}]}, "standing": {"placement": 2, "stats": {"score": {"value": 0}}}}], "games": null}, {"id": 94802755, "state": 3, "round": -4, "fullRoundText": "Losers Round 2", "completedAt": 1759971161, "winnerId": 21500020, "slots": [{"id": "94802755-0", "entrant": {"id": 21500471, "name": "C-2", "participants": [{"id": 19757983, "gamerTag": "C-2", "prefix": "", "user": {"location": {"city": "Atlanta", "state": "GA", "country": "United States"}}, "player": {"id": 1228856, "gamerTag": "C-2", "prefix": "", "user": {"location": {"city": "Atlanta", "state": "GA", "country": "United States"}}}}]}, "standing": {"placement": 2, "stats": {"score": {"value": 1}}}}, {"id": "94802755-1", "entrant": {"id": 21500020, "name": "TOG | HiroATL", "participants": [{"id": 19757537, "gamerTag": "HiroATL", "prefix": "TOG", "user": {"location": {"city": "Decatur", "state": "GA", "country": "United States"}}, "player": {"id": 1384726, "gamerTag": "HiroATL", "prefix": "TOG", "user": {"location": {"city": "Decatur", "state": "GA", "country": "United States"}}}}]}, "standing": {"placement": 1, "stats": {"score": {"value": 2}}}}], "games": null}, {"id": 94802756, "state": 3, "round": -4, "fullRoundText": "Losers Round 2", "completedAt": 1759971071, "winnerId": 21493580, "slots": [{"id": "94802756-0", "entrant": {"id": 21501179, "name": "REHOO", "participants": [{"id": 19758608, "gamerTag": "REHOO", "prefix": null, "user": {"location": {"city": "jonesboro", "state": "GA", "country": "United States"}}, "player": {"id": 427983, "gamerTag": "REHOO", "prefix": null, "user": {"location": {"city": "jonesboro", "state": "GA", "country": "United States"}}}}]}, "standing": {"placement": 2, "stats": {"score": {"value": 0}}}}, {"id": "94802756-1", "entrant": {"id": 21493580, "name": "Momokins", "participants": [{"id": 19751759, "gamerTag": "Momokins", "prefix": "", "user": {"location": {"city": "Atlanta", "state": "GA", "country": "United States"}}, "player": {"id": 612216, "gamerTag": "Momokins", "prefix": "", "user": {"location": {"city": "Atlanta", "state": "GA", "country": "United States"}}}}]}, "standing": {"placement": 1, "stats": {"score": {"value": 2}}}}], "games": null}, {"id": 94802757, "state": 3, "round": -4, "fullRoundText": "Losers Round 2", "completedAt": 1759972432, "winnerId": 21500206, "slots": [{"id": "94802757-0", "entrant": {"id": 21500206, "name": "Myk_JUMP", "participants": [{"id": 19757714, "gamerTag": "Myk_JUMP", "prefix": "", "user": {"location": {"city": "Atlanta", "state": "GA", "country": "United States"}}, "player": {"id": 469002, "gamerTag": "Myk_JUMP", "prefix": "", "user": {"location": {"city": "Atlanta", "state": "GA", "country": "United States"}}}}]}, "standing": {"placement": 1, "stats": {"score": {"value": 2}}}}, {"id": "94802757-1", "entrant": {"id": 21486712, "name": "BigKuma", "participants": [{"id": 19745748, "gamerTag": "BigKuma", "prefix": null, "user": {"location": {"city": "Valley", "state": "AL", "country": "United States"}}, "player": {"id": 1123516, "gamerTag": "BigKuma", "prefix": null, "user": {"location": {"city": "Valley", "state": "AL", "country": "United States"}}}}]}, "standing": {"placement": 2, "stats": {"score": {"value": 1}}}}], "games": null}, {"id": 94802758, "state": 3, "round": -4, "fullRoundText": "Losers Round 2", "completedAt": 1759971781, "winnerId": 21500894, "slots": [{"id": "94802758-0", "entrant": {"id": 21499985, "name": "HEAVANER", "participants": [{"id": 19757502, "gamerTag": "HEAVANER", "prefix": "", "user": null, "player": {"id": 4912576, "gamerTag": "HEAVANER", "prefix": "", "user": null}}]}, "standing": {"placement": 2, "stats": {"score": {"value": 1}}}}, {"id": "94802758-1", "entrant": {"id": 21500894, "name": "Jet Dayo", "participants": [{"id": 19758357, "gamerTag": "Jet Dayo", "prefix": null, "user": {"location": {"city": null, "state": null, "country": null}}, "player": {"id": 2363656, "gamerTag": "Jet Dayo", "prefix": null, "user": {"location": {"city": null, "state": null, "country": null}}}}]}, "standing": {"placement": 1, "stats": {"score": {"value": 2}}}}], "games": null}, {"id": 94802759, "state": 3, "round": -4, "fullRoundText": "Losers Round 2", "completedAt": 1759971120, "winnerId": 21499506, "slots": [{"id": "94802759-0", "entrant": {"id": 21498508, "name": "Greed", "participants": [{"id": 19756184, "gamerTag": "Greed", "prefix": "", "user": {"location": {"city": "Atlanta", "state": "GA", "country": "United States"}}, "player": {"id": 907329, "gamerTag": "Greed", "prefix": "", "user": {"location": {"city": "Atlanta", "state": "GA", "country": "United States"}}}}]}, "standing": {"placement": 2, "stats": {"score": {"value": 0}}}}, {"id": "94802759-1", "entrant": {"id": 21499506, "name": "100% | juice", "participants": [{"id": 19757078, "gamerTag": "juice", "prefix": "100%", "user": {"location": {"city": "atlanta", "state": "GA", "country": "United States"}}, "player": {"id": 146905, "gamerTag": "juice", "prefix": "100%", "user": {"location": {"city": "atlanta", "state": "GA", "country": "United States"}}}}]}, "standing": {"placement": 1, "stats": {"score": {"value": 2}}}}], "games": null}, {"id": 94802760, "state": 3, "round": -4, "fullRoundText": "Losers Round 2", "completedAt": 1759971815, "winnerId": 21500856, "slots": [{"id": "94802760-0", "entrant": {"id": 21500856, "name": "Aneubys", "participants": [{"id": 19758323, "gamerTag": "Aneubys", "prefix": "", "user": {"location": {"city": "Smyrna", "state": "GA", "country": "United States"}}, "player": {"id": 3901259, "gamerTag": "Aneubys", "prefix": "", "user": {"location": {"city": "Smyrna", "state": "GA", "country": "United States"}}}}]}, "standing": {"placement": 1, "stats": {"score": {"value": 2}}}}, {"id": "94802760-1", "entrant": {"id": 21501601, "name": "Hikensha", "participants": [{"id": 19758995, "gamerTag": "Hikensha", "prefix": "", "user": {"location": {"city": null, "state": null, "country": "United States"}}, "player": {"id": 2261057, "gamerTag": "Hikensha", "prefix": "", "user": {"location": {"city": null, "state": null, "country": "United States"}}}}]}, "standing": {"placement": 2, "stats": {"score": {"value": 0}}}}], "games": null}, {"id": 94802761, "state": 3, "round": -4, "fullRoundText": "Losers Round 2", "completedAt": 1759971459, "winnerId": 21498524, "slots": [{"id": "94802761-0", "entrant": {"id": 21498524, "name": "Iso.Dgaf", "participants": [{"id": 19756196, "gamerTag": "Iso.Dgaf", "prefix": null, "user": {"location": {"city": "Acworth", "state": "GA", "country": "United States"}}, "player": {"id": 4285541, "gamerTag": "Iso.Dgaf", "prefix": null, "user": {"location": {"city": "Acworth", "state": "GA", "country": "United States"}}}}]}, "standing": {"placement": 1, "stats": {"score": {"value": 2}}}}, {"id": "94802761-1", "entrant": {"id": 21491500, "name": "Eternia Corp. | HBKdoza", "participants": [{"id": 19750027, "gamerTag": "HBKdoza", "prefix": "Eternia Corp.", "user": {"location": {"city": "Decatur", "state": "GA", "country": "United States"}}, "player": {"id": 3426567, "gamerTag": "HBKdoza", "prefix": "Eternia Corp.", "user": {"location": {"city": "Decatur", "state": "GA", "country": "United States"}}}}]}, "standing": {"placement": 2, "stats": {"score": {"value": 0}}}}], "games": null}, {"id": 94802762, "state": 3, "round": -4, "fullRoundText": "Losers Round 2", "completedAt": 1759971429, "winnerId": 21501562, "slots": [{"id": "94802762-0", "entrant": {"id": 21501562, "name": "StrataJay", "participants": [{"id": 19758967, "gamerTag": "StrataJay", "prefix": "", "user": {"location": {"city": "Grayson", "state": "GA", "country": "United States"}}, "player": {"id": 1112189, "gamerTag": "StrataJay", "prefix": "", "user": {"location": {"city": "Grayson", "state": "GA", "country": "United States"}}}}]}, "standing": {"placement": 1, "stats": {"score": {"value": 2}}}}, {"id": "94802762-1", "entrant": {"id": 21470050, "name": "Bronzjo", "participants": [{"id": 19730855, "gamerTag": "Bronzjo", "prefix": null, "user": {"location": {"city": "Lula", "state": "GA", "country": "United States"}}, "player": {"id": 4622459, "gamerTag": "Bronzjo", "prefix": null, "user": {"location": {"city": "Lula", "state": "GA", "country": "United States"}}}}]}, "standing": {"placement": 2, "stats": {"score": {"value": 0}}}}], "games": null}, {"id": 94802748, "state": 3, "round": -3, "fullRoundText": "Losers Round 1", "completedAt": 1759970555, "winnerId": 21493580, "slots": [{"id": "94802748-0", "entrant": {"id": 21493580, "name": "Momokins", "participants": [{"id": 19751759, "gamerTag": "Momokins", "prefix": "", "user": {"location": {"city": "Atlanta", "state": "GA", "country": "United States"}}, "player": {"id": 612216, "gamerTag": "Momokins", "prefix": "", "user": {"location": {"city": "Atlanta", "state": "GA", "country": "United States"}}}}]}, "standing": {"placement": 1, "stats": {"score": {"value": 2}}}}, {"id": "94802748-1", "entrant": {"id": 21501741, "name": "PesciFights", "participants": [{"id": 19759108, "gamerTag": "PesciFights", "prefix": "", "user": {"location": {"city": "Canton", "state": "GA", "country": "United States"}}, "player": {"id": 1636821, "gamerTag": "PesciFights", "prefix": "", "user": {"location": {"city": "Canton", "state": "GA", "country": "United States"}}}}]}, "standing": {"placement": 2, "stats": {"score": {"value": 0}}}}], "games": null}, {"id": 94802749, "state": 3, "round": -3, "fullRoundText": "Losers Round 1", "completedAt": 1759970389, "winnerId": 21486712, "slots": [{"id": "94802749-0", "entrant": {"id": 21501965, "name": "YoungTaco", "participants": [{"id": 19759297, "gamerTag": "YoungTaco", "prefix": "", "user": {"location": {"city": null, "state": "GA", "country": "United States"}}, "player": {"id": 1239045, "gamerTag": "YoungTaco", "prefix": "", "user": {"location": {"city": null, "state": "GA", "country": "United States"}}}}]}, "standing": {"placement": 2, "stats": {"score": {"value": 0}}}}, {"id": "94802749-1", "entrant": {"id": 21486712, "name": "BigKuma", "participants": [{"id": 19745748, "gamerTag": "BigKuma", "prefix": null, "user": {"location": {"city": "Valley", "state": "AL", "country": "United States"}}, "player": {"id": 1123516, "gamerTag": "BigKuma", "prefix": null, "user": {"location": {"city": "Valley", "state": "AL", "country": "United States"}}}}]}, "standing": {"placement": 1, "stats": {"score": {"value": 2}}}}], "games": null}, {"id": 94802750, "state": 3, "round": -3, "fullRoundText": "Losers Round 1", "completedAt": 1759970395, "winnerId": 21500894, "slots": [{"id": "94802750-0", "entrant": {"id": 21500894, "name": "Jet Dayo", "participants": [{"id": 19758357, "gamerTag": "Jet Dayo", "prefix": null, "user": {"location": {"city": null, "state": null, "country": null}}, "player": {"id": 2363656, "gamerTag": "Jet Dayo", "prefix": null, "user": {"location": {"city": null, "state": null, "country": null}}}}]}, "standing": {"placement": 1, "stats": {"score": {"value": 2}}}}, {"id": "94802750-1", "entrant": {"id": 21500046, "name": "Fiji | 100 Latinas", "participants": [{"id": 19757562, "gamerTag": "100 Latinas", "prefix": "Fiji", "user": {"location": {"city": "Lithonia", "state": "GA", "country": "United States"}}, "player": {"id": 1890427, "gamerTag": "100 Latinas", "prefix": "Fiji", "user": {"location": {"city": "Lithonia", "state": "GA", "country": "United States"}}}}]}, "standing": {"placement": 2, "stats": {"score": {"value": 0}}}}], "games": null}, {"id": 94802752, "state": 3, "round": -3, "fullRoundText": "Losers Round 1", "completedAt": 1759970531, "winnerId": 21501601, "slots": [{"id": "94802752-0", "entrant": {"id": 21501733, "name": "Toemes", "participants": [{"id": 19759103, "gamerTag": "Toemes", "prefix": "", "user": {"location": {"city": "Marietta", "state": null, "country": "United States"}}, "player": {"id": 2421080, "gamerTag": "Toemes", "prefix": "", "user": {"location": {"city": "Marietta", "state": null, "country": "United States"}}}}]}, "standing": {"placement": 2, "stats": {"score": {"value": 0}}}}, {"id": "94802752-1", "entrant": {"id": 21501601, "name": "Hikensha", "participants": [{"id": 19758995, "gamerTag": "Hikensha", "prefix": "", "user": {"location": {"city": null, "state": null, "country": "United States"}}, "player": {"id": 2261057, "gamerTag": "Hikensha", "prefix": "", "user": {"location": {"city": null, "state": null, "country": "United States"}}}}]}, "standing": {"placement": 1, "stats": {"score": {"value": 2}}}}], "games": null}, {"id": 94802754, "state": 3, "round": -3, "fullRoundText": "Losers Round 1", "completedAt": 1759970489, "winnerId": 21470050, "slots": [{"id": "94802754-0", "entrant": {"id": 21501881, "name": "USAF | ATL | Juynni", "participants": [{"id": 19759222, "gamerTag": "Juynni", "prefix": "USAF | ATL", "user": {"location": {"city": "Atlanta", "state": "GA", "country": "United States"}}, "player": {"id": 1601885, "gamerTag": "Juynni", "prefix": "USAF | ATL", "user": {"location": {"city": "Atlanta", "state": "GA", "country": "United States"}}}}]}, "standing": {"placement": 2, "stats": {"score": {"value": 0}}}}, {"id": "94802754-1", "entrant": {"id": 21470050, "name": "Bronzjo", "participants": [{"id": 19730855, "gamerTag": "Bronzjo", "prefix": null, "user": {"location": {"city": "Lula", "state": "GA", "country": "United States"}}, "player": {"id": 4622459, "gamerTag": "Bronzjo", "prefix": null, "user": {"location": {"city": "Lula", "state": "GA", "country": "United States"}}}}]}, "standing": {"placement": 1, "stats": {"score": {"value": 2}}}}], "games": null}, {"id": 94802683, "state": 3, "round": 1, "fullRoundText": "Winners Round 1", "completedAt": 1759969883, "winnerId": 21501562, "slots": [{"id": "94802683-0", "entrant": {"id": 21501562, "name": "StrataJay", "participants": [{"id": 19758967, "gamerTag": "StrataJay", "prefix": "", "user": {"location": {"city": "Grayson", "state": "GA", "country": "United States"}}, "player": {"id": 1112189, "gamerTag": "StrataJay", "prefix": "", "user": {"location": {"city": "Grayson", "state": "GA", "country": "United States"}}}}]}, "standing": {"placement": 1, "stats": {"score": {"value": 2}}}}, {"id": "94802683-1", "entrant": {"id": 21500020, "name": "TOG | HiroATL", "participants": [{"id": 19757537, "gamerTag": "HiroATL", "prefix": "TOG", "user": {"location": {"city": "Decatur", "state": "GA", "country": "United States"}}, "player": {"id": 1384726, "gamerTag": "HiroATL", "prefix": "TOG", "user": {"location": {"city": "Decatur", "state": "GA", "country": "United States"}}}}]}, "standing": {"placement": 2, "stats": {"score": {"value": 1}}}}], "games": null}]}}}