{"event": {"sets": {"pageInfo": {"totalPages": 4, "total": 50}, "nodes": [{"id": 93125623, "state": 3, "round": 1, "fullRoundText": "Winners Round 1", "completedAt": 1756254883, "winnerId": 21083576, "slots": [{"id": "93125623-0", "entrant": {"id": 21083698, "name": "LukeWarm", "participants": [{"id": 19393908, "gamerTag": "LukeWarm", "prefix": "", "user": {"location": {"city": "Alpharetta", "state": "GA", "country": "United States"}}, "player": {"id": 1348903, "gamerTag": "LukeWarm", "prefix": "", "user": {"location": {"city": "Alpharetta", "state": "GA", "country": "United States"}}}}]}, "standing": {"placement": 2, "stats": {"score": {"value": 2}}}}, {"id": "93125623-1", "entrant": {"id": 21083576, "name": "Xangief", "participants": [{"id": 19393790, "gamerTag": "Xangief", "prefix": null, "user": {"location": {"city": "Atlanta", "state": "GA", "country": "United States"}}, "player": {"id": 135082, "gamerTag": "Xangief", "prefix": null, "user": {"location": {"city": "Atlanta", "state": "GA", "country": "United States"}}}}]}, "standing": {"placement": 1, "stats": {"score": {"value": 3}}}}], "games": null}, {"id": 93125624, "state": 3, "round": 1, "fullRoundText": "Winners Round 1", "completedAt": 1756254693, "winnerId": 21083528, "slots": [{"id": "93125624-0", "entrant": {"id": 21083528, "name": "4o4 | Yugo", "participants": [{"id": 19393743, "gamerTag": "Yugo", "prefix": "4o4", "user": {"location": {"city": "Sandy springs", "state": "GA", "country": "United States"}}, "player": {"id": 338020, "gamerTag": "Yugo", "prefix": "4o4", "user": {"location": {"city": "Sandy springs", "state": "GA", "country": "United States"}}}}]}, "standing": {"placement": 1, "stats": {"score": {"value": 3}}}}, {"id": "93125624-1", "entrant": {"id": 21083866, "name": "Barky", "participants": [{"id": 19394054, "gamerTag": "Barky", "prefix": null, "user": {"location": {"city": "Orlando", "state": "FL", "country": "United States"}}, "player": {"id": 1460695, "gamerTag": "Barky", "prefix": null, "user": {"location": {"city": "Orlando", "state": "FL", "country": "United States"}}}}]}, "standing": {"placement": 2, "stats": {"score": {"value": 0}}}}], "games": null}, {"id": 93125625, "state": 3, "round": 1, "fullRoundText": "Winners Round 1", "completedAt": 1756254399, "winnerId": 21083672, "slots": [{"id": "93125625-0", "entrant": {"id": 21083672, "name": "Archway", "participants": [{"id": 19393885, "gamerTag": "Archway", "prefix": "", "user": {"location": {"city": "Sandy Springs", "state": "GA", "country": "United States"}}, "player": {"id": 1435251, "gamerTag": "Archway", "prefix": "", "user": {"location": {"city": "Sandy Springs", "state": "GA", "country": "United States"}}}}]}, "standing": {"placement": 1, "stats": {"score": {"value": 3}}}}, {"id": "93125625-1", "entrant": {"id": 21082899, "name": "WFG | MondoLad", "participants": [{"id": 19393196, "gamerTag": "MondoLad", "prefix": "WFG", "user": {"location": {"city": "Atlanta", "state": "GA", "country": "United States"}}, "player": {"id": 180028, "gamerTag": "MondoLad", "prefix": "WFG", "user": {"location": {"city": "Atlanta", "state": "GA", "country": "United States"}}}}]}, "standing": {"placement": 2, "stats": {"score": {"value": 0}}}}], "games": null}, {"id": 93125627, "state": 3, "round": 1, "fullRoundText": "Winners Round 1", "completedAt": 1756254473, "winnerId": 21082337, "slots": [{"id": "93125627-0", "entrant": {"id": 21082337, "name": "Air | Airplanes", "participants": [{"id": 19392684, "gamerTag": "Airplanes", "prefix": "Air", "user": {"location": {"city": "Dacula", "state": "GA", "country": "United States"}}, "player": {"id": 3872614, "gamerTag": "Airplanes", "prefix": "Air", "user": {"location": {"city": "Dacula", "state": "GA", "country": "United States"}}}}]}, "standing": {"placement": 1, "stats": {"score": {"value": 3}}}}, {"id": "93125627-1", "entrant": {"id": 21083822, "name": "Leon Nights", "participants": [{"id": 19394020, "gamerTag": "Leon Nights", "prefix": null, "user": {"location": {"city": "Atlanta", "state": "GA", "country": "United States"}}, "player": {"id": 4752335, "gamerTag": "Leon Nights", "prefix": null, "user": {"location": {"city": "Atlanta", "state": "GA", "country": "United States"}}}}]}, "standing": {"placement": 2, "stats": {"score": {"value": 1}}}}], "games": null}, {"id": 93125629, "state": 3, "round": 1, "fullRoundText": "Winners Round 1", "completedAt": 1756254995, "winnerId": 21083577, "slots": [{"id": "93125629-0", "entrant": {"id": 21083577, "name": "BOLT | KhalRhaego", "participants": [{"id": 19393791, "gamerTag": "KhalRhaego", "prefix": "BOLT", "user": {"location": {"city": "Jonesboro", "state": "GA", "country": "United States"}}, "player": {"id": 4076327, "gamerTag": "KhalRhaego", "prefix": "BOLT", "user": {"location": {"city": "Jonesboro", "state": "GA", "country": "United States"}}}}]}, "standing": {"placement": 1, "stats": {"score": {"value": 3}}}}, {"id": "93125629-1", "entrant": {"id": 21081586, "name": "Pazure", "participants": [{"id": 19391992, "gamerTag": "Pazure", "prefix": null, "user": {"location": {"city": null, "state": null, "country": "United States"}}, "player": {"id": 72218, "gamerTag": "Pazure", "prefix": null, "user": {"location": {"city": null, "state": null, "country": "United States"}}}}]}, "standing": {"placement": 2, "stats": {"score": {"value": 0}}}}], "games": null}]}}}