{"event": {"sets": {"pageInfo": {"totalPages": 2, "total": 19}, "nodes": [{"id": 91623349, "state": 3, "round": -4, "fullRoundText": "Losers Round 1", "completedAt": 1752971863, "winnerId": 20743071, "slots": [{"id": "91623349-0", "entrant": {"id": 20743071, "name": "ballmeat", "participants": [{"id": 19088983, "gamerTag": "ballmeat", "prefix": null, "user": {"location": {"city": "Alexandria", "state": "VA", "country": "United States"}}, "player": {"id": 2295476, "gamerTag": "ballmeat", "prefix": null, "user": {"location": {"city": "Alexandria", "state": "VA", "country": "United States"}}}}]}, "standing": {"placement": 1, "stats": {"score": {"value": 2}}}}, {"id": "91623349-1", "entrant": {"id": 20740081, "name": "ZB | wolfy", "participants": [{"id": 19086119, "gamerTag": "wolfy", "prefix": "ZB", "user": {"location": {"city": "Tyrone", "state": "GA", "country": "United States"}}, "player": {"id": 295981, "gamerTag": "wolfy", "prefix": "ZB", "user": {"location": {"city": "Tyrone", "state": "GA", "country": "United States"}}}}]}, "standing": {"placement": 2, "stats": {"score": {"value": 1}}}}], "games": null}, {"id": 91623351, "state": 3, "round": -4, "fullRoundText": "Losers Round 1", "completedAt": 1752971387, "winnerId": 20652280, "slots": [{"id": "91623351-0", "entrant": {"id": 20652280, "name": "ZB | Juniper", "participants": [{"id": 19010377, "gamerTag": "Juniper", "prefix": "ZB", "user": {"location": {"city": "Morrow", "state": "GA", "country": "United States"}}, "player": {"id": 46895, "gamerTag": "Juniper", "prefix": "ZB", "user": {"location": {"city": "Morrow", "state": "GA", "country": "United States"}}}}]}, "standing": {"placement": 1, "stats": {"score": {"value": 2}}}}, {"id": "91623351-1", "entrant": {"id": 20743750, "name": "Smith_Claxton", "participants": [{"id": 19082494, "gamerTag": "Smith_Claxton", "prefix": null, "user": {"location": {"city": "Griffin", "state": "GA", "country": "United States"}}, "player": {"id": 3459922, "gamerTag": "Smith_Claxton", "prefix": null, "user": {"location": {"city": "Griffin", "state": "GA", "country": "United States"}}}}]}, "standing": {"placement": 2, "stats": {"score": {"value": 1}}}}], "games": null}, {"id": 91623313, "state": 3, "round": 1, "fullRoundText": "Winners Round 1", "completedAt": 1752970694, "winnerId": 20742139, "slots": [{"id": "91623313-0", "entrant": {"id": 20742139, "name": "Donuts", "participants": [{"id": 19088120, "gamerTag": "Donuts", "prefix": "", "user": {"location": {"city": null, "state": null, "country": "Honduras"}}, "player": {"id": 2240418, "gamerTag": "Donuts", "prefix": "", "user": {"location": {"city": null, "state": null, "country": "Honduras"}}}}]}, "standing": {"placement": 1, "stats": {"score": {"value": 2}}}}, {"id": "91623313-1", "entrant": {"id": 20740081, "name": "ZB | wolfy", "participants": [{"id": 19086119, "gamerTag": "wolfy", "prefix": "ZB", "user": {"location": {"city": "Tyrone", "state": "GA", "country": "United States"}}, "player": {"id": 295981, "gamerTag": "wolfy", "prefix": "ZB", "user": {"location": {"city": "Tyrone", "state": "GA", "country": "United States"}}}}]}, "standing": {"placement": 2, "stats": {"score": {"value": 0}}}}], "games": null}, {"id": 91623317, "state": 3, "round": 1, "fullRoundText": "Winners Round 1", "completedAt": 1752970566, "winnerId": 20741702, "slots": [{"id": "91623317-0", "entrant": {"id": 20741702, "name": "teamLUNAR | \u3042\u305a\u308c | Azure~", "participants": [{"id": 19087671, "gamerTag": "\u3042\u305a\u308c | Azure~", "prefix": "teamLUNAR", "user": {"location": {"city": null, "state": null, "country": "United States"}}, "player": {"id": 944415, "gamerTag": "\u3042\u305a\u308c | Azure~", "prefix": "teamLUNAR", "user": {"location": {"city": null, "state": null, "country": "United States"}}}}]}, "standing": {"placement": 1, "stats": {"score": {"value": 2}}}}, {"id": "91623317-1", "entrant": {"id": 20743750, "name": "Smith_Claxton", "participants": [{"id": 19082494, "gamerTag": "Smith_Claxton", "prefix": null, "user": {"location": {"city": "Griffin", "state": "GA", "country": "United States"}}, "player": {"id": 3459922, "gamerTag": "Smith_Claxton", "prefix": null, "user": {"location": {"city": "Griffin", "state": "GA", "country": "United States"}}}}]}, "standing": {"placement": 2, "stats": {"score": {"value": 0}}}}], "games": null}]}}}