{"event": {"sets": {"pageInfo": {"totalPages": 1, "total": 8}, "nodes": [{"id": 92055668, "state": 3, "round": 4, "fullRoundText": "Final", "completedAt": 1753917809, "winnerId": 20842332, "slots": [{"id": "92055668-0", "entrant": {"id": 20841958, "name": "KSU | Subzero", "participants": [{"id": 19178810, "gamerTag": "Subzero", "prefix": "KSU", "user": {"location": {"city": "Acworth", "state": "GA", "country": "United States"}}, "player": {"id": 1808159, "gamerTag": "Subzero", "prefix": "KSU", "user": {"location": {"city": "Acworth", "state": "GA", "country": "United States"}}}}]}, "standing": {"placement": 2, "stats": {"score": {"value": 1}}}}, {"id": "92055668-1", "entrant": {"id": 20842332, "name": "GUMP2 | ToxiC", "participants": [{"id": 19179121, "gamerTag": "ToxiC", "prefix": "GUMP2", "user": {"location": {"city": "Marietta", "state": "GA", "country": "United States"}}, "player": {"id": 2585804, "gamerTag": "ToxiC", "prefix": "GUMP2", "user": {"location": {"city": "Marietta", "state": "GA", "country": "United States"}}}}]}, "standing": {"placement": 1, "stats": {"score": {"value": 3}}}}], "games": null}, {"id": 92055666, "state": 3, "round": 3, "fullRoundText": "Semi-Final", "completedAt": 1753916760, "winnerId": 20841958, "slots": [{"id": "92055666-0", "entrant": {"id": 20844074, "name": "GUMP2 | JankTrees!", "participants": [{"id": 19180816, "gamerTag": "JankTrees!", "prefix": "GUMP2", "user": {"location": {"city": "Cartersville", "state": "GA", "country": "United States"}}, "player": {"id": 35695, "gamerTag": "JankTrees!", "prefix": "GUMP2", "user": {"location": {"city": "Cartersville", "state": "GA", "country": "United States"}}}}]}, "standing": {"placement": 2, "stats": {"score": {"value": 1}}}}, {"id": "92055666-1", "entrant": {"id": 20841958, "name": "KSU | Subzero", "participants": [{"id": 19178810, "gamerTag": "Subzero", "prefix": "KSU", "user": {"location": {"city": "Acworth", "state": "GA", "country": "United States"}}, "player": {"id": 1808159, "gamerTag": "Subzero", "prefix": "KSU", "user": {"location": {"city": "Acworth", "state": "GA", "country": "United States"}}}}]}, "standing": {"placement": 1, "stats": {"score": {"value": 2}}}}], "games": null}, {"id": 92055667, "state": 3, "round": 3, "fullRoundText": "Semi-Final", "completedAt": 1753916038, "winnerId": 20842332, "slots": [{"id": "92055667-0", "entrant": {"id": 20842182, "name": "Zarek", "participants": [{"id": 19178993, "gamerTag": "Zarek", "prefix": "", "user": {"location": {"city": "Atlanta", "state": "GA", "country": "United States"}}, "player": {"id": 405682, "gamerTag": "Zarek", "prefix": "", "user": {"location": {"city": "Atlanta", "state": "GA", "country": "United States"}}}}]}, "standing": {"placement": 2, "stats": {"score": {"value": 0}}}}, {"id": "92055667-1", "entrant": {"id": 20842332, "name": "GUMP2 | ToxiC", "participants": [{"id": 19179121, "gamerTag": "ToxiC", "prefix": "GUMP2", "user": {"location": {"city": "Marietta", "state": "GA", "country": "United States"}}, "player": {"id": 2585804, "gamerTag": "ToxiC", "prefix": "GUMP2", "user": {"location": {"city": "Marietta", "state": "GA", "country": "United States"}}}}]}, "standing": {"placement": 1, "stats": {"score": {"value": 2}}}}], "games": null}, {"id": 92055662, "state": 3, "round": 2, "fullRoundText": "Quarter-Final", "completedAt": 1753916034, "winnerId": 20844074, "slots": [{"id": "92055662-0", "entrant": {"id": 20844074, "name": "GUMP2 | JankTrees!", "participants": [{"id": 19180816, "gamerTag": "JankTrees!", "prefix": "GUMP2", "user": {"location": {"city": "Cartersville", "state": "GA", "country": "United States"}}, "player": {"id": 35695, "gamerTag": "JankTrees!", "prefix": "GUMP2", "user": {"location": {"city": "Cartersville", "state": "GA", "country": "United States"}}}}]}, "standing": {"placement": 1, "stats": {"score": {"value": 2}}}}, {"id": "92055662-1", "entrant": {"id": 20834275, "name": "0-2ers | Stevie Wonder Wing", "participants": [{"id": 19172399, "gamerTag": "Stevie Wonder Wing", "prefix": "0-2ers", "user": {"location": {"city": "Roswell", "state": "GA", "country": "United States"}}, "player": {"id": 2546026, "gamerTag": "Stevie Wonder Wing", "prefix": "0-2ers", "user": {"location": {"city": "Roswell", "state": "GA", "country": "United States"}}}}]}, "standing": {"placement": 2, "stats": {"score": {"value": 0}}}}], "games": null}, {"id": 92055663, "state": 3, "round": 2, "fullRoundText": "Quarter-Final", "completedAt": 1753914896, "winnerId": 20841958, "slots": [{"id": "92055663-0", "entrant": {"id": 20842238, "name": "Boo", "participants": [{"id": 19179043, "gamerTag": "Boo", "prefix": "", "user": {"location": {"city": "Cumming", "state": "GA", "country": "United States"}}, "player": {"id": 2647915, "gamerTag": "Boo", "prefix": "", "user": {"location": {"city": "Cumming", "state": "GA", "country": "United States"}}}}]}, "standing": {"placement": 2, "stats": {"score": {"value": 0}}}}, {"id": "92055663-1", "entrant": {"id": 20841958, "name": "KSU | Subzero", "participants": [{"id": 19178810, "gamerTag": "Subzero", "prefix": "KSU", "user": {"location": {"city": "Acworth", "state": "GA", "country": "United States"}}, "player": {"id": 1808159, "gamerTag": "Subzero", "prefix": "KSU", "user": {"location": {"city": "Acworth", "state": "GA", "country": "United States"}}}}]}, "standing": {"placement": 1, "stats": {"score": {"value": 2}}}}], "games": null}, {"id": 92055664, "state": 3, "round": 2, "fullRoundText": "Quarter-Final", "completedAt": 1753915250, "winnerId": 20842182, "slots": [{"id": "92055664-0", "entrant": {"id": 20842854, "name": "GUMP2 | Z I C O", "participants": [{"id": 19179590, "gamerTag": "Z I C O", "prefix": "GUMP2", "user": {"location": {"city": "Avondale Estates", "state": "GA", "country": "United States"}}, "player": {"id": 225744, "gamerTag": "Z I C O", "prefix": "GUMP2", "user": {"location": {"city": "Avondale Estates", "state": "GA", "country": "United States"}}}}]}, "standing": {"placement": 2, "stats": {"score": {"value": 1}}}}, {"id": "92055664-1", "entrant": {"id": 20842182, "name": "Zarek", "participants": [{"id": 19178993, "gamerTag": "Zarek", "prefix": "", "user": {"location": {"city": "Atlanta", "state": "GA", "country": "United States"}}, "player": {"id": 405682, "gamerTag": "Zarek", "prefix": "", "user": {"location": {"city": "Atlanta", "state": "GA", "country": "United States"}}}}]}, "standing": {"placement": 1, "stats": {"score": {"value": 2}}}}], "games": null}, {"id": 92055665, "state": 3, "round": 2, "fullRoundText": "Quarter-Final", "completedAt": 1753914530, "winnerId": 20842332, "slots": [{"id": "92055665-0", "entrant": {"id": 20842332, "name": "GUMP2 | ToxiC", "participants": [{"id": 19179121, "gamerTag": "ToxiC", "prefix": "GUMP2", "user": {"location": {"city": "Marietta", "state": "GA", "country": "United States"}}, "player": {"id": 2585804, "gamerTag": "ToxiC", "prefix": "GUMP2", "user": {"location": {"city": "Marietta", "state": "GA", "country": "United States"}}}}]}, "standing": {"placement": 1, "stats": {"score": {"value": 2}}}}, {"id": "92055665-1", "entrant": {"id": 20842919, "name": "KSU | colorful\u029a\u025e", "participants": [{"id": 19179652, "gamerTag": "colorful\u029a\u025e", "prefix": "KSU", "user": {"location": {"city": "Kennesaw", "state": "GA", "country": "United States"}}, "player": {"id": 1783074, "gamerTag": "colorful\u029a\u025e", "prefix": "KSU | RM", "user": {"location": {"city": "Kennesaw", "state": "GA", "country": "United States"}}}}]}, "standing": {"placement": 2, "stats": {"score": {"value": 0}}}}], "games": null}, {"id": 92055655, "state": 3, "round": 1, "fullRoundText": "Round 1", "completedAt": 1753915318, "winnerId": 20834275, "slots": [{"id": "92055655-0", "entrant": {"id": 20843042, "name": "SaggyMilkJug", "participants": [{"id": 19179770, "gamerTag": "SaggyMilkJug", "prefix": "", "user": {"location": {"city": "Atlanta", "state": "GA", "country": "United States"}}, "player": {"id": 4651404, "gamerTag": "SaggyMilkJug", "prefix": "", "user": {"location": {"city": "Atlanta", "state": "GA", "country": "United States"}}}}]}, "standing": {"placement": 2, "stats": {"score": {"value": 1}}}}, {"id": "92055655-1", "entrant": {"id": 20834275, "name": "0-2ers | Stevie Wonder Wing", "participants": [{"id": 19172399, "gamerTag": "Stevie Wonder Wing", "prefix": "0-2ers", "user": {"location": {"city": "Roswell", "state": "GA", "country": "United States"}}, "player": {"id": 2546026, "gamerTag": "Stevie Wonder Wing", "prefix": "0-2ers", "user": {"location": {"city": "Roswell", "state": "GA", "country": "United States"}}}}]}, "standing": {"placement": 1, "stats": {"score": {"value": 2}}}}], "games": null}]}}}