{"event": {"sets": {"pageInfo": {"totalPages": 4, "total": 59}, "nodes": [{"id": 94203277, "state": 3, "round": 2, "fullRoundText": "Winners Quarter-Final", "completedAt": 1758504906, "winnerId": 21341705, "slots": [{"id": "94203277-0", "entrant": {"id": 21341705, "name": "Yummy", "participants": [{"id": 19618940, "gamerTag": "Yummy", "prefix": "", "user": {"location": {"city": "Atlanta", "state": "GA", "country": "United States"}}, "player": {"id": 1743866, "gamerTag": "Yummy", "prefix": "", "user": {"location": {"city": "Atlanta", "state": "GA", "country": "United States"}}}}]}, "standing": {"placement": 1, "stats": {"score": {"value": 2}}}}, {"id": "94203277-1", "entrant": {"id": 21339369, "name": "Mickeydeez", "participants": [{"id": 19616811, "gamerTag": "Mickeydeez", "prefix": "", "user": {"location": {"city": "Atlanta", "state": "GA", "country": "United States"}}, "player": {"id": 4825580, "gamerTag": "Mickeydeez", "prefix": "", "user": {"location": {"city": "Atlanta", "state": "GA", "country": "United States"}}}}]}, "standing": {"placement": 2, "stats": {"score": {"value": 0}}}}], "games": null}, {"id": 94203324, "state": 3, "round": 2, "fullRoundText": "Winners Quarter-Final", "completedAt": 1758502758, "winnerId": 21341563, "slots": [{"id": "94203324-0", "entrant": {"id": 21341811, "name": "TnT | Sid", "participants": [{"id": 19619027, "gamerTag": "Sid", "prefix": "TnT", "user": {"location": {"city": "Powder Springs", "state": "GA", "country": "United States"}}, "player": {"id": 1229067, "gamerTag": "Sid", "prefix": "TnT", "user": {"location": {"city": "Powder Springs", "state": "GA", "country": "United States"}}}}]}, "standing": {"placement": 2, "stats": {"score": {"value": 1}}}}, {"id": "94203324-1", "entrant": {"id": 21341563, "name": "RM | lawl", "participants": [{"id": 19618820, "gamerTag": "lawl", "prefix": "RM", "user": {"location": {"city": "Dacula", "state": "GA", "country": "United States"}}, "player": {"id": 2116990, "gamerTag": "lawl", "prefix": "RM", "user": {"location": {"city": "Dacula", "state": "GA", "country": "United States"}}}}]}, "standing": {"placement": 1, "stats": {"score": {"value": 2}}}}], "games": null}, {"id": 94203278, "state": 3, "round": 2, "fullRoundText": "Winners Quarter-Final", "completedAt": 1758503274, "winnerId": 21341101, "slots": [{"id": "94203278-0", "entrant": {"id": 21341638, "name": "RAMS | RussianJesus", "participants": [{"id": 19618881, "gamerTag": "RussianJesus", "prefix": "RAMS", "user": {"location": {"city": "Atlanta", "state": "GA", "country": "United States"}}, "player": {"id": 1140567, "gamerTag": "RussianJesus", "prefix": "RAMS", "user": {"location": {"city": "Atlanta", "state": "GA", "country": "United States"}}}}]}, "standing": {"placement": 2, "stats": {"score": {"value": 1}}}}, {"id": "94203278-1", "entrant": {"id": 21341101, "name": "RM | Retro18", "participants": [{"id": 19618400, "gamerTag": "Retro18", "prefix": "RM", "user": {"location": {"city": "Loganville", "state": "GA", "country": "United States"}}, "player": {"id": 867830, "gamerTag": "Retro18", "prefix": "RM", "user": {"location": {"city": "Loganville", "state": "GA", "country": "United States"}}}}]}, "standing": {"placement": 1, "stats": {"score": {"value": 2}}}}], "games": null}, {"id": 94203325, "state": 3, "round": 2, "fullRoundText": "Winners Quarter-Final", "completedAt": 1758504237, "winnerId": 21337620, "slots": [{"id": "94203325-0", "entrant": {"id": 21338393, "name": "TFT | ALLEYCAT", "participants": [{"id": 19615924, "gamerTag": "ALLEYCAT", "prefix": "TFT", "user": {"location": {"city": "Atlanta", "state": "GA", "country": "United States"}}, "player": {"id": 1940654, "gamerTag": "ALLEYCAT", "prefix": "TFT", "user": {"location": {"city": "Atlanta", "state": "GA", "country": "United States"}}}}]}, "standing": {"placement": 2, "stats": {"score": {"value": 1}}}}, {"id": "94203325-1", "entrant": {"id": 21337620, "name": "TFT | BigCheese", "participants": [{"id": 19615184, "gamerTag": "BigCheese", "prefix": "TFT", "user": {"location": {"city": null, "state": null, "country": null}}, "player": {"id": 3991446, "gamerTag": "BigCheese", "prefix": "TFT", "user": {"location": {"city": null, "state": null, "country": null}}}}]}, "standing": {"placement": 1, "stats": {"score": {"value": 2}}}}], "games": null}, {"id": 94203279, "state": 3, "round": 2, "fullRoundText": "Winners Quarter-Final", "completedAt": 1758504445, "winnerId": 21341761, "slots": [{"id": "94203279-0", "entrant": {"id": 21341664, "name": "PhaZe", "participants": [{"id": 19618904, "gamerTag": "PhaZe", "prefix": "", "user": {"location": {"city": "Gainesville", "state": "GA", "country": "United States"}}, "player": {"id": 36212, "gamerTag": "PhaZe", "prefix": "", "user": {"location": {"city": "Gainesville", "state": "GA", "country": "United States"}}}}]}, "standing": {"placement": 2, "stats": {"score": {"value": 1}}}}, {"id": "94203279-1", "entrant": {"id": 21341761, "name": "Jdaddy", "participants": [{"id": 19618982, "gamerTag": "Jdaddy", "prefix": null, "user": {"location": {"city": "Atlanta", "state": "GA", "country": "United States"}}, "player": {"id": 4384721, "gamerTag": "Jdaddy", "prefix": null, "user": {"location": {"city": "Atlanta", "state": "GA", "country": "United States"}}}}]}, "standing": {"placement": 1, "stats": {"score": {"value": 2}}}}], "games": null}, {"id": 94203326, "state": 3, "round": 2, "fullRoundText": "Winners Quarter-Final", "completedAt": 1758504337, "winnerId": 21338347, "slots": [{"id": "94203326-0", "entrant": {"id": 21338347, "name": "Heart", "participants": [{"id": 19615870, "gamerTag": "Heart", "prefix": null, "user": {"location": {"city": "Atlanta", "state": "GA", "country": "United States"}}, "player": {"id": 4287822, "gamerTag": "Heart", "prefix": "", "user": {"location": {"city": "Atlanta", "state": "GA", "country": "United States"}}}}]}, "standing": {"placement": 1, "stats": {"score": {"value": 2}}}}, {"id": "94203326-1", "entrant": {"id": 21340970, "name": "SamRice", "participants": [{"id": 19618279, "gamerTag": "SamRice", "prefix": "", "user": {"location": {"city": "Norcross", "state": "GA", "country": "United States"}}, "player": {"id": 2387403, "gamerTag": "SamRice", "prefix": "", "user": {"location": {"city": "Norcross", "state": "GA", "country": "United States"}}}}]}, "standing": {"placement": 2, "stats": {"score": {"value": 1}}}}], "games": null}, {"id": 94203327, "state": 3, "round": 2, "fullRoundText": "Winners Quarter-Final", "completedAt": 1758503462, "winnerId": 21339275, "slots": [{"id": "94203327-0", "entrant": {"id": 21339275, "name": "Kid Kaioken", "participants": [{"id": 19616734, "gamerTag": "Kid Kaioken", "prefix": "", "user": {"location": {"city": "Norcross", "state": "GA", "country": "United States"}}, "player": {"id": 2730912, "gamerTag": "Kid Kaioken", "prefix": "", "user": {"location": {"city": "Norcross", "state": "GA", "country": "United States"}}}}]}, "standing": {"placement": 1, "stats": {"score": {"value": 2}}}}, {"id": "94203327-1", "entrant": {"id": 21338685, "name": "RM | WFF | Cyax~", "participants": [{"id": 19616193, "gamerTag": "Cyax~", "prefix": "RM | WFF", "user": {"location": {"city": "atlanta", "state": "GA", "country": "United States"}}, "player": {"id": 1230555, "gamerTag": "Sakruoi", "prefix": "RM | WFF", "user": {"location": {"city": "atlanta", "state": "GA", "country": "United States"}}}}]}, "standing": {"placement": 2, "stats": {"score": {"value": 0}}}}], "games": null}, {"id": 94203280, "state": 3, "round": 2, "fullRoundText": "Winners Quarter-Final", "completedAt": 1758504131, "winnerId": 21341769, "slots": [{"id": "94203280-0", "entrant": {"id": 21341769, "name": "TnT | Damp\u00e9", "participants": [{"id": 19618990, "gamerTag": "Damp\u00e9", "prefix": "TnT", "user": {"location": {"city": "Atlanta", "state": "GA", "country": "United States"}}, "player": {"id": 1170738, "gamerTag": "Damp\u00e9", "prefix": "TnT", "user": {"location": {"city": "Atlanta", "state": "GA", "country": "United States"}}}}]}, "standing": {"placement": 1, "stats": {"score": {"value": 2}}}}, {"id": "94203280-1", "entrant": {"id": 21341640, "name": "Nurikami", "participants": [{"id": 19618883, "gamerTag": "Nurikami", "prefix": null, "user": {"location": {"city": "Sandy Springs", "state": "GA", "country": "United States"}}, "player": {"id": 2894467, "gamerTag": "Nurikami", "prefix": null, "user": {"location": {"city": "Sandy Springs", "state": "GA", "country": "United States"}}}}]}, "standing": {"placement": 2, "stats": {"score": {"value": 0}}}}], "games": null}, {"id": 94203621, "state": 3, "round": -6, "fullRoundText": "Losers Final", "completedAt": 1758511638, "winnerId": 21339275, "slots": [{"id": "94203621-0", "entrant": {"id": 21338347, "name": "Heart", "participants": [{"id": 19615870, "gamerTag": "Heart", "prefix": null, "user": {"location": {"city": "Atlanta", "state": "GA", "country": "United States"}}, "player": {"id": 4287822, "gamerTag": "Heart", "prefix": "", "user": {"location": {"city": "Atlanta", "state": "GA", "country": "United States"}}}}]}, "standing": {"placement": 2, "stats": {"score": {"value": 2}}}}, {"id": "94203621-1", "entrant": {"id": 21339275, "name": "Kid Kaioken", "participants": [{"id": 19616734, "gamerTag": "Kid Kaioken", "prefix": "", "user": {"location": {"city": "Norcross", "state": "GA", "country": "United States"}}, "player": {"id": 2730912, "gamerTag": "Kid Kaioken", "prefix": "", "user": {"location": {"city": "Norcross", "state": "GA", "country": "United States"}}}}]}, "standing": {"placement": 1, "stats": {"score": {"value": 3}}}}], "games": null}, {"id": 94203306, "state": 3, "round": -4, "fullRoundText": "Losers Round 2", "completedAt": 1758506045, "winnerId": 21341768, "slots": [{"id": "94203306-0", "entrant": {"id": 21341640, "name": "Nurikami", "participants": [{"id": 19618883, "gamerTag": "Nurikami", "prefix": null, "user": {"location": {"city": "Sandy Springs", "state": "GA", "country": "United States"}}, "player": {"id": 2894467, "gamerTag": "Nurikami", "prefix": null, "user": {"location": {"city": "Sandy Springs", "state": "GA", "country": "United States"}}}}]}, "standing": {"placement": 2, "stats": {"score": {"value": 0}}}}, {"id": "94203306-1", "entrant": {"id": 21341768, "name": "millano", "participants": [{"id": 19618989, "gamerTag": "millano", "prefix": "", "user": null, "player": {"id": 4214682, "gamerTag": "millano", "prefix": "", "user": null}}]}, "standing": {"placement": 1, "stats": {"score": {"value": 2}}}}], "games": null}, {"id": 94203353, "state": 3, "round": -4, "fullRoundText": "Losers Round 2", "completedAt": 1758505176, "winnerId": 21341612, "slots": [{"id": "94203353-0", "entrant": {"id": 21338685, "name": "RM | WFF | Cyax~", "participants": [{"id": 19616193, "gamerTag": "Cyax~", "prefix": "RM | WFF", "user": {"location": {"city": "atlanta", "state": "GA", "country": "United States"}}, "player": {"id": 1230555, "gamerTag": "Sakruoi", "prefix": "RM | WFF", "user": {"location": {"city": "atlanta", "state": "GA", "country": "United States"}}}}]}, "standing": {"placement": 2, "stats": {"score": {"value": 1}}}}, {"id": "94203353-1", "entrant": {"id": 21341612, "name": "Tilted", "participants": [{"id": 19618860, "gamerTag": "Tilted", "prefix": null, "user": {"location": {"city": "Norcross", "state": "GA", "country": "United States"}}, "player": {"id": 2377635, "gamerTag": "Tilted", "prefix": null, "user": {"location": {"city": "Norcross", "state": "GA", "country": "United States"}}}}]}, "standing": {"placement": 1, "stats": {"score": {"value": 2}}}}], "games": null}, {"id": 94203307, "state": 3, "round": -4, "fullRoundText": "Losers Round 2", "completedAt": 1758505261, "winnerId": 21341664, "slots": [{"id": "94203307-0", "entrant": {"id": 21341664, "name": "PhaZe", "participants": [{"id": 19618904, "gamerTag": "PhaZe", "prefix": "", "user": {"location": {"city": "Gainesville", "state": "GA", "country": "United States"}}, "player": {"id": 36212, "gamerTag": "PhaZe", "prefix": "", "user": {"location": {"city": "Gainesville", "state": "GA", "country": "United States"}}}}]}, "standing": {"placement": 1, "stats": {"score": {"value": 2}}}}, {"id": "94203307-1", "entrant": {"id": 21339382, "name": "Pharrow", "participants": [{"id": 19616825, "gamerTag": "Pharrow", "prefix": null, "user": {"location": {"city": "Lithonia", "state": "GA", "country": "United States"}}, "player": {"id": 4987257, "gamerTag": "Pharrow", "prefix": null, "user": {"location": {"city": "Lithonia", "state": "GA", "country": "United States"}}}}]}, "standing": {"placement": 2, "stats": {"score": {"value": 0}}}}], "games": null}, {"id": 94203354, "state": 3, "round": -4, "fullRoundText": "Losers Round 2", "completedAt": 1758505226, "winnerId": 21340970, "slots": [{"id": "94203354-0", "entrant": {"id": 21340970, "name": "SamRice", "participants": [{"id": 19618279, "gamerTag": "SamRice", "prefix": "", "user": {"location": {"city": "Norcross", "state": "GA", "country": "United States"}}, "player": {"id": 2387403, "gamerTag": "SamRice", "prefix": "", "user": {"location": {"city": "Norcross", "state": "GA", "country": "United States"}}}}]}, "standing": {"placement": 1, "stats": {"score": {"value": 2}}}}, {"id": "94203354-1", "entrant": {"id": 21341657, "name": "assclapFGC", "participants": [{"id": 19618897, "gamerTag": "assclapFGC", "prefix": "", "user": {"location": {"city": "Scottdale", "state": "GA", "country": "United States"}}, "player": {"id": 3481864, "gamerTag": "assclapFGC", "prefix": "", "user": {"location": {"city": "Scottdale", "state": "GA", "country": "United States"}}}}]}, "standing": {"placement": 2, "stats": {"score": {"value": 0}}}}], "games": null}, {"id": 94203355, "state": 3, "round": -4, "fullRoundText": "Losers Round 2", "completedAt": 1758505310, "winnerId": 21341549, "slots": [{"id": "94203355-0", "entrant": {"id": 21338393, "name": "TFT | ALLEYCAT", "participants": [{"id": 19615924, "gamerTag": "ALLEYCAT", "prefix": "TFT", "user": {"location": {"city": "Atlanta", "state": "GA", "country": "United States"}}, "player": {"id": 1940654, "gamerTag": "ALLEYCAT", "prefix": "TFT", "user": {"location": {"city": "Atlanta", "state": "GA", "country": "United States"}}}}]}, "standing": {"placement": 2, "stats": {"score": {"value": 1}}}}, {"id": "94203355-1", "entrant": {"id": 21341549, "name": "MONEY | ImNoPro", "participants": [{"id": 19618812, "gamerTag": "ImNoPro", "prefix": "MONEY", "user": {"location": {"city": "Calhoun", "state": "GA", "country": "United States"}}, "player": {"id": 2149803, "gamerTag": "ImNoPro", "prefix": "MONEY", "user": {"location": {"city": "Calhoun", "state": "GA", "country": "United States"}}}}]}, "standing": {"placement": 1, "stats": {"score": {"value": 2}}}}], "games": null}, {"id": 94203308, "state": 3, "round": -4, "fullRoundText": "Losers Round 2", "completedAt": 1758505240, "winnerId": 21341638, "slots": [{"id": "94203308-0", "entrant": {"id": 21341638, "name": "RAMS | RussianJesus", "participants": [{"id": 19618881, "gamerTag": "RussianJesus", "prefix": "RAMS", "user": {"location": {"city": "Atlanta", "state": "GA", "country": "United States"}}, "player": {"id": 1140567, "gamerTag": "RussianJesus", "prefix": "RAMS", "user": {"location": {"city": "Atlanta", "state": "GA", "country": "United States"}}}}]}, "standing": {"placement": 1, "stats": {"score": {"value": 2}}}}, {"id": "94203308-1", "entrant": {"id": 21341188, "name": "TFT/ WFF2 | Frank Osherm", "participants": [{"id": 19618484, "gamerTag": "Frank Osherm", "prefix": "TFT/ WFF2", "user": {"location": {"city": "Atlanta", "state": "GA", "country": "United States"}}, "player": {"id": 1751817, "gamerTag": "Ricky Rudd", "prefix": "TFT", "user": {"location": {"city": "Atlanta", "state": "GA", "country": "United States"}}}}]}, "standing": {"placement": 2, "stats": {"score": {"value": 1}}}}], "games": null}]}}}