{"event": {"sets": {"pageInfo": {"totalPages": 1, "total": 3}, "nodes": [{"id": "preview_2957704_1_0", "state": 1, "round": 1, "fullRoundText": "Round 1", "completedAt": null, "winnerId": null, "slots": [{"id": "preview_2957704_1_0-0", "entrant": {"id": 21013218, "name": "Star | StarSwitch127", "participants": [{"id": 19330144, "gamerTag": "StarSwitch127", "prefix": "Star", "user": {"location": {"city": null, "state": "MN", "country": "United States"}}, "player": {"id": 4554793, "gamerTag": "StarSwitch127", "prefix": "Star", "user": {"location": {"city": null, "state": "MN", "country": "United States"}}}}]}, "standing": null}, {"id": "preview_2957704_1_0-1", "entrant": {"id": 21045140, "name": "Dusk_", "participants": [{"id": 19359311, "gamerTag": "Dusk_", "prefix": null, "user": {"location": {"city": "Atlanta", "state": "GA", "country": "United States"}}, "player": {"id": 2095313, "gamerTag": "Dusk_", "prefix": null, "user": {"location": {"city": "Atlanta", "state": "GA", "country": "United States"}}}}]}, "standing": null}, {"id": "preview_2957704_1_0-2", "entrant": {"id": 21068234, "name": "thatstrangergamer2", "participants": [{"id": 19379790, "gamerTag": "thatstrangergamer2", "prefix": null, "user": {"location": {"city": "McDonough, GA", "state": "GA", "country": "United States"}}, "player": {"id": 3583363, "gamerTag": "thatstrangergamer2", "prefix": null, "user": {"location": {"city": "McDonough, GA", "state": "GA", "country": "United States"}}}}]}, "standing": null}, {"id": "preview_2957704_1_0-3", "entrant": {"id": 21125553, "name": "Smash | S0UND4", "participants": [{"id": 19431313, "gamerTag": "S0UND4", "prefix": "Smash", "user": {"location": {"city": null, "state": null, "country": "Georgia"}}, "player": {"id": 4949248, "gamerTag": "S0UND4", "prefix": "Smash", "user": {"location": {"city": null, "state": null, "country": "Georgia"}}}}]}, "standing": null}, {"id": "preview_2957704_1_0-5", "entrant": {"id": 21131356, "name": "Redmustard0", "participants": [{"id": 19436913, "gamerTag": "Redmustard0", "prefix": "", "user": {"location": {"city": null, "state": "GA", "country": "United States"}}, "player": {"id": 4931369, "gamerTag": "Redmustard0", "prefix": "", "user": {"location": {"city": null, "state": "GA", "country": "United States"}}}}]}, "standing": null}], "games": null}, {"id": "preview_2957704_1_1", "state": 1, "round": 1, "fullRoundText": "Round 1", "completedAt": null, "winnerId": null, "slots": [{"id": "preview_2957704_1_1-0", "entrant": {"id": 21037011, "name": "Dynamo", "participants": [{"id": 19351639, "gamerTag": "Dynamo", "prefix": "", "user": {"location": {"city": "Atlanta", "state": "GA", "country": "United States"}}, "player": {"id": 3417019, "gamerTag": "Dynamo", "prefix": "", "user": {"location": {"city": "Atlanta", "state": "GA", "country": "United States"}}}}]}, "standing": null}, {"id": "preview_2957704_1_1-1", "entrant": {"id": 21044036, "name": "Tootingtuna24", "participants": [{"id": 19358299, "gamerTag": "Tootingtuna24", "prefix": null, "user": {"location": {"city": null, "state": null, "country": "United States"}}, "player": {"id": 4935445, "gamerTag": "Tootingtuna24", "prefix": "", "user": {"location": {"city": null, "state": null, "country": "United States"}}}}]}, "standing": null}, {"id": "preview_2957704_1_1-2", "entrant": {"id": 21105137, "name": "RenegadeRaider", "participants": [{"id": 19413117, "gamerTag": "RenegadeRaider", "prefix": "", "user": {"location": {"city": "Marietta", "state": "GA", "country": "United States"}}, "player": {"id": 4945168, "gamerTag": "RenegadeRaider", "prefix": "", "user": {"location": {"city": "Marietta", "state": "GA", "country": "United States"}}}}]}, "standing": null}, {"id": "preview_2957704_1_1-3", "entrant": {"id": 21120004, "name": "\u03bds\u03c1 | Wisp", "participants": [{"id": 19426381, "gamerTag": "Wisp", "prefix": "\u03bds\u03c1", "user": {"location": {"city": null, "state": null, "country": "United States"}}, "player": {"id": 2215503, "gamerTag": "Wisp", "prefix": "\u03bds\u03c1", "user": {"location": {"city": null, "state": null, "country": "United States"}}}}]}, "standing": null}, {"id": "preview_2957704_1_1-5", "entrant": {"id": 21131352, "name": "Skill Issue | Yell0", "participants": [{"id": 19436909, "gamerTag": "Yell0", "prefix": "Skill Issue", "user": {"location": {"city": "Mount Sinai", "state": "NY", "country": "United States"}}, "player": {"id": 4854327, "gamerTag": "Yell0", "prefix": "Skill Issue", "user": {"location": {"city": "Mount Sinai", "state": "NY", "country": "United States"}}}}]}, "standing": null}], "games": null}, {"id": "preview_2957704_2_0", "state": 1, "round": 2, "fullRoundText": "Round 2", "completedAt": null, "winnerId": null, "slots": [{"id": "preview_2957704_2_0-0", "entrant": null, "standing": null}, {"id": "preview_2957704_2_0-1", "entrant": null, "standing": null}, {"id": "preview_2957704_2_0-2", "entrant": null, "standing": null}, {"id": "preview_2957704_2_0-3", "entrant": null, "standing": null}, {"id": "preview_2957704_2_0-4", "entrant": null, "standing": null}, {"id": "preview_2957704_2_0-5", "entrant": null, "standing": null}, {"id": "preview_2957704_2_0-6", "entrant": null, "standing": null}, {"id": "preview_2957704_2_0-7", "entrant": null, "standing": null}, {"id": "preview_2957704_2_0-8", "entrant": null, "standing": null}, {"id": "preview_2957704_2_0-9", "entrant": null, "standing": null}], "games": null}]}}}