{"event": {"sets": {"pageInfo": {"totalPages": 2, "total": 29}, "nodes": [{"id": 91758400, "state": 3, "round": 5, "fullRoundText": "Grand Final", "completedAt": 1753328491, "winnerId": 20704448, "slots": [{"id": "91758400-0", "entrant": {"id": 20755491, "name": "4o4 | KhalRhaego", "participants": [{"id": 19101146, "gamerTag": "KhalRhaego", "prefix": "4o4", "user": {"location": {"city": "Jonesboro", "state": "GA", "country": "United States"}}, "player": {"id": 4076327, "gamerTag": "KhalRhaego", "prefix": "BOLT", "user": {"location": {"city": "Jonesboro", "state": "GA", "country": "United States"}}}}]}, "standing": {"placement": 2, "stats": {"score": {"value": 2}}}}, {"id": "91758400-1", "entrant": {"id": 20704448, "name": "StrataJay", "participants": [{"id": 19055265, "gamerTag": "StrataJay", "prefix": "", "user": {"location": {"city": "Grayson", "state": "GA", "country": "United States"}}, "player": {"id": 1112189, "gamerTag": "StrataJay", "prefix": "", "user": {"location": {"city": "Grayson", "state": "GA", "country": "United States"}}}}]}, "standing": {"placement": 1, "stats": {"score": {"value": 3}}}}], "games": null}, {"id": 91758401, "state": 3, "round": 5, "fullRoundText": "Grand Final Reset", "completedAt": 1753328522, "winnerId": 20755491, "slots": [{"id": "91758401-0", "entrant": {"id": 20704448, "name": "StrataJay", "participants": [{"id": 19055265, "gamerTag": "StrataJay", "prefix": "", "user": {"location": {"city": "Grayson", "state": "GA", "country": "United States"}}, "player": {"id": 1112189, "gamerTag": "StrataJay", "prefix": "", "user": {"location": {"city": "Grayson", "state": "GA", "country": "United States"}}}}]}, "standing": {"placement": 2, "stats": {"score": {"value": 1}}}}, {"id": "91758401-1", "entrant": {"id": 20755491, "name": "4o4 | KhalRhaego", "participants": [{"id": 19101146, "gamerTag": "KhalRhaego", "prefix": "4o4", "user": {"location": {"city": "Jonesboro", "state": "GA", "country": "United States"}}, "player": {"id": 4076327, "gamerTag": "KhalRhaego", "prefix": "BOLT", "user": {"location": {"city": "Jonesboro", "state": "GA", "country": "United States"}}}}]}, "standing": {"placement": 1, "stats": {"score": {"value": 3}}}}], "games": null}, {"id": 91758399, "state": 3, "round": 4, "fullRoundText": "Winners Final", "completedAt": 1753325500, "winnerId": 20755491, "slots": [{"id": "91758399-0", "entrant": {"id": 20704448, "name": "StrataJay", "participants": [{"id": 19055265, "gamerTag": "StrataJay", "prefix": "", "user": {"location": {"city": "Grayson", "state": "GA", "country": "United States"}}, "player": {"id": 1112189, "gamerTag": "StrataJay", "prefix": "", "user": {"location": {"city": "Grayson", "state": "GA", "country": "United States"}}}}]}, "standing": {"placement": 2, "stats": {"score": {"value": 0}}}}, {"id": "91758399-1", "entrant": {"id": 20755491, "name": "4o4 | KhalRhaego", "participants": [{"id": 19101146, "gamerTag": "KhalRhaego", "prefix": "4o4", "user": {"location": {"city": "Jonesboro", "state": "GA", "country": "United States"}}, "player": {"id": 4076327, "gamerTag": "KhalRhaego", "prefix": "BOLT", "user": {"location": {"city": "Jonesboro", "state": "GA", "country": "United States"}}}}]}, "standing": {"placement": 1, "stats": {"score": {"value": 3}}}}], "games": [{"id": 31469647, "orderNum": 1, "winnerId": 20755491, "entrant1Score": null, "entrant2Score": null, "stage": null, "selections": [{"id": 46323792, "selectionType": "CHARACTER", "selectionValue": 2408, "entrant": {"id": 20704448}, "character": {"id": 2408, "name": "Azucena"}}, {"id": 46323793, "selectionType": "CHARACTER", "selectionValue": 2438, "entrant": {"id": 20755491}, "character": {"id": 2438, "name": "Zafina"}}]}, {"id": 31469648, "orderNum": 2, "winnerId": 20755491, "entrant1Score": null, "entrant2Score": null, "stage": null, "selections": [{"id": 46323794, "selectionType": "CHARACTER", "selectionValue": 2612, "entrant": {"id": 20704448}, "character": {"id": 2612, "name": "Clive"}}, {"id": 46323795, "selectionType": "CHARACTER", "selectionValue": 2438, "entrant": {"id": 20755491}, "character": {"id": 2438, "name": "Zafina"}}]}, {"id": 31469649, "orderNum": 3, "winnerId": 20755491, "entrant1Score": null, "entrant2Score": null, "stage": null, "selections": [{"id": 46323796, "selectionType": "CHARACTER", "selectionValue": 2612, "entrant": {"id": 20704448}, "character": {"id": 2612, "name": "Clive"}}, {"id": 46323797, "selectionType": "CHARACTER", "selectionValue": 2438, "entrant": {"id": 20755491}, "character": {"id": 2438, "name": "Zafina"}}]}]}, {"id": 91758431, "state": 3, "round": -8, "fullRoundText": "Losers Final", "completedAt": 1753328477, "winnerId": 20704448, "slots": [{"id": "91758431-0", "entrant": {"id": 20704448, "name": "StrataJay", "participants": [{"id": 19055265, "gamerTag": "StrataJay", "prefix": "", "user": {"location": {"city": "Grayson", "state": "GA", "country": "United States"}}, "player": {"id": 1112189, "gamerTag": "StrataJay", "prefix": "", "user": {"location": {"city": "Grayson", "state": "GA", "country": "United States"}}}}]}, "standing": {"placement": 1, "stats": {"score": {"value": 3}}}}, {"id": "91758431-1", "entrant": {"id": 20747432, "name": "juice", "participants": [{"id": 19093162, "gamerTag": "juice", "prefix": "", "user": {"location": {"city": "atlanta", "state": "GA", "country": "United States"}}, "player": {"id": 146905, "gamerTag": "juice", "prefix": "100%", "user": {"location": {"city": "atlanta", "state": "GA", "country": "United States"}}}}]}, "standing": {"placement": 2, "stats": {"score": {"value": 1}}}}], "games": null}, {"id": 91758430, "state": 3, "round": -7, "fullRoundText": "Losers Semi-Final", "completedAt": 1753325866, "winnerId": 20747432, "slots": [{"id": "91758430-0", "entrant": {"id": 20782146, "name": "Free | Sereni", "participants": [{"id": 19126113, "gamerTag": "Sereni", "prefix": "Free", "user": {"location": {"city": null, "state": null, "country": "United States"}}, "player": {"id": 482535, "gamerTag": "Sereni", "prefix": "Free", "user": {"location": {"city": null, "state": null, "country": "United States"}}}}]}, "standing": {"placement": 2, "stats": {"score": {"value": 0}}}}, {"id": "91758430-1", "entrant": {"id": 20747432, "name": "juice", "participants": [{"id": 19093162, "gamerTag": "juice", "prefix": "", "user": {"location": {"city": "atlanta", "state": "GA", "country": "United States"}}, "player": {"id": 146905, "gamerTag": "juice", "prefix": "100%", "user": {"location": {"city": "atlanta", "state": "GA", "country": "United States"}}}}]}, "standing": {"placement": 1, "stats": {"score": {"value": 3}}}}], "games": null}, {"id": 91758397, "state": 3, "round": 3, "fullRoundText": "Winners Semi-Final", "completedAt": 1753323816, "winnerId": 20704448, "slots": [{"id": "91758397-0", "entrant": {"id": 20704448, "name": "StrataJay", "participants": [{"id": 19055265, "gamerTag": "StrataJay", "prefix": "", "user": {"location": {"city": "Grayson", "state": "GA", "country": "United States"}}, "player": {"id": 1112189, "gamerTag": "StrataJay", "prefix": "", "user": {"location": {"city": "Grayson", "state": "GA", "country": "United States"}}}}]}, "standing": {"placement": 1, "stats": {"score": {"value": 2}}}}, {"id": "91758397-1", "entrant": {"id": 20763115, "name": "Buddy3k", "participants": [{"id": 19108661, "gamerTag": "Buddy3k", "prefix": "", "user": {"location": {"city": "Atlanta", "state": "GA", "country": "United States"}}, "player": {"id": 4443794, "gamerTag": "Buddy3k", "prefix": "", "user": {"location": {"city": "Atlanta", "state": "GA", "country": "United States"}}}}]}, "standing": {"placement": 2, "stats": {"score": {"value": 1}}}}], "games": null}, {"id": 91758398, "state": 3, "round": 3, "fullRoundText": "Winners Semi-Final", "completedAt": 1753324183, "winnerId": 20755491, "slots": [{"id": "91758398-0", "entrant": {"id": 20755491, "name": "4o4 | KhalRhaego", "participants": [{"id": 19101146, "gamerTag": "KhalRhaego", "prefix": "4o4", "user": {"location": {"city": "Jonesboro", "state": "GA", "country": "United States"}}, "player": {"id": 4076327, "gamerTag": "KhalRhaego", "prefix": "BOLT", "user": {"location": {"city": "Jonesboro", "state": "GA", "country": "United States"}}}}]}, "standing": {"placement": 1, "stats": {"score": {"value": 2}}}}, {"id": "91758398-1", "entrant": {"id": 20747432, "name": "juice", "participants": [{"id": 19093162, "gamerTag": "juice", "prefix": "", "user": {"location": {"city": "atlanta", "state": "GA", "country": "United States"}}, "player": {"id": 146905, "gamerTag": "juice", "prefix": "100%", "user": {"location": {"city": "atlanta", "state": "GA", "country": "United States"}}}}]}, "standing": {"placement": 2, "stats": {"score": {"value": 0}}}}], "games": null}, {"id": 91758429, "state": 3, "round": -6, "fullRoundText": "Losers Quarter-Final", "completedAt": 1753325548, "winnerId": 20747432, "slots": [{"id": "91758429-0", "entrant": {"id": 20747432, "name": "juice", "participants": [{"id": 19093162, "gamerTag": "juice", "prefix": "", "user": {"location": {"city": "atlanta", "state": "GA", "country": "United States"}}, "player": {"id": 146905, "gamerTag": "juice", "prefix": "100%", "user": {"location": {"city": "atlanta", "state": "GA", "country": "United States"}}}}]}, "standing": {"placement": 1, "stats": {"score": {"value": 3}}}}, {"id": "91758429-1", "entrant": {"id": 20696196, "name": "Nurikami", "participants": [{"id": 19048321, "gamerTag": "Nurikami", "prefix": null, "user": {"location": {"city": "Sandy Springs", "state": "GA", "country": "United States"}}, "player": {"id": 2894467, "gamerTag": "Nurikami", "prefix": null, "user": {"location": {"city": "Sandy Springs", "state": "GA", "country": "United States"}}}}]}, "standing": {"placement": 2, "stats": {"score": {"value": 0}}}}], "games": [{"id": 31469678, "orderNum": 1, "winnerId": 20747432, "entrant1Score": null, "entrant2Score": null, "stage": null, "selections": [{"id": 46323820, "selectionType": "CHARACTER", "selectionValue": 2420, "entrant": {"id": 20696196}, "character": {"id": 2420, "name": "Lars"}}, {"id": 46323822, "selectionType": "CHARACTER", "selectionValue": 2418, "entrant": {"id": 20747432}, "character": {"id": 2418, "name": "King"}}]}, {"id": 31469680, "orderNum": 2, "winnerId": 20747432, "entrant1Score": null, "entrant2Score": null, "stage": null, "selections": [{"id": 46323824, "selectionType": "CHARACTER", "selectionValue": 2420, "entrant": {"id": 20696196}, "character": {"id": 2420, "name": "Lars"}}, {"id": 46323825, "selectionType": "CHARACTER", "selectionValue": 2418, "entrant": {"id": 20747432}, "character": {"id": 2418, "name": "King"}}]}, {"id": 31469681, "orderNum": 3, "winnerId": 20747432, "entrant1Score": null, "entrant2Score": null, "stage": null, "selections": [{"id": 46323826, "selectionType": "CHARACTER", "selectionValue": 2420, "entrant": {"id": 20696196}, "character": {"id": 2420, "name": "Lars"}}, {"id": 46323827, "selectionType": "CHARACTER", "selectionValue": 2418, "entrant": {"id": 20747432}, "character": {"id": 2418, "name": "King"}}]}]}, {"id": 91758428, "state": 3, "round": -6, "fullRoundText": "Losers Quarter-Final", "completedAt": 1753325580, "winnerId": 20782146, "slots": [{"id": "91758428-0", "entrant": {"id": 20763115, "name": "Buddy3k", "participants": [{"id": 19108661, "gamerTag": "Buddy3k", "prefix": "", "user": {"location": {"city": "Atlanta", "state": "GA", "country": "United States"}}, "player": {"id": 4443794, "gamerTag": "Buddy3k", "prefix": "", "user": {"location": {"city": "Atlanta", "state": "GA", "country": "United States"}}}}]}, "standing": {"placement": 2, "stats": {"score": {"value": 0}}}}, {"id": "91758428-1", "entrant": {"id": 20782146, "name": "Free | Sereni", "participants": [{"id": 19126113, "gamerTag": "Sereni", "prefix": "Free", "user": {"location": {"city": null, "state": null, "country": "United States"}}, "player": {"id": 482535, "gamerTag": "Sereni", "prefix": "Free", "user": {"location": {"city": null, "state": null, "country": "United States"}}}}]}, "standing": {"placement": 1, "stats": {"score": {"value": 3}}}}], "games": [{"id": 31469703, "orderNum": 1, "winnerId": 20782146, "entrant1Score": null, "entrant2Score": null, "stage": null, "selections": [{"id": 46323862, "selectionType": "CHARACTER", "selectionValue": 2409, "entrant": {"id": 20763115}, "character": {"id": 2409, "name": "Bryan"}}, {"id": 46323863, "selectionType": "CHARACTER", "selectionValue": 2415, "entrant": {"id": 20782146}, "character": {"id": 2415, "name": "Jin"}}]}, {"id": 31469704, "orderNum": 2, "winnerId": 20782146, "entrant1Score": null, "entrant2Score": null, "stage": null, "selections": [{"id": 46323864, "selectionType": "CHARACTER", "selectionValue": 2409, "entrant": {"id": 20763115}, "character": {"id": 2409, "name": "Bryan"}}, {"id": 46323865, "selectionType": "CHARACTER", "selectionValue": 2415, "entrant": {"id": 20782146}, "character": {"id": 2415, "name": "Jin"}}]}, {"id": 31469705, "orderNum": 3, "winnerId": 20782146, "entrant1Score": null, "entrant2Score": null, "stage": null, "selections": [{"id": 46323866, "selectionType": "CHARACTER", "selectionValue": 2409, "entrant": {"id": 20763115}, "character": {"id": 2409, "name": "Bryan"}}, {"id": 46323867, "selectionType": "CHARACTER", "selectionValue": 2415, "entrant": {"id": 20782146}, "character": {"id": 2415, "name": "Jin"}}]}]}, {"id": 91758426, "state": 3, "round": -5, "fullRoundText": "Losers Round 3", "completedAt": 1753325612, "winnerId": 20782146, "slots": [{"id": "91758426-0", "entrant": {"id": 20768136, "name": "KSU | Murasaki Cho", "participants": [{"id": 19113330, "gamerTag": "Murasaki Cho", "prefix": "KSU", "user": {"location": {"city": "Dallas", "state": "GA", "country": "United States"}}, "player": {"id": 1232271, "gamerTag": "Murasaki Cho", "prefix": "KSU", "user": {"location": {"city": "Dallas", "state": "GA", "country": "United States"}}}}]}, "standing": {"placement": 2, "stats": {"score": {"value": 0}}}}, {"id": "91758426-1", "entrant": {"id": 20782146, "name": "Free | Sereni", "participants": [{"id": 19126113, "gamerTag": "Sereni", "prefix": "Free", "user": {"location": {"city": null, "state": null, "country": "United States"}}, "player": {"id": 482535, "gamerTag": "Sereni", "prefix": "Free", "user": {"location": {"city": null, "state": null, "country": "United States"}}}}]}, "standing": {"placement": 1, "stats": {"score": {"value": 2}}}}], "games": [{"id": 31469728, "orderNum": 1, "winnerId": 20782146, "entrant1Score": null, "entrant2Score": null, "stage": null, "selections": [{"id": 46323904, "selectionType": "CHARACTER", "selectionValue": 2424, "entrant": {"id": 20768136}, "character": {"id": 2424, "name": "Lili"}}, {"id": 46323905, "selectionType": "CHARACTER", "selectionValue": 2415, "entrant": {"id": 20782146}, "character": {"id": 2415, "name": "Jin"}}]}, {"id": 31469729, "orderNum": 2, "winnerId": 20782146, "entrant1Score": null, "entrant2Score": null, "stage": null, "selections": [{"id": 46323906, "selectionType": "CHARACTER", "selectionValue": 2424, "entrant": {"id": 20768136}, "character": {"id": 2424, "name": "Lili"}}, {"id": 46323907, "selectionType": "CHARACTER", "selectionValue": 2415, "entrant": {"id": 20782146}, "character": {"id": 2415, "name": "Jin"}}]}, {"id": 31469730, "orderNum": 3, "winnerId": null, "entrant1Score": null, "entrant2Score": null, "stage": null, "selections": null}]}, {"id": 91758427, "state": 3, "round": -5, "fullRoundText": "Losers Round 3", "completedAt": 1753325636, "winnerId": 20696196, "slots": [{"id": "91758427-0", "entrant": {"id": 20696196, "name": "Nurikami", "participants": [{"id": 19048321, "gamerTag": "Nurikami", "prefix": null, "user": {"location": {"city": "Sandy Springs", "state": "GA", "country": "United States"}}, "player": {"id": 2894467, "gamerTag": "Nurikami", "prefix": null, "user": {"location": {"city": "Sandy Springs", "state": "GA", "country": "United States"}}}}]}, "standing": {"placement": 1, "stats": {"score": {"value": 2}}}}, {"id": "91758427-1", "entrant": {"id": 20782002, "name": "Crunchii", "participants": [{"id": 19126004, "gamerTag": "Crunchii", "prefix": "", "user": null, "player": {"id": 4888190, "gamerTag": "Crunchii", "prefix": "", "user": null}}]}, "standing": {"placement": 2, "stats": {"score": {"value": 0}}}}], "games": [{"id": 31469752, "orderNum": 1, "winnerId": 20696196, "entrant1Score": null, "entrant2Score": null, "stage": null, "selections": [{"id": 46323948, "selectionType": "CHARACTER", "selectionValue": 2420, "entrant": {"id": 20696196}, "character": {"id": 2420, "name": "Lars"}}, {"id": 46323949, "selectionType": "CHARACTER", "selectionValue": 2700, "entrant": {"id": 20782002}, "character": {"id": 2700, "name": "Fahkumram"}}]}, {"id": 31469753, "orderNum": 2, "winnerId": 20696196, "entrant1Score": null, "entrant2Score": null, "stage": null, "selections": [{"id": 46323950, "selectionType": "CHARACTER", "selectionValue": 2420, "entrant": {"id": 20696196}, "character": {"id": 2420, "name": "Lars"}}, {"id": 46323951, "selectionType": "CHARACTER", "selectionValue": 2700, "entrant": {"id": 20782002}, "character": {"id": 2700, "name": "Fahkumram"}}]}]}, {"id": 91758393, "state": 3, "round": 2, "fullRoundText": "Winners Quarter-Final", "completedAt": 1753321293, "winnerId": 20704448, "slots": [{"id": "91758393-0", "entrant": {"id": 20704448, "name": "StrataJay", "participants": [{"id": 19055265, "gamerTag": "StrataJay", "prefix": "", "user": {"location": {"city": "Grayson", "state": "GA", "country": "United States"}}, "player": {"id": 1112189, "gamerTag": "StrataJay", "prefix": "", "user": {"location": {"city": "Grayson", "state": "GA", "country": "United States"}}}}]}, "standing": {"placement": 1, "stats": {"score": {"value": 2}}}}, {"id": "91758393-1", "entrant": {"id": 20782002, "name": "Crunchii", "participants": [{"id": 19126004, "gamerTag": "Crunchii", "prefix": "", "user": null, "player": {"id": 4888190, "gamerTag": "Crunchii", "prefix": "", "user": null}}]}, "standing": {"placement": 2, "stats": {"score": {"value": 0}}}}], "games": null}, {"id": 91758394, "state": 3, "round": 2, "fullRoundText": "Winners Quarter-Final", "completedAt": 1753321109, "winnerId": 20763115, "slots": [{"id": "91758394-0", "entrant": {"id": 20782102, "name": "Tim", "participants": [{"id": 19126082, "gamerTag": "Tim", "prefix": "", "user": null, "player": {"id": 4888205, "gamerTag": "Tim", "prefix": "", "user": null}}]}, "standing": {"placement": 2, "stats": {"score": {"value": -1}}}}, {"id": "91758394-1", "entrant": {"id": 20763115, "name": "Buddy3k", "participants": [{"id": 19108661, "gamerTag": "Buddy3k", "prefix": "", "user": {"location": {"city": "Atlanta", "state": "GA", "country": "United States"}}, "player": {"id": 4443794, "gamerTag": "Buddy3k", "prefix": "", "user": {"location": {"city": "Atlanta", "state": "GA", "country": "United States"}}}}]}, "standing": {"placement": 1, "stats": {"score": {"value": null}}}}], "games": null}, {"id": 91758395, "state": 3, "round": 2, "fullRoundText": "Winners Quarter-Final", "completedAt": 1753322584, "winnerId": 20755491, "slots": [{"id": "91758395-0", "entrant": {"id": 20755491, "name": "4o4 | KhalRhaego", "participants": [{"id": 19101146, "gamerTag": "KhalRhaego", "prefix": "4o4", "user": {"location": {"city": "Jonesboro", "state": "GA", "country": "United States"}}, "player": {"id": 4076327, "gamerTag": "KhalRhaego", "prefix": "BOLT", "user": {"location": {"city": "Jonesboro", "state": "GA", "country": "United States"}}}}]}, "standing": {"placement": 1, "stats": {"score": {"value": 2}}}}, {"id": "91758395-1", "entrant": {"id": 20782146, "name": "Free | Sereni", "participants": [{"id": 19126113, "gamerTag": "Sereni", "prefix": "Free", "user": {"location": {"city": null, "state": null, "country": "United States"}}, "player": {"id": 482535, "gamerTag": "Sereni", "prefix": "Free", "user": {"location": {"city": null, "state": null, "country": "United States"}}}}]}, "standing": {"placement": 2, "stats": {"score": {"value": 0}}}}], "games": null}, {"id": 91758396, "state": 3, "round": 2, "fullRoundText": "Winners Quarter-Final", "completedAt": 1753321691, "winnerId": 20747432, "slots": [{"id": "91758396-0", "entrant": {"id": 20747432, "name": "juice", "participants": [{"id": 19093162, "gamerTag": "juice", "prefix": "", "user": {"location": {"city": "atlanta", "state": "GA", "country": "United States"}}, "player": {"id": 146905, "gamerTag": "juice", "prefix": "100%", "user": {"location": {"city": "atlanta", "state": "GA", "country": "United States"}}}}]}, "standing": {"placement": 1, "stats": {"score": {"value": 2}}}}, {"id": "91758396-1", "entrant": {"id": 20782106, "name": "RM | WFF | Sakruoi", "participants": [{"id": 19126085, "gamerTag": "Sakruoi", "prefix": "RM | WFF", "user": {"location": {"city": "atlanta", "state": "GA", "country": "United States"}}, "player": {"id": 1230555, "gamerTag": "Sakruoi", "prefix": "RM | WFF", "user": {"location": {"city": "atlanta", "state": "GA", "country": "United States"}}}}]}, "standing": {"placement": 2, "stats": {"score": {"value": 0}}}}], "games": null}]}}}