{"event": {"sets": {"pageInfo": {"totalPages": 3, "total": 32}, "nodes": [{"id": 91655328, "state": 3, "round": 7, "fullRoundText": "Round 7", "completedAt": 1753042052, "winnerId": 20741083, "slots": [{"id": "91655328-0", "entrant": {"id": 20741083, "name": "Nyramyss", "participants": [{"id": 19087063, "gamerTag": "Nyramyss", "prefix": "", "user": {"location": {"city": "Acworth", "state": "GA", "country": "United States"}}, "player": {"id": 2648735, "gamerTag": "Nyramyss", "prefix": "", "user": {"location": {"city": "Acworth", "state": "GA", "country": "United States"}}}}]}, "standing": {"placement": 1, "stats": {"score": {"value": null}}}}, {"id": "91655328-1", "entrant": {"id": 20736213, "name": "Puke", "participants": [{"id": 19082937, "gamerTag": "Puke", "prefix": "", "user": {"location": {"city": null, "state": "GA", "country": "United States"}}, "player": {"id": 400199, "gamerTag": "Alting", "prefix": "", "user": {"location": {"city": null, "state": "GA", "country": "United States"}}}}]}, "standing": {"placement": 2, "stats": {"score": {"value": -1}}}}], "games": null}, {"id": 91655329, "state": 3, "round": 7, "fullRoundText": "Round 7", "completedAt": 1753042702, "winnerId": 20720056, "slots": [{"id": "91655329-0", "entrant": {"id": 20720056, "name": "LADZ | Gunstar3888", "participants": [{"id": 19069227, "gamerTag": "Gunstar3888", "prefix": "LADZ", "user": {"location": {"city": null, "state": null, "country": null}}, "player": {"id": 1313518, "gamerTag": "Gunstar3888", "prefix": "LADZ", "user": {"location": {"city": null, "state": null, "country": null}}}}]}, "standing": {"placement": 1, "stats": {"score": {"value": 2}}}}, {"id": "91655329-1", "entrant": {"id": 20747994, "name": "librakitty", "participants": [{"id": 19093574, "gamerTag": "librakitty", "prefix": "", "user": {"location": {"city": "Carrollton", "state": "GA", "country": "United States"}}, "player": {"id": 4796441, "gamerTag": "librakitty", "prefix": "", "user": {"location": {"city": "Carrollton", "state": "GA", "country": "United States"}}}}]}, "standing": {"placement": 2, "stats": {"score": {"value": 0}}}}], "games": [{"id": 31402209, "orderNum": 1, "winnerId": 20720056, "entrant1Score": null, "entrant2Score": 0, "stage": null, "selections": [{"id": 46227327, "selectionType": "CHARACTER", "selectionValue": 1407, "entrant": {"id": 20720056}, "character": {"id": 1407, "name": "King K. Rool"}}, {"id": 46227328, "selectionType": "CHARACTER", "selectionValue": 1897, "entrant": {"id": 20747994}, "character": {"id": 1897, "name": "Sora"}}]}, {"id": 31402210, "orderNum": 2, "winnerId": 20720056, "entrant1Score": null, "entrant2Score": 0, "stage": null, "selections": [{"id": 46227329, "selectionType": "CHARACTER", "selectionValue": 1530, "entrant": {"id": 20720056}, "character": {"id": 1530, "name": "Banjo-Kazooie"}}, {"id": 46227330, "selectionType": "CHARACTER", "selectionValue": 1897, "entrant": {"id": 20747994}, "character": {"id": 1897, "name": "Sora"}}]}]}, {"id": 91655326, "state": 3, "round": 7, "fullRoundText": "Round 7", "completedAt": 1753043114, "winnerId": 20652317, "slots": [{"id": "91655326-0", "entrant": {"id": 20652317, "name": "ROB Slayer", "participants": [{"id": 19010408, "gamerTag": "ROB Slayer", "prefix": null, "user": {"location": {"city": "Atlanta", "state": "GA", "country": "United States"}}, "player": {"id": 2414381, "gamerTag": "ROB Slayer", "prefix": "Hell Mode", "user": {"location": {"city": "Atlanta", "state": "GA", "country": "United States"}}}}]}, "standing": {"placement": 1, "stats": {"score": {"value": 2}}}}, {"id": "91655326-1", "entrant": {"id": 20749971, "name": "punk2 | tape", "participants": [{"id": 19094661, "gamerTag": "tape", "prefix": "punk2", "user": {"location": {"city": "Douglasville", "state": "GA", "country": "United States"}}, "player": {"id": 2493488, "gamerTag": "tape", "prefix": "punk2", "user": {"location": {"city": "Douglasville", "state": "GA", "country": "United States"}}}}]}, "standing": {"placement": 2, "stats": {"score": {"value": 0}}}}], "games": [{"id": 31402386, "orderNum": 1, "winnerId": 20652317, "entrant1Score": null, "entrant2Score": 0, "stage": null, "selections": [{"id": 46227642, "selectionType": "CHARACTER", "selectionValue": 1323, "entrant": {"id": 20652317}, "character": {"id": 1323, "name": "R.O.B."}}, {"id": 46227643, "selectionType": "CHARACTER", "selectionValue": 1279, "entrant": {"id": 20749971}, "character": {"id": 1279, "name": "Diddy Kong"}}]}, {"id": 31402387, "orderNum": 2, "winnerId": 20652317, "entrant1Score": null, "entrant2Score": 0, "stage": null, "selections": [{"id": 46227644, "selectionType": "CHARACTER", "selectionValue": 1323, "entrant": {"id": 20652317}, "character": {"id": 1323, "name": "R.O.B."}}, {"id": 46227645, "selectionType": "CHARACTER", "selectionValue": 1279, "entrant": {"id": 20749971}, "character": {"id": 1279, "name": "Diddy Kong"}}]}]}, {"id": 91655327, "state": 3, "round": 7, "fullRoundText": "Round 7", "completedAt": 1753041989, "winnerId": 20719705, "slots": [{"id": "91655327-0", "entrant": {"id": 20719705, "name": "ballmeat", "participants": [{"id": 19068884, "gamerTag": "ballmeat", "prefix": null, "user": {"location": {"city": "Alexandria", "state": "VA", "country": "United States"}}, "player": {"id": 2295476, "gamerTag": "ballmeat", "prefix": null, "user": {"location": {"city": "Alexandria", "state": "VA", "country": "United States"}}}}]}, "standing": {"placement": 1, "stats": {"score": {"value": null}}}}, {"id": "91655327-1", "entrant": {"id": 20663114, "name": "GG | varunk", "participants": [{"id": 19019970, "gamerTag": "varunk", "prefix": "GG", "user": {"location": {"city": "Marietta", "state": "GA", "country": "United States"}}, "player": {"id": 1653684, "gamerTag": "varunk", "prefix": "GG", "user": {"location": {"city": "Marietta", "state": "GA", "country": "United States"}}}}]}, "standing": {"placement": 2, "stats": {"score": {"value": -1}}}}], "games": null}, {"id": 91655322, "state": 3, "round": 6, "fullRoundText": "Round 6", "completedAt": 1753042323, "winnerId": 20652317, "slots": [{"id": "91655322-0", "entrant": {"id": 20652317, "name": "ROB Slayer", "participants": [{"id": 19010408, "gamerTag": "ROB Slayer", "prefix": null, "user": {"location": {"city": "Atlanta", "state": "GA", "country": "United States"}}, "player": {"id": 2414381, "gamerTag": "ROB Slayer", "prefix": "Hell Mode", "user": {"location": {"city": "Atlanta", "state": "GA", "country": "United States"}}}}]}, "standing": {"placement": 1, "stats": {"score": {"value": 2}}}}, {"id": "91655322-1", "entrant": {"id": 20719705, "name": "ballmeat", "participants": [{"id": 19068884, "gamerTag": "ballmeat", "prefix": null, "user": {"location": {"city": "Alexandria", "state": "VA", "country": "United States"}}, "player": {"id": 2295476, "gamerTag": "ballmeat", "prefix": null, "user": {"location": {"city": "Alexandria", "state": "VA", "country": "United States"}}}}]}, "standing": {"placement": 2, "stats": {"score": {"value": 0}}}}], "games": [{"id": 31402067, "orderNum": 1, "winnerId": 20652317, "entrant1Score": null, "entrant2Score": 0, "stage": null, "selections": [{"id": 46227124, "selectionType": "CHARACTER", "selectionValue": 1323, "entrant": {"id": 20652317}, "character": {"id": 1323, "name": "R.O.B."}}, {"id": 46227125, "selectionType": "CHARACTER", "selectionValue": 1302, "entrant": {"id": 20719705}, "character": {"id": 1302, "name": "Mario"}}]}, {"id": 31402068, "orderNum": 2, "winnerId": 20652317, "entrant1Score": null, "entrant2Score": 0, "stage": null, "selections": [{"id": 46227126, "selectionType": "CHARACTER", "selectionValue": 1332, "entrant": {"id": 20652317}, "character": {"id": 1332, "name": "Sonic"}}, {"id": 46227127, "selectionType": "CHARACTER", "selectionValue": 1302, "entrant": {"id": 20719705}, "character": {"id": 1302, "name": "Mario"}}]}]}, {"id": 91655323, "state": 3, "round": 6, "fullRoundText": "Round 6", "completedAt": 1753045827, "winnerId": 20749971, "slots": [{"id": "91655323-0", "entrant": {"id": 20741083, "name": "Nyramyss", "participants": [{"id": 19087063, "gamerTag": "Nyramyss", "prefix": "", "user": {"location": {"city": "Acworth", "state": "GA", "country": "United States"}}, "player": {"id": 2648735, "gamerTag": "Nyramyss", "prefix": "", "user": {"location": {"city": "Acworth", "state": "GA", "country": "United States"}}}}]}, "standing": {"placement": 2, "stats": {"score": {"value": 1}}}}, {"id": "91655323-1", "entrant": {"id": 20749971, "name": "punk2 | tape", "participants": [{"id": 19094661, "gamerTag": "tape", "prefix": "punk2", "user": {"location": {"city": "Douglasville", "state": "GA", "country": "United States"}}, "player": {"id": 2493488, "gamerTag": "tape", "prefix": "punk2", "user": {"location": {"city": "Douglasville", "state": "GA", "country": "United States"}}}}]}, "standing": {"placement": 1, "stats": {"score": {"value": 2}}}}], "games": [{"id": 31403438, "orderNum": 1, "winnerId": 20741083, "entrant1Score": null, "entrant2Score": 0, "stage": null, "selections": [{"id": 46229297, "selectionType": "CHARACTER", "selectionValue": 1325, "entrant": {"id": 20741083}, "character": {"id": 1325, "name": "Rosalina"}}, {"id": 46229298, "selectionType": "CHARACTER", "selectionValue": 1279, "entrant": {"id": 20749971}, "character": {"id": 1279, "name": "Diddy Kong"}}]}, {"id": 31403439, "orderNum": 2, "winnerId": 20749971, "entrant1Score": 0, "entrant2Score": null, "stage": null, "selections": [{"id": 46229299, "selectionType": "CHARACTER", "selectionValue": 1325, "entrant": {"id": 20741083}, "character": {"id": 1325, "name": "Rosalina"}}, {"id": 46229300, "selectionType": "CHARACTER", "selectionValue": 1279, "entrant": {"id": 20749971}, "character": {"id": 1279, "name": "Diddy Kong"}}]}, {"id": 31403440, "orderNum": 3, "winnerId": 20749971, "entrant1Score": 0, "entrant2Score": null, "stage": null, "selections": [{"id": 46229301, "selectionType": "CHARACTER", "selectionValue": 1325, "entrant": {"id": 20741083}, "character": {"id": 1325, "name": "Rosalina"}}, {"id": 46229302, "selectionType": "CHARACTER", "selectionValue": 1279, "entrant": {"id": 20749971}, "character": {"id": 1279, "name": "Diddy Kong"}}]}]}, {"id": 91655324, "state": 3, "round": 6, "fullRoundText": "Round 6", "completedAt": 1753042014, "winnerId": 20720056, "slots": [{"id": "91655324-0", "entrant": {"id": 20720056, "name": "LADZ | Gunstar3888", "participants": [{"id": 19069227, "gamerTag": "Gunstar3888", "prefix": "LADZ", "user": {"location": {"city": null, "state": null, "country": null}}, "player": {"id": 1313518, "gamerTag": "Gunstar3888", "prefix": "LADZ", "user": {"location": {"city": null, "state": null, "country": null}}}}]}, "standing": {"placement": 1, "stats": {"score": {"value": null}}}}, {"id": "91655324-1", "entrant": {"id": 20663114, "name": "GG | varunk", "participants": [{"id": 19019970, "gamerTag": "varunk", "prefix": "GG", "user": {"location": {"city": "Marietta", "state": "GA", "country": "United States"}}, "player": {"id": 1653684, "gamerTag": "varunk", "prefix": "GG", "user": {"location": {"city": "Marietta", "state": "GA", "country": "United States"}}}}]}, "standing": {"placement": 2, "stats": {"score": {"value": -1}}}}], "games": null}, {"id": 91655325, "state": 3, "round": 6, "fullRoundText": "Round 6", "completedAt": 1753042071, "winnerId": 20747994, "slots": [{"id": "91655325-0", "entrant": {"id": 20747994, "name": "librakitty", "participants": [{"id": 19093574, "gamerTag": "librakitty", "prefix": "", "user": {"location": {"city": "Carrollton", "state": "GA", "country": "United States"}}, "player": {"id": 4796441, "gamerTag": "librakitty", "prefix": "", "user": {"location": {"city": "Carrollton", "state": "GA", "country": "United States"}}}}]}, "standing": {"placement": 1, "stats": {"score": {"value": null}}}}, {"id": "91655325-1", "entrant": {"id": 20736213, "name": "Puke", "participants": [{"id": 19082937, "gamerTag": "Puke", "prefix": "", "user": {"location": {"city": null, "state": "GA", "country": "United States"}}, "player": {"id": 400199, "gamerTag": "Alting", "prefix": "", "user": {"location": {"city": null, "state": "GA", "country": "United States"}}}}]}, "standing": {"placement": 2, "stats": {"score": {"value": -1}}}}], "games": null}, {"id": 91655318, "state": 3, "round": 5, "fullRoundText": "Round 5", "completedAt": 1753044053, "winnerId": 20652317, "slots": [{"id": "91655318-0", "entrant": {"id": 20652317, "name": "ROB Slayer", "participants": [{"id": 19010408, "gamerTag": "ROB Slayer", "prefix": null, "user": {"location": {"city": "Atlanta", "state": "GA", "country": "United States"}}, "player": {"id": 2414381, "gamerTag": "ROB Slayer", "prefix": "Hell Mode", "user": {"location": {"city": "Atlanta", "state": "GA", "country": "United States"}}}}]}, "standing": {"placement": 1, "stats": {"score": {"value": 2}}}}, {"id": "91655318-1", "entrant": {"id": 20741083, "name": "Nyramyss", "participants": [{"id": 19087063, "gamerTag": "Nyramyss", "prefix": "", "user": {"location": {"city": "Acworth", "state": "GA", "country": "United States"}}, "player": {"id": 2648735, "gamerTag": "Nyramyss", "prefix": "", "user": {"location": {"city": "Acworth", "state": "GA", "country": "United States"}}}}]}, "standing": {"placement": 2, "stats": {"score": {"value": 0}}}}], "games": [{"id": 31402718, "orderNum": 1, "winnerId": 20652317, "entrant1Score": null, "entrant2Score": 0, "stage": null, "selections": [{"id": 46228152, "selectionType": "CHARACTER", "selectionValue": 1323, "entrant": {"id": 20652317}, "character": {"id": 1323, "name": "R.O.B."}}, {"id": 46228153, "selectionType": "CHARACTER", "selectionValue": 1325, "entrant": {"id": 20741083}, "character": {"id": 1325, "name": "Rosalina"}}]}, {"id": 31402719, "orderNum": 2, "winnerId": 20652317, "entrant1Score": null, "entrant2Score": 0, "stage": null, "selections": [{"id": 46228154, "selectionType": "CHARACTER", "selectionValue": 1332, "entrant": {"id": 20652317}, "character": {"id": 1332, "name": "Sonic"}}, {"id": 46228155, "selectionType": "CHARACTER", "selectionValue": 1325, "entrant": {"id": 20741083}, "character": {"id": 1325, "name": "Rosalina"}}]}]}, {"id": 91655319, "state": 3, "round": 5, "fullRoundText": "Round 5", "completedAt": 1753046192, "winnerId": 20719705, "slots": [{"id": "91655319-0", "entrant": {"id": 20720056, "name": "LADZ | Gunstar3888", "participants": [{"id": 19069227, "gamerTag": "Gunstar3888", "prefix": "LADZ", "user": {"location": {"city": null, "state": null, "country": null}}, "player": {"id": 1313518, "gamerTag": "Gunstar3888", "prefix": "LADZ", "user": {"location": {"city": null, "state": null, "country": null}}}}]}, "standing": {"placement": 2, "stats": {"score": {"value": 0}}}}, {"id": "91655319-1", "entrant": {"id": 20719705, "name": "ballmeat", "participants": [{"id": 19068884, "gamerTag": "ballmeat", "prefix": null, "user": {"location": {"city": "Alexandria", "state": "VA", "country": "United States"}}, "player": {"id": 2295476, "gamerTag": "ballmeat", "prefix": null, "user": {"location": {"city": "Alexandria", "state": "VA", "country": "United States"}}}}]}, "standing": {"placement": 1, "stats": {"score": {"value": 2}}}}], "games": [{"id": 31403581, "orderNum": 1, "winnerId": 20719705, "entrant1Score": 0, "entrant2Score": null, "stage": null, "selections": [{"id": 46229535, "selectionType": "CHARACTER", "selectionValue": 1302, "entrant": {"id": 20719705}, "character": {"id": 1302, "name": "Mario"}}, {"id": 46229536, "selectionType": "CHARACTER", "selectionValue": 1407, "entrant": {"id": 20720056}, "character": {"id": 1407, "name": "King K. Rool"}}]}, {"id": 31403582, "orderNum": 2, "winnerId": 20719705, "entrant1Score": 0, "entrant2Score": null, "stage": null, "selections": [{"id": 46229537, "selectionType": "CHARACTER", "selectionValue": 1846, "entrant": {"id": 20719705}, "character": {"id": 1846, "name": "Kazuya"}}, {"id": 46229538, "selectionType": "CHARACTER", "selectionValue": 1407, "entrant": {"id": 20720056}, "character": {"id": 1407, "name": "King K. Rool"}}]}]}, {"id": 91655320, "state": 3, "round": 5, "fullRoundText": "Round 5", "completedAt": 1753044953, "winnerId": 20749971, "slots": [{"id": "91655320-0", "entrant": {"id": 20747994, "name": "librakitty", "participants": [{"id": 19093574, "gamerTag": "librakitty", "prefix": "", "user": {"location": {"city": "Carrollton", "state": "GA", "country": "United States"}}, "player": {"id": 4796441, "gamerTag": "librakitty", "prefix": "", "user": {"location": {"city": "Carrollton", "state": "GA", "country": "United States"}}}}]}, "standing": {"placement": 2, "stats": {"score": {"value": 0}}}}, {"id": "91655320-1", "entrant": {"id": 20749971, "name": "punk2 | tape", "participants": [{"id": 19094661, "gamerTag": "tape", "prefix": "punk2", "user": {"location": {"city": "Douglasville", "state": "GA", "country": "United States"}}, "player": {"id": 2493488, "gamerTag": "tape", "prefix": "punk2", "user": {"location": {"city": "Douglasville", "state": "GA", "country": "United States"}}}}]}, "standing": {"placement": 1, "stats": {"score": {"value": 2}}}}], "games": [{"id": 31403022, "orderNum": 1, "winnerId": 20749971, "entrant1Score": 0, "entrant2Score": 0, "stage": null, "selections": [{"id": 46228665, "selectionType": "CHARACTER", "selectionValue": 1897, "entrant": {"id": 20747994}, "character": {"id": 1897, "name": "Sora"}}, {"id": 46228666, "selectionType": "CHARACTER", "selectionValue": 1296, "entrant": {"id": 20749971}, "character": {"id": 1296, "name": "Link"}}]}, {"id": 31403023, "orderNum": 2, "winnerId": 20749971, "entrant1Score": 0, "entrant2Score": null, "stage": null, "selections": [{"id": 46228667, "selectionType": "CHARACTER", "selectionValue": 1897, "entrant": {"id": 20747994}, "character": {"id": 1897, "name": "Sora"}}, {"id": 46228668, "selectionType": "CHARACTER", "selectionValue": 1276, "entrant": {"id": 20749971}, "character": {"id": 1276, "name": "Corrin"}}]}]}, {"id": 91655321, "state": 3, "round": 5, "fullRoundText": "Round 5", "completedAt": 1753042025, "winnerId": 20736213, "slots": [{"id": "91655321-0", "entrant": {"id": 20736213, "name": "Puke", "participants": [{"id": 19082937, "gamerTag": "Puke", "prefix": "", "user": {"location": {"city": null, "state": "GA", "country": "United States"}}, "player": {"id": 400199, "gamerTag": "Alting", "prefix": "", "user": {"location": {"city": null, "state": "GA", "country": "United States"}}}}]}, "standing": {"placement": 1, "stats": {"score": {"value": null}}}}, {"id": "91655321-1", "entrant": {"id": 20663114, "name": "GG | varunk", "participants": [{"id": 19019970, "gamerTag": "varunk", "prefix": "GG", "user": {"location": {"city": "Marietta", "state": "GA", "country": "United States"}}, "player": {"id": 1653684, "gamerTag": "varunk", "prefix": "GG", "user": {"location": {"city": "Marietta", "state": "GA", "country": "United States"}}}}]}, "standing": {"placement": 2, "stats": {"score": {"value": -1}}}}], "games": null}, {"id": 91655314, "state": 3, "round": 4, "fullRoundText": "Round 4", "completedAt": 1753044986, "winnerId": 20652317, "slots": [{"id": "91655314-0", "entrant": {"id": 20652317, "name": "ROB Slayer", "participants": [{"id": 19010408, "gamerTag": "ROB Slayer", "prefix": null, "user": {"location": {"city": "Atlanta", "state": "GA", "country": "United States"}}, "player": {"id": 2414381, "gamerTag": "ROB Slayer", "prefix": "Hell Mode", "user": {"location": {"city": "Atlanta", "state": "GA", "country": "United States"}}}}]}, "standing": {"placement": 1, "stats": {"score": {"value": 2}}}}, {"id": "91655314-1", "entrant": {"id": 20720056, "name": "LADZ | Gunstar3888", "participants": [{"id": 19069227, "gamerTag": "Gunstar3888", "prefix": "LADZ", "user": {"location": {"city": null, "state": null, "country": null}}, "player": {"id": 1313518, "gamerTag": "Gunstar3888", "prefix": "LADZ", "user": {"location": {"city": null, "state": null, "country": null}}}}]}, "standing": {"placement": 2, "stats": {"score": {"value": 0}}}}], "games": [{"id": 31403046, "orderNum": 1, "winnerId": 20652317, "entrant1Score": null, "entrant2Score": 0, "stage": null, "selections": [{"id": 46228685, "selectionType": "CHARACTER", "selectionValue": 1526, "entrant": {"id": 20652317}, "character": {"id": 1526, "name": "Hero"}}, {"id": 46228686, "selectionType": "CHARACTER", "selectionValue": 1407, "entrant": {"id": 20720056}, "character": {"id": 1407, "name": "King K. Rool"}}]}, {"id": 31403047, "orderNum": 2, "winnerId": 20652317, "entrant1Score": null, "entrant2Score": 0, "stage": null, "selections": [{"id": 46228687, "selectionType": "CHARACTER", "selectionValue": 1453, "entrant": {"id": 20652317}, "character": {"id": 1453, "name": "Joker"}}, {"id": 46228688, "selectionType": "CHARACTER", "selectionValue": 1530, "entrant": {"id": 20720056}, "character": {"id": 1530, "name": "Banjo-Kazooie"}}]}]}, {"id": 91655315, "state": 3, "round": 4, "fullRoundText": "Round 4", "completedAt": 1753046408, "winnerId": 20741083, "slots": [{"id": "91655315-0", "entrant": {"id": 20747994, "name": "librakitty", "participants": [{"id": 19093574, "gamerTag": "librakitty", "prefix": "", "user": {"location": {"city": "Carrollton", "state": "GA", "country": "United States"}}, "player": {"id": 4796441, "gamerTag": "librakitty", "prefix": "", "user": {"location": {"city": "Carrollton", "state": "GA", "country": "United States"}}}}]}, "standing": {"placement": 2, "stats": {"score": {"value": 0}}}}, {"id": "91655315-1", "entrant": {"id": 20741083, "name": "Nyramyss", "participants": [{"id": 19087063, "gamerTag": "Nyramyss", "prefix": "", "user": {"location": {"city": "Acworth", "state": "GA", "country": "United States"}}, "player": {"id": 2648735, "gamerTag": "Nyramyss", "prefix": "", "user": {"location": {"city": "Acworth", "state": "GA", "country": "United States"}}}}]}, "standing": {"placement": 1, "stats": {"score": {"value": 2}}}}], "games": [{"id": 31403661, "orderNum": 1, "winnerId": 20741083, "entrant1Score": 0, "entrant2Score": null, "stage": null, "selections": [{"id": 46229645, "selectionType": "CHARACTER", "selectionValue": 1325, "entrant": {"id": 20741083}, "character": {"id": 1325, "name": "Rosalina"}}, {"id": 46229646, "selectionType": "CHARACTER", "selectionValue": 1897, "entrant": {"id": 20747994}, "character": {"id": 1897, "name": "Sora"}}]}, {"id": 31403662, "orderNum": 2, "winnerId": 20741083, "entrant1Score": 0, "entrant2Score": null, "stage": null, "selections": [{"id": 46229647, "selectionType": "CHARACTER", "selectionValue": 1897, "entrant": {"id": 20741083}, "character": {"id": 1897, "name": "Sora"}}, {"id": 46229648, "selectionType": "CHARACTER", "selectionValue": 1897, "entrant": {"id": 20747994}, "character": {"id": 1897, "name": "Sora"}}]}]}, {"id": 91655316, "state": 3, "round": 4, "fullRoundText": "Round 4", "completedAt": 1753042046, "winnerId": 20719705, "slots": [{"id": "91655316-0", "entrant": {"id": 20736213, "name": "Puke", "participants": [{"id": 19082937, "gamerTag": "Puke", "prefix": "", "user": {"location": {"city": null, "state": "GA", "country": "United States"}}, "player": {"id": 400199, "gamerTag": "Alting", "prefix": "", "user": {"location": {"city": null, "state": "GA", "country": "United States"}}}}]}, "standing": {"placement": 2, "stats": {"score": {"value": -1}}}}, {"id": "91655316-1", "entrant": {"id": 20719705, "name": "ballmeat", "participants": [{"id": 19068884, "gamerTag": "ballmeat", "prefix": null, "user": {"location": {"city": "Alexandria", "state": "VA", "country": "United States"}}, "player": {"id": 2295476, "gamerTag": "ballmeat", "prefix": null, "user": {"location": {"city": "Alexandria", "state": "VA", "country": "United States"}}}}]}, "standing": {"placement": 1, "stats": {"score": {"value": null}}}}], "games": null}]}}}