{"phase": {"seeds": {"pageInfo": {"totalPages": 1, "total": 7}, "nodes": [{"id": 36297888, "seedNum": 1, "entrant": {"id": 21051888, "name": "Noodle", "participants": [{"id": 19365180, "gamerTag": "Noodle", "prefix": null, "user": {"location": {"city": "McDonough", "state": "GA", "country": "United States"}}, "player": {"id": 3029288, "gamerTag": "Noodle", "prefix": "", "user": {"location": {"city": "McDonough", "state": "GA", "country": "United States"}}}}]}}, {"id": 36205096, "seedNum": 2, "entrant": {"id": 20992038, "name": "Skate", "participants": [{"id": 19310629, "gamerTag": "Skate", "prefix": null, "user": {"location": {"city": null, "state": null, "country": "United States"}}, "player": {"id": 4045198, "gamerTag": "Skate", "prefix": null, "user": {"location": {"city": null, "state": null, "country": "United States"}}}}]}}, {"id": 36301373, "seedNum": 3, "entrant": {"id": 21054691, "name": "BP | GuyFighter", "participants": [{"id": 19367699, "gamerTag": "GuyFighter", "prefix": "BP", "user": {"location": {"city": null, "state": "GA", "country": "United States"}}, "player": {"id": 288975, "gamerTag": "GuyFighter", "prefix": "BP", "user": {"location": {"city": null, "state": "GA", "country": "United States"}}}}]}}, {"id": 36301619, "seedNum": 4, "entrant": {"id": 21054861, "name": "Coraz\u00f3nCodi", "participants": [{"id": 19367839, "gamerTag": "Coraz\u00f3nCodi", "prefix": "", "user": {"location": {"city": "Stockbridge", "state": "GA", "country": "United States"}}, "player": {"id": 295892, "gamerTag": "Coraz\u00f3nCodi", "prefix": "", "user": {"location": {"city": "Stockbridge", "state": "GA", "country": "United States"}}}}]}}, {"id": 36301389, "seedNum": 5, "entrant": {"id": 21054709, "name": "ZB | Sanaito", "participants": [{"id": 19307057, "gamerTag": "Sanaito", "prefix": "ZB", "user": {"location": {"city": "Fayetteville", "state": "GA", "country": "United States"}}, "player": {"id": 12761, "gamerTag": "Sanaito", "prefix": "ZB", "user": {"location": {"city": "Fayetteville", "state": "GA", "country": "United States"}}}}]}}, {"id": 36299274, "seedNum": 6, "entrant": {"id": 21053051, "name": "ZB | lupeslounge", "participants": [{"id": 19366287, "gamerTag": "lupeslounge", "prefix": "ZB", "user": {"location": {"city": "Morrow", "state": "GA", "country": "United States"}}, "player": {"id": 303516, "gamerTag": "lupeslounge", "prefix": "ZB", "user": {"location": {"city": "Morrow", "state": "GA", "country": "United States"}}}}]}}, {"id": 36287360, "seedNum": 7, "entrant": {"id": 21045069, "name": "Hobbit", "participants": [{"id": 19359256, "gamerTag": "Hobbit", "prefix": null, "user": {"location": {"city": null, "state": "GA", "country": "United States"}}, "player": {"id": 4025480, "gamerTag": "Hobbit", "prefix": null, "user": {"location": {"city": null, "state": "GA", "country": "United States"}}}}]}}]}}}