{"event": {"sets": {"pageInfo": {"totalPages": 6, "total": 81}, "nodes": [{"id": 93348586, "state": 3, "round": 7, "fullRoundText": "Grand Final", "completedAt": 1756681051, "winnerId": 21004193, "slots": [{"id": "93348586-0", "entrant": {"id": 21121102, "name": "carlop", "participants": [{"id": 19427347, "gamerTag": "carlop", "prefix": null, "user": {"location": {"city": "Johns Creek", "state": "GA", "country": "United States"}}, "player": {"id": 3431919, "gamerTag": "carlop", "prefix": null, "user": {"location": {"city": "Johns Creek", "state": "GA", "country": "United States"}}}}]}, "standing": {"placement": 2, "stats": {"score": {"value": 0}}}}, {"id": "93348586-1", "entrant": {"id": 21004193, "name": "GUMP2 | ToxiC", "participants": [{"id": 19321851, "gamerTag": "ToxiC", "prefix": "GUMP2", "user": {"location": {"city": "Marietta", "state": "GA", "country": "United States"}}, "player": {"id": 2585804, "gamerTag": "ToxiC", "prefix": "GUMP2", "user": {"location": {"city": "Marietta", "state": "GA", "country": "United States"}}}}]}, "standing": {"placement": 1, "stats": {"score": {"value": 3}}}}], "games": null}, {"id": 93348587, "state": 3, "round": 7, "fullRoundText": "Grand Final Reset", "completedAt": 1756681059, "winnerId": 21004193, "slots": [{"id": "93348587-0", "entrant": {"id": 21004193, "name": "GUMP2 | ToxiC", "participants": [{"id": 19321851, "gamerTag": "ToxiC", "prefix": "GUMP2", "user": {"location": {"city": "Marietta", "state": "GA", "country": "United States"}}, "player": {"id": 2585804, "gamerTag": "ToxiC", "prefix": "GUMP2", "user": {"location": {"city": "Marietta", "state": "GA", "country": "United States"}}}}]}, "standing": {"placement": 1, "stats": {"score": {"value": 3}}}}, {"id": "93348587-1", "entrant": {"id": 21121102, "name": "carlop", "participants": [{"id": 19427347, "gamerTag": "carlop", "prefix": null, "user": {"location": {"city": "Johns Creek", "state": "GA", "country": "United States"}}, "player": {"id": 3431919, "gamerTag": "carlop", "prefix": null, "user": {"location": {"city": "Johns Creek", "state": "GA", "country": "United States"}}}}]}, "standing": {"placement": 2, "stats": {"score": {"value": 2}}}}], "games": null}, {"id": 93348585, "state": 3, "round": 6, "fullRoundText": "Winners Final", "completedAt": 1756674638, "winnerId": 21121102, "slots": [{"id": "93348585-0", "entrant": {"id": 21129404, "name": "RM | Twist!?", "participants": [{"id": 19435158, "gamerTag": "Twist!?", "prefix": "RM", "user": {"location": {"city": "Marietta", "state": "GA", "country": "United States"}}, "player": {"id": 1764076, "gamerTag": "Twist!?", "prefix": "RM", "user": {"location": {"city": "Marietta", "state": "GA", "country": "United States"}}}}]}, "standing": {"placement": 2, "stats": {"score": {"value": 0}}}}, {"id": "93348585-1", "entrant": {"id": 21121102, "name": "carlop", "participants": [{"id": 19427347, "gamerTag": "carlop", "prefix": null, "user": {"location": {"city": "Johns Creek", "state": "GA", "country": "United States"}}, "player": {"id": 3431919, "gamerTag": "carlop", "prefix": null, "user": {"location": {"city": "Johns Creek", "state": "GA", "country": "United States"}}}}]}, "standing": {"placement": 1, "stats": {"score": {"value": 3}}}}], "games": [{"id": 32290636, "orderNum": 1, "winnerId": 21121102, "entrant1Score": 0, "entrant2Score": null, "stage": null, "selections": [{"id": 47594304, "selectionType": "CHARACTER", "selectionValue": 1286, "entrant": {"id": 21121102}, "character": {"id": 1286, "name": "Fox"}}, {"id": 47594305, "selectionType": "CHARACTER", "selectionValue": 1530, "entrant": {"id": 21129404}, "character": {"id": 1530, "name": "Banjo-Kazooie"}}]}, {"id": 32290637, "orderNum": 2, "winnerId": 21121102, "entrant1Score": 0, "entrant2Score": null, "stage": null, "selections": [{"id": 47594306, "selectionType": "CHARACTER", "selectionValue": 1286, "entrant": {"id": 21121102}, "character": {"id": 1286, "name": "Fox"}}, {"id": 47594307, "selectionType": "CHARACTER", "selectionValue": 1530, "entrant": {"id": 21129404}, "character": {"id": 1530, "name": "Banjo-Kazooie"}}]}, {"id": 32290638, "orderNum": 3, "winnerId": 21121102, "entrant1Score": 0, "entrant2Score": null, "stage": null, "selections": [{"id": 47594308, "selectionType": "CHARACTER", "selectionValue": 1286, "entrant": {"id": 21121102}, "character": {"id": 1286, "name": "Fox"}}, {"id": 47594309, "selectionType": "CHARACTER", "selectionValue": 1530, "entrant": {"id": 21129404}, "character": {"id": 1530, "name": "Banjo-Kazooie"}}]}]}, {"id": 93348713, "state": 3, "round": -12, "fullRoundText": "Losers Final", "completedAt": 1756677637, "winnerId": 21004193, "slots": [{"id": "93348713-0", "entrant": {"id": 21129404, "name": "RM | Twist!?", "participants": [{"id": 19435158, "gamerTag": "Twist!?", "prefix": "RM", "user": {"location": {"city": "Marietta", "state": "GA", "country": "United States"}}, "player": {"id": 1764076, "gamerTag": "Twist!?", "prefix": "RM", "user": {"location": {"city": "Marietta", "state": "GA", "country": "United States"}}}}]}, "standing": {"placement": 2, "stats": {"score": {"value": 0}}}}, {"id": "93348713-1", "entrant": {"id": 21004193, "name": "GUMP2 | ToxiC", "participants": [{"id": 19321851, "gamerTag": "ToxiC", "prefix": "GUMP2", "user": {"location": {"city": "Marietta", "state": "GA", "country": "United States"}}, "player": {"id": 2585804, "gamerTag": "ToxiC", "prefix": "GUMP2", "user": {"location": {"city": "Marietta", "state": "GA", "country": "United States"}}}}]}, "standing": {"placement": 1, "stats": {"score": {"value": 3}}}}], "games": null}, {"id": 93348712, "state": 3, "round": -11, "fullRoundText": "Losers Semi-Final", "completedAt": 1756677244, "winnerId": 21004193, "slots": [{"id": "93348712-0", "entrant": {"id": 21004193, "name": "GUMP2 | ToxiC", "participants": [{"id": 19321851, "gamerTag": "ToxiC", "prefix": "GUMP2", "user": {"location": {"city": "Marietta", "state": "GA", "country": "United States"}}, "player": {"id": 2585804, "gamerTag": "ToxiC", "prefix": "GUMP2", "user": {"location": {"city": "Marietta", "state": "GA", "country": "United States"}}}}]}, "standing": {"placement": 1, "stats": {"score": {"value": 2}}}}, {"id": "93348712-1", "entrant": {"id": 21068917, "name": "Scouteka", "participants": [{"id": 19380430, "gamerTag": "Scouteka", "prefix": "", "user": {"location": {"city": "Marietta", "state": "GA", "country": "United States"}}, "player": {"id": 2055957, "gamerTag": "Scouteka", "prefix": "", "user": {"location": {"city": "Marietta", "state": "GA", "country": "United States"}}}}]}, "standing": {"placement": 2, "stats": {"score": {"value": 0}}}}], "games": [{"id": 32291868, "orderNum": 1, "winnerId": 21004193, "entrant1Score": null, "entrant2Score": 0, "stage": null, "selections": [{"id": 47596158, "selectionType": "CHARACTER", "selectionValue": 1313, "entrant": {"id": 21004193}, "character": {"id": 1313, "name": "Ness"}}, {"id": 47596159, "selectionType": "CHARACTER", "selectionValue": 1302, "entrant": {"id": 21068917}, "character": {"id": 1302, "name": "Mario"}}]}, {"id": 32291869, "orderNum": 2, "winnerId": 21004193, "entrant1Score": null, "entrant2Score": 0, "stage": null, "selections": [{"id": 47596160, "selectionType": "CHARACTER", "selectionValue": 1313, "entrant": {"id": 21004193}, "character": {"id": 1313, "name": "Ness"}}, {"id": 47596161, "selectionType": "CHARACTER", "selectionValue": 1302, "entrant": {"id": 21068917}, "character": {"id": 1302, "name": "Mario"}}]}]}, {"id": 93348583, "state": 3, "round": 5, "fullRoundText": "Winners Semi-Final", "completedAt": 1756673418, "winnerId": 21129404, "slots": [{"id": "93348583-0", "entrant": {"id": 21075375, "name": "V2Kwame", "participants": [{"id": 19386189, "gamerTag": "V2Kwame", "prefix": "", "user": {"location": {"city": "Dallas", "state": "GA", "country": "United States"}}, "player": {"id": 2764337, "gamerTag": "V2Kwame", "prefix": "", "user": {"location": {"city": "Dallas", "state": "GA", "country": "United States"}}}}]}, "standing": {"placement": 2, "stats": {"score": {"value": 1}}}}, {"id": "93348583-1", "entrant": {"id": 21129404, "name": "RM | Twist!?", "participants": [{"id": 19435158, "gamerTag": "Twist!?", "prefix": "RM", "user": {"location": {"city": "Marietta", "state": "GA", "country": "United States"}}, "player": {"id": 1764076, "gamerTag": "Twist!?", "prefix": "RM", "user": {"location": {"city": "Marietta", "state": "GA", "country": "United States"}}}}]}, "standing": {"placement": 1, "stats": {"score": {"value": 2}}}}], "games": null}, {"id": 93348584, "state": 3, "round": 5, "fullRoundText": "Winners Semi-Final", "completedAt": 1756672341, "winnerId": 21121102, "slots": [{"id": "93348584-0", "entrant": {"id": 21121102, "name": "carlop", "participants": [{"id": 19427347, "gamerTag": "carlop", "prefix": null, "user": {"location": {"city": "Johns Creek", "state": "GA", "country": "United States"}}, "player": {"id": 3431919, "gamerTag": "carlop", "prefix": null, "user": {"location": {"city": "Johns Creek", "state": "GA", "country": "United States"}}}}]}, "standing": {"placement": 1, "stats": {"score": {"value": 2}}}}, {"id": "93348584-1", "entrant": {"id": 21068917, "name": "Scouteka", "participants": [{"id": 19380430, "gamerTag": "Scouteka", "prefix": "", "user": {"location": {"city": "Marietta", "state": "GA", "country": "United States"}}, "player": {"id": 2055957, "gamerTag": "Scouteka", "prefix": "", "user": {"location": {"city": "Marietta", "state": "GA", "country": "United States"}}}}]}, "standing": {"placement": 2, "stats": {"score": {"value": 1}}}}], "games": [{"id": 32289603, "orderNum": 1, "winnerId": 21121102, "entrant1Score": null, "entrant2Score": 0, "stage": null, "selections": [{"id": 47592825, "selectionType": "CHARACTER", "selectionValue": 1302, "entrant": {"id": 21068917}, "character": {"id": 1302, "name": "Mario"}}, {"id": 47592826, "selectionType": "CHARACTER", "selectionValue": 1286, "entrant": {"id": 21121102}, "character": {"id": 1286, "name": "Fox"}}]}, {"id": 32289604, "orderNum": 2, "winnerId": 21068917, "entrant1Score": 0, "entrant2Score": null, "stage": null, "selections": [{"id": 47592827, "selectionType": "CHARACTER", "selectionValue": 1302, "entrant": {"id": 21068917}, "character": {"id": 1302, "name": "Mario"}}, {"id": 47592828, "selectionType": "CHARACTER", "selectionValue": 1286, "entrant": {"id": 21121102}, "character": {"id": 1286, "name": "Fox"}}]}, {"id": 32289605, "orderNum": 3, "winnerId": 21121102, "entrant1Score": null, "entrant2Score": 0, "stage": null, "selections": [{"id": 47592829, "selectionType": "CHARACTER", "selectionValue": 1302, "entrant": {"id": 21068917}, "character": {"id": 1302, "name": "Mario"}}, {"id": 47592830, "selectionType": "CHARACTER", "selectionValue": 1286, "entrant": {"id": 21121102}, "character": {"id": 1286, "name": "Fox"}}]}]}, {"id": 93348710, "state": 3, "round": -10, "fullRoundText": "Losers Quarter-Final", "completedAt": 1756675784, "winnerId": 21004193, "slots": [{"id": "93348710-0", "entrant": {"id": 21075375, "name": "V2Kwame", "participants": [{"id": 19386189, "gamerTag": "V2Kwame", "prefix": "", "user": {"location": {"city": "Dallas", "state": "GA", "country": "United States"}}, "player": {"id": 2764337, "gamerTag": "V2Kwame", "prefix": "", "user": {"location": {"city": "Dallas", "state": "GA", "country": "United States"}}}}]}, "standing": {"placement": 2, "stats": {"score": {"value": 0}}}}, {"id": "93348710-1", "entrant": {"id": 21004193, "name": "GUMP2 | ToxiC", "participants": [{"id": 19321851, "gamerTag": "ToxiC", "prefix": "GUMP2", "user": {"location": {"city": "Marietta", "state": "GA", "country": "United States"}}, "player": {"id": 2585804, "gamerTag": "ToxiC", "prefix": "GUMP2", "user": {"location": {"city": "Marietta", "state": "GA", "country": "United States"}}}}]}, "standing": {"placement": 1, "stats": {"score": {"value": 2}}}}], "games": null}, {"id": 93348711, "state": 3, "round": -10, "fullRoundText": "Losers Quarter-Final", "completedAt": 1756676170, "winnerId": 21068917, "slots": [{"id": "93348711-0", "entrant": {"id": 21068917, "name": "Scouteka", "participants": [{"id": 19380430, "gamerTag": "Scouteka", "prefix": "", "user": {"location": {"city": "Marietta", "state": "GA", "country": "United States"}}, "player": {"id": 2055957, "gamerTag": "Scouteka", "prefix": "", "user": {"location": {"city": "Marietta", "state": "GA", "country": "United States"}}}}]}, "standing": {"placement": 1, "stats": {"score": {"value": 2}}}}, {"id": "93348711-1", "entrant": {"id": 21119788, "name": "UTO|WhaLey | Kingwifi", "participants": [{"id": 19426202, "gamerTag": "Kingwifi", "prefix": "UTO|WhaLey", "user": {"location": {"city": "Stone Mountain", "state": "GA", "country": "United States"}}, "player": {"id": 2016149, "gamerTag": "Whaley", "prefix": "KSU|UTO|BLZE", "user": {"location": {"city": "Stone Mountain", "state": "GA", "country": "United States"}}}}]}, "standing": {"placement": 2, "stats": {"score": {"value": 1}}}}], "games": null}, {"id": 93348708, "state": 3, "round": -9, "fullRoundText": "Losers Round 6", "completedAt": 1756675239, "winnerId": 21004193, "slots": [{"id": "93348708-0", "entrant": {"id": 21061138, "name": "CHEESE", "participants": [{"id": 19373326, "gamerTag": "CHEESE", "prefix": null, "user": {"location": {"city": "Buford", "state": "GA", "country": "United States"}}, "player": {"id": 3429754, "gamerTag": "CHEESE", "prefix": null, "user": {"location": {"city": "Buford", "state": "GA", "country": "United States"}}}}]}, "standing": {"placement": 2, "stats": {"score": {"value": 0}}}}, {"id": "93348708-1", "entrant": {"id": 21004193, "name": "GUMP2 | ToxiC", "participants": [{"id": 19321851, "gamerTag": "ToxiC", "prefix": "GUMP2", "user": {"location": {"city": "Marietta", "state": "GA", "country": "United States"}}, "player": {"id": 2585804, "gamerTag": "ToxiC", "prefix": "GUMP2", "user": {"location": {"city": "Marietta", "state": "GA", "country": "United States"}}}}]}, "standing": {"placement": 1, "stats": {"score": {"value": 2}}}}], "games": null}, {"id": 93348709, "state": 3, "round": -9, "fullRoundText": "Losers Round 6", "completedAt": 1756675235, "winnerId": 21119788, "slots": [{"id": "93348709-0", "entrant": {"id": 21040395, "name": "BlaZR", "participants": [{"id": 19354869, "gamerTag": "BlaZR", "prefix": "", "user": {"location": {"city": "ur mum", "state": null, "country": "United States"}}, "player": {"id": 1804122, "gamerTag": "BlaZR", "prefix": "", "user": {"location": {"city": "ur mum", "state": null, "country": "United States"}}}}]}, "standing": {"placement": 2, "stats": {"score": {"value": 0}}}}, {"id": "93348709-1", "entrant": {"id": 21119788, "name": "UTO|WhaLey | Kingwifi", "participants": [{"id": 19426202, "gamerTag": "Kingwifi", "prefix": "UTO|WhaLey", "user": {"location": {"city": "Stone Mountain", "state": "GA", "country": "United States"}}, "player": {"id": 2016149, "gamerTag": "Whaley", "prefix": "KSU|UTO|BLZE", "user": {"location": {"city": "Stone Mountain", "state": "GA", "country": "United States"}}}}]}, "standing": {"placement": 1, "stats": {"score": {"value": 2}}}}], "games": null}, {"id": 93348579, "state": 3, "round": 4, "fullRoundText": "Winners Quarter-Final", "completedAt": 1756672082, "winnerId": 21075375, "slots": [{"id": "93348579-0", "entrant": {"id": 21075375, "name": "V2Kwame", "participants": [{"id": 19386189, "gamerTag": "V2Kwame", "prefix": "", "user": {"location": {"city": "Dallas", "state": "GA", "country": "United States"}}, "player": {"id": 2764337, "gamerTag": "V2Kwame", "prefix": "", "user": {"location": {"city": "Dallas", "state": "GA", "country": "United States"}}}}]}, "standing": {"placement": 1, "stats": {"score": {"value": 2}}}}, {"id": "93348579-1", "entrant": {"id": 21040395, "name": "BlaZR", "participants": [{"id": 19354869, "gamerTag": "BlaZR", "prefix": "", "user": {"location": {"city": "ur mum", "state": null, "country": "United States"}}, "player": {"id": 1804122, "gamerTag": "BlaZR", "prefix": "", "user": {"location": {"city": "ur mum", "state": null, "country": "United States"}}}}]}, "standing": {"placement": 2, "stats": {"score": {"value": 1}}}}], "games": null}, {"id": 93348580, "state": 3, "round": 4, "fullRoundText": "Winners Quarter-Final", "completedAt": 1756672569, "winnerId": 21129404, "slots": [{"id": "93348580-0", "entrant": {"id": 21129404, "name": "RM | Twist!?", "participants": [{"id": 19435158, "gamerTag": "Twist!?", "prefix": "RM", "user": {"location": {"city": "Marietta", "state": "GA", "country": "United States"}}, "player": {"id": 1764076, "gamerTag": "Twist!?", "prefix": "RM", "user": {"location": {"city": "Marietta", "state": "GA", "country": "United States"}}}}]}, "standing": {"placement": 1, "stats": {"score": {"value": 2}}}}, {"id": "93348580-1", "entrant": {"id": 21119788, "name": "UTO|WhaLey | Kingwifi", "participants": [{"id": 19426202, "gamerTag": "Kingwifi", "prefix": "UTO|WhaLey", "user": {"location": {"city": "Stone Mountain", "state": "GA", "country": "United States"}}, "player": {"id": 2016149, "gamerTag": "Whaley", "prefix": "KSU|UTO|BLZE", "user": {"location": {"city": "Stone Mountain", "state": "GA", "country": "United States"}}}}]}, "standing": {"placement": 2, "stats": {"score": {"value": 1}}}}], "games": [{"id": 32289819, "orderNum": 1, "winnerId": 21129404, "entrant1Score": null, "entrant2Score": 0, "stage": null, "selections": [{"id": 47592995, "selectionType": "CHARACTER", "selectionValue": 1333, "entrant": {"id": 21119788}, "character": {"id": 1333, "name": "Toon Link"}}, {"id": 47592996, "selectionType": "CHARACTER", "selectionValue": 1530, "entrant": {"id": 21129404}, "character": {"id": 1530, "name": "Banjo-Kazooie"}}]}, {"id": 32289820, "orderNum": 2, "winnerId": 21119788, "entrant1Score": 0, "entrant2Score": null, "stage": null, "selections": [{"id": 47592997, "selectionType": "CHARACTER", "selectionValue": 1777, "entrant": {"id": 21119788}, "character": {"id": 1777, "name": "Sephiroth"}}, {"id": 47592998, "selectionType": "CHARACTER", "selectionValue": 1530, "entrant": {"id": 21129404}, "character": {"id": 1530, "name": "Banjo-Kazooie"}}]}, {"id": 32289821, "orderNum": 3, "winnerId": 21129404, "entrant1Score": null, "entrant2Score": 0, "stage": null, "selections": [{"id": 47592999, "selectionType": "CHARACTER", "selectionValue": 1777, "entrant": {"id": 21119788}, "character": {"id": 1777, "name": "Sephiroth"}}, {"id": 47593000, "selectionType": "CHARACTER", "selectionValue": 1530, "entrant": {"id": 21129404}, "character": {"id": 1530, "name": "Banjo-Kazooie"}}]}]}, {"id": 93348581, "state": 3, "round": 4, "fullRoundText": "Winners Quarter-Final", "completedAt": 1756670941, "winnerId": 21121102, "slots": [{"id": "93348581-0", "entrant": {"id": 21121102, "name": "carlop", "participants": [{"id": 19427347, "gamerTag": "carlop", "prefix": null, "user": {"location": {"city": "Johns Creek", "state": "GA", "country": "United States"}}, "player": {"id": 3431919, "gamerTag": "carlop", "prefix": null, "user": {"location": {"city": "Johns Creek", "state": "GA", "country": "United States"}}}}]}, "standing": {"placement": 1, "stats": {"score": {"value": 2}}}}, {"id": "93348581-1", "entrant": {"id": 21084803, "name": "kahdeh", "participants": [{"id": 19394775, "gamerTag": "kahdeh", "prefix": null, "user": {"location": {"city": null, "state": "GA", "country": "United States"}}, "player": {"id": 3730125, "gamerTag": "kahdeh", "prefix": null, "user": {"location": {"city": null, "state": "GA", "country": "United States"}}}}]}, "standing": {"placement": 2, "stats": {"score": {"value": 0}}}}], "games": [{"id": 32289076, "orderNum": 1, "winnerId": 21121102, "entrant1Score": null, "entrant2Score": 0, "stage": null, "selections": [{"id": 47591869, "selectionType": "CHARACTER", "selectionValue": 1532, "entrant": {"id": 21084803}, "character": {"id": 1532, "name": "Terry"}}, {"id": 47591870, "selectionType": "CHARACTER", "selectionValue": 1286, "entrant": {"id": 21121102}, "character": {"id": 1286, "name": "Fox"}}]}, {"id": 32289077, "orderNum": 2, "winnerId": 21121102, "entrant1Score": null, "entrant2Score": 0, "stage": null, "selections": null}]}, {"id": 93348582, "state": 3, "round": 4, "fullRoundText": "Winners Quarter-Final", "completedAt": 1756671781, "winnerId": 21068917, "slots": [{"id": "93348582-0", "entrant": {"id": 21047567, "name": "red dot", "participants": [{"id": 19361293, "gamerTag": "red dot", "prefix": "", "user": {"location": {"city": "Milton", "state": "GA", "country": "United States"}}, "player": {"id": 1812177, "gamerTag": "red dot", "prefix": "", "user": {"location": {"city": "Milton", "state": "GA", "country": "United States"}}}}]}, "standing": {"placement": 2, "stats": {"score": {"value": 1}}}}, {"id": "93348582-1", "entrant": {"id": 21068917, "name": "Scouteka", "participants": [{"id": 19380430, "gamerTag": "Scouteka", "prefix": "", "user": {"location": {"city": "Marietta", "state": "GA", "country": "United States"}}, "player": {"id": 2055957, "gamerTag": "Scouteka", "prefix": "", "user": {"location": {"city": "Marietta", "state": "GA", "country": "United States"}}}}]}, "standing": {"placement": 1, "stats": {"score": {"value": 2}}}}], "games": [{"id": 32289161, "orderNum": 1, "winnerId": 21068917, "entrant1Score": 0, "entrant2Score": null, "stage": null, "selections": [{"id": 47592485, "selectionType": "CHARACTER", "selectionValue": 1410, "entrant": {"id": 21047567}, "character": {"id": 1410, "name": "Ken"}}, {"id": 47592486, "selectionType": "CHARACTER", "selectionValue": 1302, "entrant": {"id": 21068917}, "character": {"id": 1302, "name": "Mario"}}]}, {"id": 32289162, "orderNum": 2, "winnerId": 21047567, "entrant1Score": null, "entrant2Score": 0, "stage": null, "selections": [{"id": 47592487, "selectionType": "CHARACTER", "selectionValue": 1410, "entrant": {"id": 21047567}, "character": {"id": 1410, "name": "Ken"}}, {"id": 47592488, "selectionType": "CHARACTER", "selectionValue": 1302, "entrant": {"id": 21068917}, "character": {"id": 1302, "name": "Mario"}}]}, {"id": 32289199, "orderNum": 3, "winnerId": 21068917, "entrant1Score": 0, "entrant2Score": null, "stage": null, "selections": [{"id": 47592489, "selectionType": "CHARACTER", "selectionValue": 1410, "entrant": {"id": 21047567}, "character": {"id": 1410, "name": "Ken"}}, {"id": 47592490, "selectionType": "CHARACTER", "selectionValue": 1302, "entrant": {"id": 21068917}, "character": {"id": 1302, "name": "Mario"}}]}]}]}}}