{"phase": {"seeds": {"pageInfo": {"totalPages": 1, "total": 7}, "nodes": [{"id": 36289004, "seedNum": 1, "entrant": {"id": 21045848, "name": "DBQ | Kami", "participants": [{"id": 19359943, "gamerTag": "Kami", "prefix": "DBQ", "user": {"location": {"city": "Fayetteville", "state": "GA", "country": "United States"}}, "player": {"id": 1183115, "gamerTag": "Kami", "prefix": "DBQ", "user": {"location": {"city": "Fayetteville", "state": "GA", "country": "United States"}}}}]}}, {"id": 36299389, "seedNum": 4, "entrant": {"id": 21053140, "name": "ZB | Juniper", "participants": [{"id": 19309042, "gamerTag": "Juniper", "prefix": "ZB", "user": {"location": {"city": "Morrow", "state": "GA", "country": "United States"}}, "player": {"id": 46895, "gamerTag": "Juniper", "prefix": "ZB", "user": {"location": {"city": "Morrow", "state": "GA", "country": "United States"}}}}]}}, {"id": 36302126, "seedNum": 3, "entrant": {"id": 21055288, "name": "GG | VaR", "participants": [{"id": 19368193, "gamerTag": "VaR", "prefix": "GG", "user": {"location": {"city": "Atlanta", "state": "GA", "country": "United States"}}, "player": {"id": 329546, "gamerTag": "VaR", "prefix": "GG", "user": {"location": {"city": "Atlanta", "state": "GA", "country": "United States"}}}}]}}, {"id": 36269566, "seedNum": 2, "entrant": {"id": 21032581, "name": "LvL? | Yharon", "participants": [{"id": 19347686, "gamerTag": "Yharon", "prefix": "LvL?", "user": {"location": {"city": "Carrollton", "state": "GA", "country": "United States"}}, "player": {"id": 3862975, "gamerTag": "Yharon", "prefix": "LvL?", "user": {"location": {"city": "Carrollton", "state": "GA", "country": "United States"}}}}]}}, {"id": 36265141, "seedNum": 5, "entrant": {"id": 21029649, "name": "PL | Shusui", "participants": [{"id": 19344921, "gamerTag": "Shusui", "prefix": "PL", "user": {"location": {"city": "Suwanee", "state": "GA", "country": "United States"}}, "player": {"id": 3465710, "gamerTag": "Shusui", "prefix": "", "user": {"location": {"city": "Suwanee", "state": "GA", "country": "United States"}}}}]}}, {"id": 36199323, "seedNum": 7, "entrant": {"id": 20987862, "name": "ZB | Sanaito", "participants": [{"id": 19307057, "gamerTag": "Sanaito", "prefix": "ZB", "user": {"location": {"city": "Fayetteville", "state": "GA", "country": "United States"}}, "player": {"id": 12761, "gamerTag": "Sanaito", "prefix": "ZB", "user": {"location": {"city": "Fayetteville", "state": "GA", "country": "United States"}}}}]}}, {"id": 36289821, "seedNum": 6, "entrant": {"id": 21046642, "name": "PL | Ner\u0153", "participants": [{"id": 19360583, "gamerTag": "Ner\u0153", "prefix": "PL", "user": {"location": {"city": "Carrollton", "state": "GA", "country": "United States"}}, "player": {"id": 4349436, "gamerTag": "Ner\u0153", "prefix": "PL", "user": {"location": {"city": "Carrollton", "state": "GA", "country": "United States"}}}}]}}]}}}