{"event": {"sets": {"pageInfo": {"totalPages": 9, "total": 123}, "nodes": [{"id": 92091710, "state": 3, "round": -8, "fullRoundText": "Losers Round 6", "completedAt": 1754017603, "winnerId": 20854329, "slots": [{"id": "92091710-0", "entrant": {"id": 20854329, "name": "MBS | Vivid", "participants": [{"id": 19190198, "gamerTag": "Vivid", "prefix": "MBS", "user": {"location": {"city": "Atl", "state": "GA", "country": "United States"}}, "player": {"id": 499333, "gamerTag": "Vivid", "prefix": "MBS", "user": {"location": {"city": "Atl", "state": "GA", "country": "United States"}}}}]}, "standing": {"placement": 1, "stats": {"score": {"value": 2}}}}, {"id": "92091710-1", "entrant": {"id": 20853871, "name": "Barbashop", "participants": [{"id": 19189831, "gamerTag": "Barbashop", "prefix": "", "user": {"location": {"city": null, "state": null, "country": null}}, "player": {"id": 2537853, "gamerTag": "Barbashop", "prefix": "", "user": {"location": {"city": null, "state": null, "country": null}}}}]}, "standing": {"placement": 2, "stats": {"score": {"value": 1}}}}], "games": null}, {"id": 92091711, "state": 3, "round": -8, "fullRoundText": "Losers Round 6", "completedAt": 1754016307, "winnerId": 20844264, "slots": [{"id": "92091711-0", "entrant": {"id": 20853046, "name": "Kailen", "participants": [{"id": 19189087, "gamerTag": "Kailen", "prefix": "", "user": {"location": {"city": "Atlanta", "state": "GA", "country": "United States"}}, "player": {"id": 1647157, "gamerTag": "Kailen", "prefix": "", "user": {"location": {"city": "Atlanta", "state": "GA", "country": "United States"}}}}]}, "standing": {"placement": 2, "stats": {"score": {"value": 1}}}}, {"id": "92091711-1", "entrant": {"id": 20844264, "name": "ROK | Karu!", "participants": [{"id": 19180983, "gamerTag": "Karu!", "prefix": "ROK", "user": {"location": {"city": null, "state": null, "country": "United States"}}, "player": {"id": 1964751, "gamerTag": "Super Awesome Duck", "prefix": "ROK", "user": {"location": {"city": null, "state": null, "country": "United States"}}}}]}, "standing": {"placement": 1, "stats": {"score": {"value": 2}}}}], "games": null}, {"id": 92091712, "state": 3, "round": -8, "fullRoundText": "Losers Round 6", "completedAt": 1754016533, "winnerId": 20794047, "slots": [{"id": "92091712-0", "entrant": {"id": 20794047, "name": "Ave~", "participants": [{"id": 19137049, "gamerTag": "Ave~", "prefix": "", "user": {"location": {"city": null, "state": null, "country": null}}, "player": {"id": 38830, "gamerTag": "Ave~", "prefix": "", "user": {"location": {"city": null, "state": null, "country": null}}}}]}, "standing": {"placement": 1, "stats": {"score": {"value": 2}}}}, {"id": "92091712-1", "entrant": {"id": 20852779, "name": "GUMP2 | Eleven", "participants": [{"id": 19188857, "gamerTag": "Eleven", "prefix": "GUMP2", "user": {"location": {"city": null, "state": null, "country": null}}, "player": {"id": 2348605, "gamerTag": "Ryu from Streets", "prefix": "GUMP2", "user": {"location": {"city": null, "state": null, "country": null}}}}]}, "standing": {"placement": 2, "stats": {"score": {"value": 1}}}}], "games": null}, {"id": 92091713, "state": 3, "round": -8, "fullRoundText": "Losers Round 6", "completedAt": 1754016587, "winnerId": 20845200, "slots": [{"id": "92091713-0", "entrant": {"id": 20845200, "name": "ROK | Surehyper", "participants": [{"id": 19181858, "gamerTag": "Surehyper", "prefix": "ROK", "user": {"location": {"city": "Miami", "state": "FL", "country": "United States"}}, "player": {"id": 1726915, "gamerTag": "Surehyper", "prefix": "ROK", "user": {"location": {"city": "Miami", "state": "FL", "country": "United States"}}}}]}, "standing": {"placement": 1, "stats": {"score": {"value": 2}}}}, {"id": "92091713-1", "entrant": {"id": 20854024, "name": "KumaDusk", "participants": [{"id": 19189966, "gamerTag": "KumaDusk", "prefix": "", "user": {"location": {"city": "Lawrenceville", "state": "GA", "country": "United States"}}, "player": {"id": 253909, "gamerTag": "KumaDusk", "prefix": "", "user": {"location": {"city": "Lawrenceville", "state": "GA", "country": "United States"}}}}]}, "standing": {"placement": 2, "stats": {"score": {"value": 1}}}}], "games": null}, {"id": 92091706, "state": 3, "round": -7, "fullRoundText": "Losers Round 5", "completedAt": 1754016403, "winnerId": 20853871, "slots": [{"id": "92091706-0", "entrant": {"id": 20796667, "name": "iNGenius", "participants": [{"id": 19139613, "gamerTag": "iNGenius", "prefix": "", "user": {"location": {"city": null, "state": null, "country": null}}, "player": {"id": 3194293, "gamerTag": "iNGenius", "prefix": "", "user": {"location": {"city": null, "state": null, "country": null}}}}]}, "standing": {"placement": 2, "stats": {"score": {"value": 1}}}}, {"id": "92091706-1", "entrant": {"id": 20853871, "name": "Barbashop", "participants": [{"id": 19189831, "gamerTag": "Barbashop", "prefix": "", "user": {"location": {"city": null, "state": null, "country": null}}, "player": {"id": 2537853, "gamerTag": "Barbashop", "prefix": "", "user": {"location": {"city": null, "state": null, "country": null}}}}]}, "standing": {"placement": 1, "stats": {"score": {"value": 2}}}}], "games": null}, {"id": 92091707, "state": 3, "round": -7, "fullRoundText": "Losers Round 5", "completedAt": 1754015590, "winnerId": 20844264, "slots": [{"id": "92091707-0", "entrant": {"id": 20844264, "name": "ROK | Karu!", "participants": [{"id": 19180983, "gamerTag": "Karu!", "prefix": "ROK", "user": {"location": {"city": null, "state": null, "country": "United States"}}, "player": {"id": 1964751, "gamerTag": "Super Awesome Duck", "prefix": "ROK", "user": {"location": {"city": null, "state": null, "country": "United States"}}}}]}, "standing": {"placement": 1, "stats": {"score": {"value": 2}}}}, {"id": "92091707-1", "entrant": {"id": 20851783, "name": "Cobalt", "participants": [{"id": 19187901, "gamerTag": "Cobalt", "prefix": null, "user": {"location": {"city": "Gainesville", "state": "GA", "country": "United States"}}, "player": {"id": 181792, "gamerTag": "Cobalt", "prefix": null, "user": {"location": {"city": "Gainesville", "state": "GA", "country": "United States"}}}}]}, "standing": {"placement": 2, "stats": {"score": {"value": 0}}}}], "games": null}, {"id": 92091708, "state": 3, "round": -7, "fullRoundText": "Losers Round 5", "completedAt": 1754015255, "winnerId": 20852779, "slots": [{"id": "92091708-0", "entrant": {"id": 20852779, "name": "GUMP2 | Eleven", "participants": [{"id": 19188857, "gamerTag": "Eleven", "prefix": "GUMP2", "user": {"location": {"city": null, "state": null, "country": null}}, "player": {"id": 2348605, "gamerTag": "Ryu from Streets", "prefix": "GUMP2", "user": {"location": {"city": null, "state": null, "country": null}}}}]}, "standing": {"placement": 1, "stats": {"score": {"value": 2}}}}, {"id": "92091708-1", "entrant": {"id": 20847513, "name": "MilesisBae", "participants": [{"id": 19183854, "gamerTag": "MilesisBae", "prefix": "", "user": {"location": {"city": "Richmond", "state": "VA", "country": "United States"}}, "player": {"id": 1218383, "gamerTag": "MilesisBae", "prefix": "", "user": {"location": {"city": "Richmond", "state": "VA", "country": "United States"}}}}]}, "standing": {"placement": 2, "stats": {"score": {"value": 0}}}}], "games": null}, {"id": 92091709, "state": 3, "round": -7, "fullRoundText": "Losers Round 5", "completedAt": 1754015726, "winnerId": 20854024, "slots": [{"id": "92091709-0", "entrant": {"id": 20854024, "name": "KumaDusk", "participants": [{"id": 19189966, "gamerTag": "KumaDusk", "prefix": "", "user": {"location": {"city": "Lawrenceville", "state": "GA", "country": "United States"}}, "player": {"id": 253909, "gamerTag": "KumaDusk", "prefix": "", "user": {"location": {"city": "Lawrenceville", "state": "GA", "country": "United States"}}}}]}, "standing": {"placement": 1, "stats": {"score": {"value": 2}}}}, {"id": "92091709-1", "entrant": {"id": 20845560, "name": "GUMP2 | JankTrees!", "participants": [{"id": 19182198, "gamerTag": "JankTrees!", "prefix": "GUMP2", "user": {"location": {"city": "Cartersville", "state": "GA", "country": "United States"}}, "player": {"id": 35695, "gamerTag": "JankTrees!", "prefix": "GUMP2", "user": {"location": {"city": "Cartersville", "state": "GA", "country": "United States"}}}}]}, "standing": {"placement": 2, "stats": {"score": {"value": 0}}}}], "games": null}, {"id": 92091577, "state": 3, "round": 3, "fullRoundText": "Winners Round 3", "completedAt": 1754011820, "winnerId": 20851792, "slots": [{"id": "92091577-0", "entrant": {"id": 20851792, "name": "omega", "participants": [{"id": 19187913, "gamerTag": "omega", "prefix": "", "user": {"location": {"city": "Suwanee", "state": "GA", "country": "United States"}}, "player": {"id": 24638, "gamerTag": "omega", "prefix": "", "user": {"location": {"city": "Suwanee", "state": "GA", "country": "United States"}}}}]}, "standing": {"placement": 1, "stats": {"score": {"value": 2}}}}, {"id": "92091577-1", "entrant": {"id": 20853301, "name": "RM | GUMP2 | Kr!stal:0", "participants": [{"id": 19189326, "gamerTag": "Kr!stal:0", "prefix": "RM | GUMP2", "user": {"location": {"city": "Lawrenceville", "state": "GA", "country": "United States"}}, "player": {"id": 2409815, "gamerTag": "AO ASHI SEASON 2 2026", "prefix": "RM | GUMP2", "user": {"location": {"city": "Lawrenceville", "state": "GA", "country": "United States"}}}}]}, "standing": {"placement": 2, "stats": {"score": {"value": 0}}}}], "games": null}, {"id": 92091578, "state": 3, "round": 3, "fullRoundText": "Winners Round 3", "completedAt": 1754012615, "winnerId": 20794047, "slots": [{"id": "92091578-0", "entrant": {"id": 20794047, "name": "Ave~", "participants": [{"id": 19137049, "gamerTag": "Ave~", "prefix": "", "user": {"location": {"city": null, "state": null, "country": null}}, "player": {"id": 38830, "gamerTag": "Ave~", "prefix": "", "user": {"location": {"city": null, "state": null, "country": null}}}}]}, "standing": {"placement": 1, "stats": {"score": {"value": 2}}}}, {"id": "92091578-1", "entrant": {"id": 20844264, "name": "ROK | Karu!", "participants": [{"id": 19180983, "gamerTag": "Karu!", "prefix": "ROK", "user": {"location": {"city": null, "state": null, "country": "United States"}}, "player": {"id": 1964751, "gamerTag": "Super Awesome Duck", "prefix": "ROK", "user": {"location": {"city": null, "state": null, "country": "United States"}}}}]}, "standing": {"placement": 2, "stats": {"score": {"value": 1}}}}], "games": [{"id": 31646440, "orderNum": 1, "winnerId": 20844264, "entrant1Score": 0, "entrant2Score": null, "stage": null, "selections": [{"id": 46589000, "selectionType": "CHARACTER", "selectionValue": 1311, "entrant": {"id": 20794047}, "character": {"id": 1311, "name": "Mii Brawler"}}, {"id": 46589001, "selectionType": "CHARACTER", "selectionValue": 1412, "entrant": {"id": 20844264}, "character": {"id": 1412, "name": "Richter"}}]}, {"id": 31646441, "orderNum": 2, "winnerId": 20794047, "entrant1Score": null, "entrant2Score": 0, "stage": null, "selections": [{"id": 46589002, "selectionType": "CHARACTER", "selectionValue": 1311, "entrant": {"id": 20794047}, "character": {"id": 1311, "name": "Mii Brawler"}}, {"id": 46589003, "selectionType": "CHARACTER", "selectionValue": 1412, "entrant": {"id": 20844264}, "character": {"id": 1412, "name": "Richter"}}]}, {"id": 31646442, "orderNum": 3, "winnerId": 20794047, "entrant1Score": null, "entrant2Score": 0, "stage": null, "selections": [{"id": 46589004, "selectionType": "CHARACTER", "selectionValue": 1311, "entrant": {"id": 20794047}, "character": {"id": 1311, "name": "Mii Brawler"}}, {"id": 46589022, "selectionType": "CHARACTER", "selectionValue": 1411, "entrant": {"id": 20844264}, "character": {"id": 1411, "name": "Simon Belmont"}}]}]}, {"id": 92091579, "state": 3, "round": 3, "fullRoundText": "Winners Round 3", "completedAt": 1754012198, "winnerId": 20853726, "slots": [{"id": "92091579-0", "entrant": {"id": 20853726, "name": "HyperKirby", "participants": [{"id": 19189706, "gamerTag": "HyperKirby", "prefix": null, "user": {"location": {"city": "Lawrenceville", "state": "GA", "country": "United States"}}, "player": {"id": 71079, "gamerTag": "HyperKirby", "prefix": null, "user": {"location": {"city": "Lawrenceville", "state": "GA", "country": "United States"}}}}]}, "standing": {"placement": 1, "stats": {"score": {"value": 2}}}}, {"id": "92091579-1", "entrant": {"id": 20851402, "name": "Coven | Shelley", "participants": [{"id": 19187522, "gamerTag": "Shelley", "prefix": "Coven", "user": {"location": {"city": "Norcross", "state": "MS", "country": "United States"}}, "player": {"id": 4726196, "gamerTag": "REM!!!", "prefix": "Coven", "user": {"location": {"city": "Norcross", "state": "MS", "country": "United States"}}}}]}, "standing": {"placement": 2, "stats": {"score": {"value": 0}}}}], "games": null}, {"id": 92091580, "state": 3, "round": 3, "fullRoundText": "Winners Round 3", "completedAt": 1754012137, "winnerId": 20845200, "slots": [{"id": "92091580-0", "entrant": {"id": 20845200, "name": "ROK | Surehyper", "participants": [{"id": 19181858, "gamerTag": "Surehyper", "prefix": "ROK", "user": {"location": {"city": "Miami", "state": "FL", "country": "United States"}}, "player": {"id": 1726915, "gamerTag": "Surehyper", "prefix": "ROK", "user": {"location": {"city": "Miami", "state": "FL", "country": "United States"}}}}]}, "standing": {"placement": 1, "stats": {"score": {"value": 2}}}}, {"id": "92091580-1", "entrant": {"id": 20796667, "name": "iNGenius", "participants": [{"id": 19139613, "gamerTag": "iNGenius", "prefix": "", "user": {"location": {"city": null, "state": null, "country": null}}, "player": {"id": 3194293, "gamerTag": "iNGenius", "prefix": "", "user": {"location": {"city": null, "state": null, "country": null}}}}]}, "standing": {"placement": 2, "stats": {"score": {"value": 0}}}}], "games": null}, {"id": 92091581, "state": 3, "round": 3, "fullRoundText": "Winners Round 3", "completedAt": 1754011714, "winnerId": 20841858, "slots": [{"id": "92091581-0", "entrant": {"id": 20841858, "name": "DGS | spickles", "participants": [{"id": 19178719, "gamerTag": "spickles", "prefix": "DGS", "user": {"location": {"city": null, "state": null, "country": "United States"}}, "player": {"id": 1154793, "gamerTag": "spickles", "prefix": "DGS", "user": {"location": {"city": null, "state": null, "country": "United States"}}}}]}, "standing": {"placement": 1, "stats": {"score": {"value": 2}}}}, {"id": "92091581-1", "entrant": {"id": 20845560, "name": "GUMP2 | JankTrees!", "participants": [{"id": 19182198, "gamerTag": "JankTrees!", "prefix": "GUMP2", "user": {"location": {"city": "Cartersville", "state": "GA", "country": "United States"}}, "player": {"id": 35695, "gamerTag": "JankTrees!", "prefix": "GUMP2", "user": {"location": {"city": "Cartersville", "state": "GA", "country": "United States"}}}}]}, "standing": {"placement": 2, "stats": {"score": {"value": 0}}}}], "games": null}, {"id": 92091582, "state": 3, "round": 3, "fullRoundText": "Winners Round 3", "completedAt": 1754013161, "winnerId": 20854329, "slots": [{"id": "92091582-0", "entrant": {"id": 20854024, "name": "KumaDusk", "participants": [{"id": 19189966, "gamerTag": "KumaDusk", "prefix": "", "user": {"location": {"city": "Lawrenceville", "state": "GA", "country": "United States"}}, "player": {"id": 253909, "gamerTag": "KumaDusk", "prefix": "", "user": {"location": {"city": "Lawrenceville", "state": "GA", "country": "United States"}}}}]}, "standing": {"placement": 2, "stats": {"score": {"value": 0}}}}, {"id": "92091582-1", "entrant": {"id": 20854329, "name": "MBS | Vivid", "participants": [{"id": 19190198, "gamerTag": "Vivid", "prefix": "MBS", "user": {"location": {"city": "Atl", "state": "GA", "country": "United States"}}, "player": {"id": 499333, "gamerTag": "Vivid", "prefix": "MBS", "user": {"location": {"city": "Atl", "state": "GA", "country": "United States"}}}}]}, "standing": {"placement": 1, "stats": {"score": {"value": 2}}}}], "games": null}, {"id": 92091583, "state": 3, "round": 3, "fullRoundText": "Winners Round 3", "completedAt": 1754013313, "winnerId": 20829882, "slots": [{"id": "92091583-0", "entrant": {"id": 20854266, "name": "ROK | Sneaky Pocket Golem", "participants": [{"id": 19190157, "gamerTag": "Sneaky Pocket Golem", "prefix": "ROK", "user": {"location": {"city": "Miami", "state": "FL", "country": "United States"}}, "player": {"id": 1042374, "gamerTag": "Riku", "prefix": "ROK", "user": {"location": {"city": "Miami", "state": "FL", "country": "United States"}}}}]}, "standing": {"placement": 2, "stats": {"score": {"value": 0}}}}, {"id": "92091583-1", "entrant": {"id": 20829882, "name": "Tobe", "participants": [{"id": 19168243, "gamerTag": "Tobe", "prefix": "", "user": {"location": {"city": "Buford", "state": "GA", "country": "United States"}}, "player": {"id": 1646132, "gamerTag": "Tobe", "prefix": "", "user": {"location": {"city": "Buford", "state": "GA", "country": "United States"}}}}]}, "standing": {"placement": 1, "stats": {"score": {"value": 2}}}}], "games": null}]}}}