{"event": {"sets": {"pageInfo": {"totalPages": 2, "total": 29}, "nodes": [{"id": 94776008, "state": 3, "round": -4, "fullRoundText": "Losers Round 2", "completedAt": 1759886489, "winnerId": 21488555, "slots": [{"id": "94776008-0", "entrant": {"id": 21488555, "name": "Noodle", "participants": [{"id": 19747395, "gamerTag": "Noodle", "prefix": "", "user": {"location": {"city": "McDonough", "state": "GA", "country": "United States"}}, "player": {"id": 3029288, "gamerTag": "Noodle", "prefix": "", "user": {"location": {"city": "McDonough", "state": "GA", "country": "United States"}}}}]}, "standing": {"placement": 1, "stats": {"score": {"value": 3}}}}, {"id": "94776008-1", "entrant": {"id": 21491964, "name": "Leon Nights", "participants": [{"id": 19750471, "gamerTag": "Leon Nights", "prefix": null, "user": {"location": {"city": "Atlanta", "state": "GA", "country": "United States"}}, "player": {"id": 4752335, "gamerTag": "Leon Nights", "prefix": null, "user": {"location": {"city": "Atlanta", "state": "GA", "country": "United States"}}}}]}, "standing": {"placement": 2, "stats": {"score": {"value": 0}}}}], "games": null}, {"id": 94776009, "state": 3, "round": -4, "fullRoundText": "Losers Round 2", "completedAt": 1759885421, "winnerId": 21491366, "slots": [{"id": "94776009-0", "entrant": {"id": 21491914, "name": "Archway", "participants": [{"id": 19750427, "gamerTag": "Archway", "prefix": "", "user": {"location": {"city": "Sandy Springs", "state": "GA", "country": "United States"}}, "player": {"id": 1435251, "gamerTag": "Archway", "prefix": "", "user": {"location": {"city": "Sandy Springs", "state": "GA", "country": "United States"}}}}]}, "standing": {"placement": 2, "stats": {"score": {"value": 1}}}}, {"id": "94776009-1", "entrant": {"id": 21491366, "name": "Burboovas", "participants": [{"id": 19749893, "gamerTag": "Burboovas", "prefix": null, "user": {"location": {"city": null, "state": null, "country": null}}, "player": {"id": 3927191, "gamerTag": "Burboovas", "prefix": null, "user": {"location": {"city": null, "state": null, "country": null}}}}]}, "standing": {"placement": 1, "stats": {"score": {"value": 3}}}}], "games": null}, {"id": 94776010, "state": 3, "round": -4, "fullRoundText": "Losers Round 2", "completedAt": 1759885337, "winnerId": 21485238, "slots": [{"id": "94776010-0", "entrant": {"id": 21491578, "name": "Gelsk", "participants": [{"id": 19750095, "gamerTag": "Gelsk", "prefix": null, "user": {"location": {"city": "Alameda", "state": "CA", "country": "United States"}}, "player": {"id": 1853371, "gamerTag": "Gelsk", "prefix": null, "user": {"location": {"city": "Alameda", "state": "CA", "country": "United States"}}}}]}, "standing": {"placement": 2, "stats": {"score": {"value": 2}}}}, {"id": "94776010-1", "entrant": {"id": 21485238, "name": "Jabberwock", "participants": [{"id": 19744300, "gamerTag": "Jabberwock", "prefix": null, "user": {"location": {"city": "Jasper", "state": "GA", "country": "United States"}}, "player": {"id": 4954334, "gamerTag": "Jabberwock", "prefix": null, "user": {"location": {"city": "Jasper", "state": "GA", "country": "United States"}}}}]}, "standing": {"placement": 1, "stats": {"score": {"value": 3}}}}], "games": null}, {"id": 94776011, "state": 3, "round": -4, "fullRoundText": "Losers Round 2", "completedAt": 1759886316, "winnerId": 21492275, "slots": [{"id": "94776011-0", "entrant": {"id": 21492275, "name": "EEK!", "participants": [{"id": 19750752, "gamerTag": "EEK!", "prefix": null, "user": {"location": {"city": "Atlanta", "state": "GA", "country": "United States"}}, "player": {"id": 148794, "gamerTag": "EEK!", "prefix": null, "user": {"location": {"city": "Atlanta", "state": "GA", "country": "United States"}}}}]}, "standing": {"placement": 1, "stats": {"score": {"value": 3}}}}, {"id": "94776011-1", "entrant": {"id": 21487652, "name": "Necro17", "participants": [{"id": 19746553, "gamerTag": "Necro17", "prefix": null, "user": {"location": {"city": "Alpharetta", "state": "GA", "country": "United States"}}, "player": {"id": 4983658, "gamerTag": "Necro17", "prefix": null, "user": {"location": {"city": "Alpharetta", "state": "GA", "country": "United States"}}}}]}, "standing": {"placement": 2, "stats": {"score": {"value": 1}}}}], "games": null}, {"id": 94776005, "state": 3, "round": -3, "fullRoundText": "Losers Round 1", "completedAt": 1759884680, "winnerId": 21491366, "slots": [{"id": "94776005-0", "entrant": {"id": 21491366, "name": "Burboovas", "participants": [{"id": 19749893, "gamerTag": "Burboovas", "prefix": null, "user": {"location": {"city": null, "state": null, "country": null}}, "player": {"id": 3927191, "gamerTag": "Burboovas", "prefix": null, "user": {"location": {"city": null, "state": null, "country": null}}}}]}, "standing": {"placement": 1, "stats": {"score": {"value": 3}}}}, {"id": "94776005-1", "entrant": {"id": 21489014, "name": "Pazure", "participants": [{"id": 19747809, "gamerTag": "Pazure", "prefix": null, "user": {"location": {"city": null, "state": null, "country": "United States"}}, "player": {"id": 72218, "gamerTag": "Pazure", "prefix": null, "user": {"location": {"city": null, "state": null, "country": "United States"}}}}]}, "standing": {"placement": 2, "stats": {"score": {"value": 0}}}}], "games": null}, {"id": 94776006, "state": 3, "round": -3, "fullRoundText": "Losers Round 1", "completedAt": 1759884605, "winnerId": 21485238, "slots": [{"id": "94776006-0", "entrant": {"id": 21492007, "name": "Deph", "participants": [{"id": 19750438, "gamerTag": "Deph", "prefix": null, "user": {"location": {"city": "Atlanta", "state": "GA", "country": "United States"}}, "player": {"id": 3498977, "gamerTag": "Deph", "prefix": null, "user": {"location": {"city": "Atlanta", "state": "GA", "country": "United States"}}}}]}, "standing": {"placement": 2, "stats": {"score": {"value": 1}}}}, {"id": "94776006-1", "entrant": {"id": 21485238, "name": "Jabberwock", "participants": [{"id": 19744300, "gamerTag": "Jabberwock", "prefix": null, "user": {"location": {"city": "Jasper", "state": "GA", "country": "United States"}}, "player": {"id": 4954334, "gamerTag": "Jabberwock", "prefix": null, "user": {"location": {"city": "Jasper", "state": "GA", "country": "United States"}}}}]}, "standing": {"placement": 1, "stats": {"score": {"value": 3}}}}], "games": null}, {"id": 94776007, "state": 3, "round": -3, "fullRoundText": "Losers Round 1", "completedAt": 1759885644, "winnerId": 21487652, "slots": [{"id": "94776007-0", "entrant": {"id": 21491601, "name": "bsharkz", "participants": [{"id": 19750114, "gamerTag": "bsharkz", "prefix": "", "user": {"location": {"city": "Atlanta", "state": "FL", "country": "United States"}}, "player": {"id": 4297884, "gamerTag": "bsharkz", "prefix": "", "user": {"location": {"city": "Atlanta", "state": "FL", "country": "United States"}}}}]}, "standing": {"placement": 2, "stats": {"score": {"value": 1}}}}, {"id": "94776007-1", "entrant": {"id": 21487652, "name": "Necro17", "participants": [{"id": 19746553, "gamerTag": "Necro17", "prefix": null, "user": {"location": {"city": "Alpharetta", "state": "GA", "country": "United States"}}, "player": {"id": 4983658, "gamerTag": "Necro17", "prefix": null, "user": {"location": {"city": "Alpharetta", "state": "GA", "country": "United States"}}}}]}, "standing": {"placement": 1, "stats": {"score": {"value": 3}}}}], "games": null}, {"id": 94775972, "state": 3, "round": 1, "fullRoundText": "Winners Round 1", "completedAt": 1759883462, "winnerId": 21492275, "slots": [{"id": "94775972-0", "entrant": {"id": 21492275, "name": "EEK!", "participants": [{"id": 19750752, "gamerTag": "EEK!", "prefix": null, "user": {"location": {"city": "Atlanta", "state": "GA", "country": "United States"}}, "player": {"id": 148794, "gamerTag": "EEK!", "prefix": null, "user": {"location": {"city": "Atlanta", "state": "GA", "country": "United States"}}}}]}, "standing": {"placement": 1, "stats": {"score": {"value": 3}}}}, {"id": "94775972-1", "entrant": {"id": 21491964, "name": "Leon Nights", "participants": [{"id": 19750471, "gamerTag": "Leon Nights", "prefix": null, "user": {"location": {"city": "Atlanta", "state": "GA", "country": "United States"}}, "player": {"id": 4752335, "gamerTag": "Leon Nights", "prefix": null, "user": {"location": {"city": "Atlanta", "state": "GA", "country": "United States"}}}}]}, "standing": {"placement": 2, "stats": {"score": {"value": 0}}}}], "games": null}, {"id": 94775973, "state": 3, "round": 1, "fullRoundText": "Winners Round 1", "completedAt": 1759883469, "winnerId": 21491578, "slots": [{"id": "94775973-0", "entrant": {"id": 21491366, "name": "Burboovas", "participants": [{"id": 19749893, "gamerTag": "Burboovas", "prefix": null, "user": {"location": {"city": null, "state": null, "country": null}}, "player": {"id": 3927191, "gamerTag": "Burboovas", "prefix": null, "user": {"location": {"city": null, "state": null, "country": null}}}}]}, "standing": {"placement": 2, "stats": {"score": {"value": -1}}}}, {"id": "94775973-1", "entrant": {"id": 21491578, "name": "Gelsk", "participants": [{"id": 19750095, "gamerTag": "Gelsk", "prefix": null, "user": {"location": {"city": "Alameda", "state": "CA", "country": "United States"}}, "player": {"id": 1853371, "gamerTag": "Gelsk", "prefix": null, "user": {"location": {"city": "Alameda", "state": "CA", "country": "United States"}}}}]}, "standing": {"placement": 1, "stats": {"score": {"value": null}}}}], "games": null}, {"id": 94775974, "state": 3, "round": 1, "fullRoundText": "Winners Round 1", "completedAt": 1759883511, "winnerId": 21490203, "slots": [{"id": "94775974-0", "entrant": {"id": 21490203, "name": "4o4 | byronic zero", "participants": [{"id": 19748846, "gamerTag": "byronic zero", "prefix": "4o4", "user": {"location": {"city": "Atlanta", "state": "GA", "country": "United States"}}, "player": {"id": 3577590, "gamerTag": "byronic zero", "prefix": "4o4", "user": {"location": {"city": "Atlanta", "state": "GA", "country": "United States"}}}}]}, "standing": {"placement": 1, "stats": {"score": {"value": 3}}}}, {"id": "94775974-1", "entrant": {"id": 21489014, "name": "Pazure", "participants": [{"id": 19747809, "gamerTag": "Pazure", "prefix": null, "user": {"location": {"city": null, "state": null, "country": "United States"}}, "player": {"id": 72218, "gamerTag": "Pazure", "prefix": null, "user": {"location": {"city": null, "state": null, "country": "United States"}}}}]}, "standing": {"placement": 2, "stats": {"score": {"value": 0}}}}], "games": null}, {"id": 94775975, "state": 3, "round": 1, "fullRoundText": "Winners Round 1", "completedAt": 1759883561, "winnerId": 21479834, "slots": [{"id": "94775975-0", "entrant": {"id": 21479834, "name": "4o4 | chrisymandias", "participants": [{"id": 19739537, "gamerTag": "chrisymandias", "prefix": "4o4", "user": {"location": {"city": "Dacula", "state": "GA", "country": "United States"}}, "player": {"id": 258173, "gamerTag": "chrisymandias", "prefix": "4o4", "user": {"location": {"city": "Dacula", "state": "GA", "country": "United States"}}}}]}, "standing": {"placement": 1, "stats": {"score": {"value": 3}}}}, {"id": "94775975-1", "entrant": {"id": 21492007, "name": "Deph", "participants": [{"id": 19750438, "gamerTag": "Deph", "prefix": null, "user": {"location": {"city": "Atlanta", "state": "GA", "country": "United States"}}, "player": {"id": 3498977, "gamerTag": "Deph", "prefix": null, "user": {"location": {"city": "Atlanta", "state": "GA", "country": "United States"}}}}]}, "standing": {"placement": 2, "stats": {"score": {"value": 1}}}}], "games": null}, {"id": 94775976, "state": 3, "round": 1, "fullRoundText": "Winners Round 1", "completedAt": 1759883721, "winnerId": 21491914, "slots": [{"id": "94775976-0", "entrant": {"id": 21491914, "name": "Archway", "participants": [{"id": 19750427, "gamerTag": "Archway", "prefix": "", "user": {"location": {"city": "Sandy Springs", "state": "GA", "country": "United States"}}, "player": {"id": 1435251, "gamerTag": "Archway", "prefix": "", "user": {"location": {"city": "Sandy Springs", "state": "GA", "country": "United States"}}}}]}, "standing": {"placement": 1, "stats": {"score": {"value": 3}}}}, {"id": "94775976-1", "entrant": {"id": 21485238, "name": "Jabberwock", "participants": [{"id": 19744300, "gamerTag": "Jabberwock", "prefix": null, "user": {"location": {"city": "Jasper", "state": "GA", "country": "United States"}}, "player": {"id": 4954334, "gamerTag": "Jabberwock", "prefix": null, "user": {"location": {"city": "Jasper", "state": "GA", "country": "United States"}}}}]}, "standing": {"placement": 2, "stats": {"score": {"value": 2}}}}], "games": null}, {"id": 94775977, "state": 3, "round": 1, "fullRoundText": "Winners Round 1", "completedAt": 1759884779, "winnerId": 21492399, "slots": [{"id": "94775977-0", "entrant": {"id": 21492399, "name": "Buddylikefriend", "participants": [{"id": 19750852, "gamerTag": "Buddylikefriend", "prefix": null, "user": {"location": {"city": "Atlanta", "state": "GA", "country": "United States"}}, "player": {"id": 785557, "gamerTag": "Buddylikefriend", "prefix": null, "user": {"location": {"city": "Atlanta", "state": "GA", "country": "United States"}}}}]}, "standing": {"placement": 1, "stats": {"score": {"value": 3}}}}, {"id": "94775977-1", "entrant": {"id": 21491601, "name": "bsharkz", "participants": [{"id": 19750114, "gamerTag": "bsharkz", "prefix": "", "user": {"location": {"city": "Atlanta", "state": "FL", "country": "United States"}}, "player": {"id": 4297884, "gamerTag": "bsharkz", "prefix": "", "user": {"location": {"city": "Atlanta", "state": "FL", "country": "United States"}}}}]}, "standing": {"placement": 2, "stats": {"score": {"value": 2}}}}], "games": null}, {"id": 94775978, "state": 3, "round": 1, "fullRoundText": "Winners Round 1", "completedAt": 1759883806, "winnerId": 21488555, "slots": [{"id": "94775978-0", "entrant": {"id": 21488555, "name": "Noodle", "participants": [{"id": 19747395, "gamerTag": "Noodle", "prefix": "", "user": {"location": {"city": "McDonough", "state": "GA", "country": "United States"}}, "player": {"id": 3029288, "gamerTag": "Noodle", "prefix": "", "user": {"location": {"city": "McDonough", "state": "GA", "country": "United States"}}}}]}, "standing": {"placement": 1, "stats": {"score": {"value": 3}}}}, {"id": "94775978-1", "entrant": {"id": 21487652, "name": "Necro17", "participants": [{"id": 19746553, "gamerTag": "Necro17", "prefix": null, "user": {"location": {"city": "Alpharetta", "state": "GA", "country": "United States"}}, "player": {"id": 4983658, "gamerTag": "Necro17", "prefix": null, "user": {"location": {"city": "Alpharetta", "state": "GA", "country": "United States"}}}}]}, "standing": {"placement": 2, "stats": {"score": {"value": 2}}}}], "games": null}]}}}