{"phase": {"seeds": {"pageInfo": {"totalPages": 1, "total": 7}, "nodes": [{"id": 36804092, "seedNum": 5, "entrant": {"id": 21397403, "name": "FNG | I hate Krool", "participants": [{"id": 19668463, "gamerTag": "I hate Krool", "prefix": "FNG", "user": {"location": {"city": "Macon", "state": "GA", "country": "United States"}}, "player": {"id": 3328447, "gamerTag": "I hate Krool", "prefix": "FNG", "user": {"location": {"city": "Macon", "state": "GA", "country": "United States"}}}}]}}, {"id": 36805395, "seedNum": 7, "entrant": {"id": 21398505, "name": "Boxboy", "participants": [{"id": 19669376, "gamerTag": "Boxboy", "prefix": "", "user": {"location": {"city": "Tifton", "state": "GA", "country": "United States"}}, "player": {"id": 1174039, "gamerTag": "Boxboy", "prefix": "", "user": {"location": {"city": "Tifton", "state": "GA", "country": "United States"}}}}]}}, {"id": 36428274, "seedNum": 1, "entrant": {"id": 21139210, "name": "FNG | S0URCEC0DE", "participants": [{"id": 19443969, "gamerTag": "S0URCEC0DE", "prefix": "FNG", "user": {"location": {"city": "Macon", "state": "GA", "country": "United States"}}, "player": {"id": 2699776, "gamerTag": "S0URCEC0DE", "prefix": "FNG", "user": {"location": {"city": "Macon", "state": "GA", "country": "United States"}}}}]}}, {"id": 36803986, "seedNum": 4, "entrant": {"id": 21397307, "name": "FNG | Sonder", "participants": [{"id": 19668375, "gamerTag": "Sonder", "prefix": "FNG", "user": {"location": {"city": "Macon", "state": "GA", "country": "United States"}}, "player": {"id": 3776282, "gamerTag": "Sonder", "prefix": "FNG", "user": {"location": {"city": "Macon", "state": "GA", "country": "United States"}}}}]}}, {"id": 36434682, "seedNum": 2, "entrant": {"id": 21143919, "name": "FNG | SHB", "participants": [{"id": 19448048, "gamerTag": "SHB", "prefix": "FNG", "user": {"location": {"city": null, "state": null, "country": "United States"}}, "player": {"id": 3194253, "gamerTag": "SHB", "prefix": "FNG", "user": {"location": {"city": null, "state": null, "country": "United States"}}}}]}}, {"id": 36804953, "seedNum": 6, "entrant": {"id": 21398092, "name": "EISEN", "participants": [{"id": 19669014, "gamerTag": "EISEN", "prefix": "", "user": {"location": {"city": null, "state": null, "country": "United States"}}, "player": {"id": 3483274, "gamerTag": "EISEN", "prefix": "", "user": {"location": {"city": null, "state": null, "country": "United States"}}}}]}}, {"id": 36527527, "seedNum": 3, "entrant": {"id": 21206014, "name": "Joyblossom", "participants": [{"id": 19502509, "gamerTag": "Joyblossom", "prefix": null, "user": {"location": {"city": "Macon", "state": "GA", "country": "United States"}}, "player": {"id": 4675246, "gamerTag": "Joyblossom", "prefix": null, "user": {"location": {"city": "Macon", "state": "GA", "country": "United States"}}}}]}}]}}}