{"event": {"sets": {"pageInfo": {"totalPages": 22, "total": 318}, "nodes": [{"id": 92227404, "state": 3, "round": 4, "fullRoundText": "Winners Quarter-Final", "completedAt": 1754170556, "winnerId": 20735917, "slots": [{"id": "92227404-0", "entrant": {"id": 20735917, "name": "DTN | Fatality", "participants": [{"id": 19082720, "gamerTag": "Fatality", "prefix": "DTN", "user": {"location": {"city": "Lilburn", "state": "GA", "country": "United States"}}, "player": {"id": 15921, "gamerTag": "Fatality", "prefix": "DTN", "user": {"location": {"city": "Lilburn", "state": "GA", "country": "United States"}}}}]}, "standing": {"placement": 1, "stats": {"score": {"value": 2}}}}, {"id": "92227404-1", "entrant": {"id": 20487847, "name": "GUMP2 | ToxiC", "participants": [{"id": 18867033, "gamerTag": "ToxiC", "prefix": "GUMP2", "user": {"location": {"city": "Marietta", "state": "GA", "country": "United States"}}, "player": {"id": 2585804, "gamerTag": "ToxiC", "prefix": "GUMP2", "user": {"location": {"city": "Marietta", "state": "GA", "country": "United States"}}}}]}, "standing": {"placement": 2, "stats": {"score": {"value": 0}}}}], "games": null}, {"id": 92227854, "state": 3, "round": 4, "fullRoundText": "Winners Quarter-Final", "completedAt": 1754177530, "winnerId": 20495676, "slots": [{"id": "92227854-0", "entrant": {"id": 20709705, "name": "Cobalt", "participants": [{"id": 19060234, "gamerTag": "Cobalt", "prefix": null, "user": {"location": {"city": "Gainesville", "state": "GA", "country": "United States"}}, "player": {"id": 181792, "gamerTag": "Cobalt", "prefix": null, "user": {"location": {"city": "Gainesville", "state": "GA", "country": "United States"}}}}]}, "standing": {"placement": 2, "stats": {"score": {"value": 0}}}}, {"id": "92227854-1", "entrant": {"id": 20495676, "name": "Hell Mode | ROB Slayer", "participants": [{"id": 18873880, "gamerTag": "ROB Slayer", "prefix": "Hell Mode", "user": {"location": {"city": "Atlanta", "state": "GA", "country": "United States"}}, "player": {"id": 2414381, "gamerTag": "ROB Slayer", "prefix": "Hell Mode", "user": {"location": {"city": "Atlanta", "state": "GA", "country": "United States"}}}}]}, "standing": {"placement": 1, "stats": {"score": {"value": 2}}}}], "games": null}, {"id": 92110795, "state": 3, "round": 4, "fullRoundText": "Winners Final", "completedAt": 1754186006, "winnerId": 20666441, "slots": [{"id": "92110795-0", "entrant": {"id": 20666441, "name": "WIN | Peabnut", "participants": [{"id": 19022842, "gamerTag": "Peabnut", "prefix": "WIN", "user": {"location": {"city": "Rock Hill", "state": "SC", "country": "United States"}}, "player": {"id": 49302, "gamerTag": "Peabnut", "prefix": "WIN", "user": {"location": {"city": "Rock Hill", "state": "SC", "country": "United States"}}}}]}, "standing": {"placement": 1, "stats": {"score": {"value": 3}}}}, {"id": "92110795-1", "entrant": {"id": 20690838, "name": "SR | Kola", "participants": [{"id": 19043759, "gamerTag": "Kola", "prefix": "SR", "user": {"location": {"city": "Duluth", "state": "GA", "country": "United States"}}, "player": {"id": 18802, "gamerTag": "Kola", "prefix": "SR", "user": {"location": {"city": "Duluth", "state": "GA", "country": "United States"}}}}]}, "standing": {"placement": 2, "stats": {"score": {"value": 2}}}}], "games": null}, {"id": 92110859, "state": 3, "round": -10, "fullRoundText": "Losers Final", "completedAt": 1754190232, "winnerId": 20690838, "slots": [{"id": "92110859-0", "entrant": {"id": 20690838, "name": "SR | Kola", "participants": [{"id": 19043759, "gamerTag": "Kola", "prefix": "SR", "user": {"location": {"city": "Duluth", "state": "GA", "country": "United States"}}, "player": {"id": 18802, "gamerTag": "Kola", "prefix": "SR", "user": {"location": {"city": "Duluth", "state": "GA", "country": "United States"}}}}]}, "standing": {"placement": 1, "stats": {"score": {"value": 3}}}}, {"id": "92110859-1", "entrant": {"id": 20699992, "name": "SFS | TCS | Dany", "participants": [{"id": 19051511, "gamerTag": "Dany", "prefix": "SFS | TCS", "user": {"location": {"city": "Nashville", "state": "TN", "country": "United States"}}, "player": {"id": 606386, "gamerTag": "Dany2theny", "prefix": "TCS", "user": {"location": {"city": "Nashville", "state": "TN", "country": "United States"}}}}]}, "standing": {"placement": 2, "stats": {"score": {"value": 0}}}}], "games": null}, {"id": 92227335, "state": 3, "round": -8, "fullRoundText": "Losers Round 5", "completedAt": 1754173411, "winnerId": 20494615, "slots": [{"id": "92227335-0", "entrant": {"id": 20768627, "name": "KumaDusk", "participants": [{"id": 19113784, "gamerTag": "KumaDusk", "prefix": "", "user": {"location": {"city": "Lawrenceville", "state": "GA", "country": "United States"}}, "player": {"id": 253909, "gamerTag": "KumaDusk", "prefix": "", "user": {"location": {"city": "Lawrenceville", "state": "GA", "country": "United States"}}}}]}, "standing": {"placement": 2, "stats": {"score": {"value": 0}}}}, {"id": "92227335-1", "entrant": {"id": 20494615, "name": "PACDUECE", "participants": [{"id": 18872949, "gamerTag": "PACDUECE", "prefix": "", "user": {"location": {"city": "Valdosta", "state": "GA", "country": "United States"}}, "player": {"id": 35275, "gamerTag": "PACDUECE", "prefix": "", "user": {"location": {"city": "Valdosta", "state": "GA", "country": "United States"}}}}]}, "standing": {"placement": 1, "stats": {"score": {"value": 2}}}}], "games": null}, {"id": 92227764, "state": 3, "round": -8, "fullRoundText": "Losers Round 5", "completedAt": 1754180882, "winnerId": 20673588, "slots": [{"id": "92227764-0", "entrant": {"id": 20673588, "name": "UTK | DBQ | HammerBro", "participants": [{"id": 19028789, "gamerTag": "HammerBro", "prefix": "UTK | DBQ", "user": {"location": {"city": "Chattanooga", "state": "TN", "country": "United States"}}, "player": {"id": 1080845, "gamerTag": "HammerBro", "prefix": "UTK | DBQ", "user": {"location": {"city": "Chattanooga", "state": "TN", "country": "United States"}}}}]}, "standing": {"placement": 1, "stats": {"score": {"value": 2}}}}, {"id": "92227764-1", "entrant": {"id": 20777459, "name": "UAH | Otogi", "participants": [{"id": 19121590, "gamerTag": "Otogi", "prefix": "UAH", "user": {"location": {"city": "Huntsville", "state": "AL", "country": "United States"}}, "player": {"id": 3846627, "gamerTag": "Otogi", "prefix": "Argon", "user": {"location": {"city": "Huntsville", "state": "AL", "country": "United States"}}}}]}, "standing": {"placement": 2, "stats": {"score": {"value": 0}}}}], "games": null}, {"id": 92227976, "state": 3, "round": -8, "fullRoundText": "Losers Round 5", "completedAt": 1754179642, "winnerId": 20482285, "slots": [{"id": "92227976-0", "entrant": {"id": 20482285, "name": "Ave~", "participants": [{"id": 18862343, "gamerTag": "Ave~", "prefix": "", "user": {"location": {"city": null, "state": null, "country": null}}, "player": {"id": 38830, "gamerTag": "Ave~", "prefix": "", "user": {"location": {"city": null, "state": null, "country": null}}}}]}, "standing": {"placement": 1, "stats": {"score": {"value": 2}}}}, {"id": "92227976-1", "entrant": {"id": 20719693, "name": "PHNM | Senn", "participants": [{"id": 19068870, "gamerTag": "Senn", "prefix": "PHNM", "user": {"location": {"city": "Waxhaw", "state": "NC", "country": "United States"}}, "player": {"id": 1194511, "gamerTag": "Senn", "prefix": "PHNM", "user": {"location": {"city": "Waxhaw", "state": "NC", "country": "United States"}}}}]}, "standing": {"placement": 2, "stats": {"score": {"value": 0}}}}], "games": null}, {"id": 92227526, "state": 3, "round": -8, "fullRoundText": "Losers Round 5", "completedAt": 1754173038, "winnerId": 20699992, "slots": [{"id": "92227526-0", "entrant": {"id": 20699992, "name": "SFS | TCS | Dany", "participants": [{"id": 19051511, "gamerTag": "Dany", "prefix": "SFS | TCS", "user": {"location": {"city": "Nashville", "state": "TN", "country": "United States"}}, "player": {"id": 606386, "gamerTag": "Dany2theny", "prefix": "TCS", "user": {"location": {"city": "Nashville", "state": "TN", "country": "United States"}}}}]}, "standing": {"placement": 1, "stats": {"score": {"value": 2}}}}, {"id": "92227526-1", "entrant": {"id": 20488758, "name": "LBE | Acid @ Indigo Park", "participants": [{"id": 18867695, "gamerTag": "Acid @ Indigo Park", "prefix": "LBE", "user": {"location": {"city": null, "state": null, "country": "United States"}}, "player": {"id": 1917673, "gamerTag": "Acid @ Indigo Park", "prefix": "LBE", "user": {"location": {"city": null, "state": null, "country": "United States"}}}}]}, "standing": {"placement": 2, "stats": {"score": {"value": 0}}}}], "games": null}, {"id": 92227977, "state": 3, "round": -8, "fullRoundText": "Losers Round 5", "completedAt": 1754233027, "winnerId": 20709705, "slots": [{"id": "92227977-0", "entrant": {"id": 20709705, "name": "Cobalt", "participants": [{"id": 19060234, "gamerTag": "Cobalt", "prefix": null, "user": {"location": {"city": "Gainesville", "state": "GA", "country": "United States"}}, "player": {"id": 181792, "gamerTag": "Cobalt", "prefix": null, "user": {"location": {"city": "Gainesville", "state": "GA", "country": "United States"}}}}]}, "standing": {"placement": 1, "stats": {"score": {"value": 2}}}}, {"id": "92227977-1", "entrant": {"id": 20497378, "name": "Dubz", "participants": [{"id": 18875528, "gamerTag": "Dubz", "prefix": "", "user": {"location": {"city": "Grayson", "state": "GA", "country": "United States"}}, "player": {"id": 22583, "gamerTag": "Dubz", "prefix": "", "user": {"location": {"city": "Grayson", "state": "GA", "country": "United States"}}}}]}, "standing": {"placement": 2, "stats": {"score": {"value": 0}}}}], "games": null}, {"id": 92227336, "state": 3, "round": -8, "fullRoundText": "Losers Round 5", "completedAt": 1754173708, "winnerId": 20720131, "slots": [{"id": "92227336-0", "entrant": {"id": 20720131, "name": "PHNM | Chunky", "participants": [{"id": 19069296, "gamerTag": "Chunky", "prefix": "PHNM", "user": {"location": {"city": "Summerville", "state": "SC", "country": "United States"}}, "player": {"id": 1479891, "gamerTag": "Chunky", "prefix": "PHNM", "user": {"location": {"city": "Summerville", "state": "SC", "country": "United States"}}}}]}, "standing": {"placement": 1, "stats": {"score": {"value": 2}}}}, {"id": "92227336-1", "entrant": {"id": 20634587, "name": "Rain~", "participants": [{"id": 18995271, "gamerTag": "Rain~", "prefix": null, "user": {"location": {"city": "Atlanta", "state": "GA", "country": "United States"}}, "player": {"id": 4240164, "gamerTag": "Rain~", "prefix": null, "user": {"location": {"city": "Atlanta", "state": "GA", "country": "United States"}}}}]}, "standing": {"placement": 2, "stats": {"score": {"value": 0}}}}], "games": null}, {"id": 92227527, "state": 3, "round": -8, "fullRoundText": "Losers Round 5", "completedAt": 1754173514, "winnerId": 20490407, "slots": [{"id": "92227527-0", "entrant": {"id": 20487847, "name": "GUMP2 | ToxiC", "participants": [{"id": 18867033, "gamerTag": "ToxiC", "prefix": "GUMP2", "user": {"location": {"city": "Marietta", "state": "GA", "country": "United States"}}, "player": {"id": 2585804, "gamerTag": "ToxiC", "prefix": "GUMP2", "user": {"location": {"city": "Marietta", "state": "GA", "country": "United States"}}}}]}, "standing": {"placement": 2, "stats": {"score": {"value": 1}}}}, {"id": "92227527-1", "entrant": {"id": 20490407, "name": "TC | Mr.Speedman", "participants": [{"id": 18869131, "gamerTag": "Mr.Speedman", "prefix": "TC", "user": {"location": {"city": "Roswell", "state": "GA", "country": "United States"}}, "player": {"id": 36192, "gamerTag": "Mr.Speedman", "prefix": "TC", "user": {"location": {"city": "Roswell", "state": "GA", "country": "United States"}}}}]}, "standing": {"placement": 1, "stats": {"score": {"value": 2}}}}], "games": null}, {"id": 92227765, "state": 3, "round": -8, "fullRoundText": "Losers Round 5", "completedAt": 1754179992, "winnerId": 20488678, "slots": [{"id": "92227765-0", "entrant": {"id": 20488678, "name": "GUMP2 | Eleven", "participants": [{"id": 18867622, "gamerTag": "Eleven", "prefix": "GUMP2", "user": {"location": {"city": null, "state": null, "country": null}}, "player": {"id": 2348605, "gamerTag": "Ryu from Streets", "prefix": "GUMP2", "user": {"location": {"city": null, "state": null, "country": null}}}}]}, "standing": {"placement": 1, "stats": {"score": {"value": 2}}}}, {"id": "92227765-1", "entrant": {"id": 20488306, "name": "VA | StreetDzine", "participants": [{"id": 18867299, "gamerTag": "StreetDzine", "prefix": "VA", "user": {"location": {"city": null, "state": null, "country": "United States"}}, "player": {"id": 989587, "gamerTag": "StreetDzine", "prefix": "VA", "user": {"location": {"city": null, "state": null, "country": "United States"}}}}]}, "standing": {"placement": 2, "stats": {"score": {"value": 0}}}}], "games": null}, {"id": 92227337, "state": 3, "round": -8, "fullRoundText": "Losers Round 5", "completedAt": 1754173239, "winnerId": 20564504, "slots": [{"id": "92227337-0", "entrant": {"id": 20564504, "name": "SmU5h | Shaine", "participants": [{"id": 18933874, "gamerTag": "Shaine", "prefix": "SmU5h", "user": {"location": {"city": "Leesburg", "state": "GA", "country": "United States"}}, "player": {"id": 1482843, "gamerTag": "Shaine", "prefix": "SmU5h", "user": {"location": {"city": "Leesburg", "state": "GA", "country": "United States"}}}}]}, "standing": {"placement": 1, "stats": {"score": {"value": 2}}}}, {"id": "92227337-1", "entrant": {"id": 20501806, "name": "GUMP2 | STiCK", "participants": [{"id": 18879245, "gamerTag": "STiCK", "prefix": "GUMP2", "user": {"location": {"city": "Woodstock", "state": "GA", "country": "United States"}}, "player": {"id": 282674, "gamerTag": "STiCK", "prefix": "GUMP2", "user": {"location": {"city": "Woodstock", "state": "GA", "country": "United States"}}}}]}, "standing": {"placement": 2, "stats": {"score": {"value": 1}}}}], "games": null}, {"id": 92227978, "state": 3, "round": -8, "fullRoundText": "Losers Round 5", "completedAt": 1754179649, "winnerId": 20773601, "slots": [{"id": "92227978-0", "entrant": {"id": 20773601, "name": "TCS BTV/WOD | Lost", "participants": [{"id": 19118053, "gamerTag": "Lost", "prefix": "TCS BTV/WOD", "user": {"location": {"city": "Scotts Hill", "state": "TN", "country": "United States"}}, "player": {"id": 1683473, "gamerTag": "Lost", "prefix": "TCS BTV/WOD", "user": {"location": {"city": "Scotts Hill", "state": "TN", "country": "United States"}}}}]}, "standing": {"placement": 1, "stats": {"score": {"value": 2}}}}, {"id": "92227978-1", "entrant": {"id": 20566667, "name": "UNCG | Chugs", "participants": [{"id": 18935801, "gamerTag": "Chugs", "prefix": "UNCG", "user": {"location": {"city": "Winston-Salem", "state": "NC", "country": "United States"}}, "player": {"id": 1820508, "gamerTag": "Chugs", "prefix": "UNCG", "user": {"location": {"city": "Winston-Salem", "state": "NC", "country": "United States"}}}}]}, "standing": {"placement": 2, "stats": {"score": {"value": 1}}}}], "games": null}, {"id": 92227766, "state": 3, "round": -8, "fullRoundText": "Losers Round 5", "completedAt": 1754181301, "winnerId": 20615765, "slots": [{"id": "92227766-0", "entrant": {"id": 20487980, "name": "crystal pg | blue dog", "participants": [{"id": 18867134, "gamerTag": "blue dog", "prefix": "crystal pg", "user": {"location": {"city": "Matthews", "state": "NC", "country": "United States"}}, "player": {"id": 2279258, "gamerTag": "blue dog", "prefix": "crystal pg", "user": {"location": {"city": "Matthews", "state": "NC", "country": "United States"}}}}]}, "standing": {"placement": 2, "stats": {"score": {"value": 1}}}}, {"id": "92227766-1", "entrant": {"id": 20615765, "name": "RM | GUMP2 | Kr!stal:0", "participants": [{"id": 18978540, "gamerTag": "Kr!stal:0", "prefix": "RM | GUMP2", "user": {"location": {"city": "Lawrenceville", "state": "GA", "country": "United States"}}, "player": {"id": 2409815, "gamerTag": "AO ASHI SEASON 2 2026", "prefix": "RM | GUMP2", "user": {"location": {"city": "Lawrenceville", "state": "GA", "country": "United States"}}}}]}, "standing": {"placement": 1, "stats": {"score": {"value": 2}}}}], "games": null}]}}}