{"event": {"sets": {"pageInfo": {"totalPages": 7, "total": 101}, "nodes": [{"id": 93337926, "state": 3, "round": -5, "fullRoundText": "Losers Round 3", "completedAt": 1756660949, "winnerId": 21126747, "slots": [{"id": "93337926-0", "entrant": {"id": 21126747, "name": "Aaron", "participants": [{"id": 19432451, "gamerTag": "Aaron", "prefix": null, "user": {"location": {"city": "Lexington", "state": null, "country": null}}, "player": {"id": 448165, "gamerTag": "Aaron", "prefix": null, "user": {"location": {"city": "Lexington", "state": null, "country": null}}}}]}, "standing": {"placement": 1, "stats": {"score": {"value": 2}}}}, {"id": "93337926-1", "entrant": {"id": 21099538, "name": "JJ Hardy", "participants": [{"id": 19408044, "gamerTag": "JJ Hardy", "prefix": null, "user": {"location": {"city": "Windsor", "state": "CT", "country": "United States"}}, "player": {"id": 1825931, "gamerTag": "JJ Hardy", "prefix": "", "user": {"location": {"city": "Windsor", "state": "CT", "country": "United States"}}}}]}, "standing": {"placement": 2, "stats": {"score": {"value": 0}}}}], "games": null}, {"id": 93351248, "state": 3, "round": -5, "fullRoundText": "Losers Round 3", "completedAt": 1756677013, "winnerId": 21122153, "slots": [{"id": "93351248-0", "entrant": {"id": 21122153, "name": "MTM | Bob Weiner", "participants": [{"id": 19428298, "gamerTag": "Bob Weiner", "prefix": "MTM", "user": {"location": {"city": "Kennesaw", "state": "GA", "country": "United States"}}, "player": {"id": 2142601, "gamerTag": "Bob Weiner", "prefix": "MTM", "user": {"location": {"city": "Kennesaw", "state": "GA", "country": "United States"}}}}]}, "standing": {"placement": 1, "stats": {"score": {"value": 2}}}}, {"id": "93351248-1", "entrant": {"id": 21127162, "name": "BeigeMage", "participants": [{"id": 19432878, "gamerTag": "BeigeMage", "prefix": "", "user": {"location": {"city": "Savannah", "state": "GA", "country": "United States"}}, "player": {"id": 4949517, "gamerTag": "BeigeMage", "prefix": "", "user": {"location": {"city": "Savannah", "state": "GA", "country": "United States"}}}}]}, "standing": {"placement": 2, "stats": {"score": {"value": 1}}}}], "games": null}, {"id": 93342901, "state": 3, "round": -5, "fullRoundText": "Losers Round 3", "completedAt": 1756668601, "winnerId": 21128641, "slots": [{"id": "93342901-0", "entrant": {"id": 21128641, "name": "TFT | BigCheese", "participants": [{"id": 19434413, "gamerTag": "BigCheese", "prefix": "TFT", "user": {"location": {"city": null, "state": null, "country": null}}, "player": {"id": 3991446, "gamerTag": "BigCheese", "prefix": "TFT", "user": {"location": {"city": null, "state": null, "country": null}}}}]}, "standing": {"placement": 1, "stats": {"score": {"value": 2}}}}, {"id": "93342901-1", "entrant": {"id": 21104042, "name": "Chromaticblue28", "participants": [{"id": 19412220, "gamerTag": "Chromaticblue28", "prefix": null, "user": {"location": {"city": null, "state": null, "country": null}}, "player": {"id": 3607653, "gamerTag": "Chromaticblue28", "prefix": null, "user": {"location": {"city": null, "state": null, "country": null}}}}]}, "standing": {"placement": 2, "stats": {"score": {"value": 0}}}}], "games": null}, {"id": 93337927, "state": 3, "round": -5, "fullRoundText": "Losers Round 3", "completedAt": 1756658740, "winnerId": 21030363, "slots": [{"id": "93337927-0", "entrant": {"id": 21030363, "name": "w3155", "participants": [{"id": 19345540, "gamerTag": "w3155", "prefix": "", "user": {"location": {"city": "Flowery Branch", "state": "GA", "country": "United States"}}, "player": {"id": 3556938, "gamerTag": "w3155", "prefix": "", "user": {"location": {"city": "Flowery Branch", "state": "GA", "country": "United States"}}}}]}, "standing": {"placement": 1, "stats": {"score": {"value": null}}}}, {"id": "93337927-1", "entrant": {"id": 21050482, "name": "Vincenzo", "participants": [{"id": 19363924, "gamerTag": "Vincenzo", "prefix": "", "user": {"location": {"city": "Raleigh", "state": "NC", "country": "United States"}}, "player": {"id": 4381443, "gamerTag": "SirBacon", "prefix": null, "user": {"location": {"city": "Raleigh", "state": "NC", "country": "United States"}}}}]}, "standing": {"placement": 2, "stats": {"score": {"value": -1}}}}], "games": null}, {"id": 93342902, "state": 3, "round": -5, "fullRoundText": "Losers Round 3", "completedAt": 1756669483, "winnerId": 21074825, "slots": [{"id": "93342902-0", "entrant": {"id": 21119103, "name": "SirMelltheGreat", "participants": [{"id": 19425677, "gamerTag": "SirMelltheGreat", "prefix": "", "user": {"location": {"city": "Savannah", "state": "GA", "country": "United States"}}, "player": {"id": 3603872, "gamerTag": "SirMelltheGreat", "prefix": "", "user": {"location": {"city": "Savannah", "state": "GA", "country": "United States"}}}}]}, "standing": {"placement": 2, "stats": {"score": {"value": 1}}}}, {"id": "93342902-1", "entrant": {"id": 21074825, "name": "LUNAR.", "participants": [{"id": 19385730, "gamerTag": "LUNAR.", "prefix": null, "user": {"location": {"city": "Nashville", "state": "TN", "country": "United States"}}, "player": {"id": 2708713, "gamerTag": "LUNAR.", "prefix": null, "user": {"location": {"city": "Nashville", "state": "TN", "country": "United States"}}}}]}, "standing": {"placement": 1, "stats": {"score": {"value": 2}}}}], "games": null}, {"id": 93351249, "state": 3, "round": -5, "fullRoundText": "Losers Round 3", "completedAt": 1756676167, "winnerId": 21062074, "slots": [{"id": "93351249-0", "entrant": {"id": 21062074, "name": "Jdaddy", "participants": [{"id": 19374212, "gamerTag": "Jdaddy", "prefix": null, "user": {"location": {"city": "Atlanta", "state": "GA", "country": "United States"}}, "player": {"id": 4384721, "gamerTag": "Jdaddy", "prefix": null, "user": {"location": {"city": "Atlanta", "state": "GA", "country": "United States"}}}}]}, "standing": {"placement": 1, "stats": {"score": {"value": 2}}}}, {"id": "93351249-1", "entrant": {"id": 21103454, "name": "Tilted", "participants": [{"id": 19411689, "gamerTag": "Tilted", "prefix": null, "user": {"location": {"city": "Norcross", "state": "GA", "country": "United States"}}, "player": {"id": 2377635, "gamerTag": "Tilted", "prefix": null, "user": {"location": {"city": "Norcross", "state": "GA", "country": "United States"}}}}]}, "standing": {"placement": 2, "stats": {"score": {"value": 1}}}}], "games": null}, {"id": 93357362, "state": 3, "round": 2, "fullRoundText": "Winners Quarter-Final", "completedAt": 1756680761, "winnerId": 21047863, "slots": [{"id": "93357362-0", "entrant": {"id": 21047863, "name": "PH | Nimbus", "participants": [{"id": 19361535, "gamerTag": "Nimbus", "prefix": "PH", "user": {"location": {"city": "Roswell", "state": "GA", "country": "United States"}}, "player": {"id": 36462, "gamerTag": "Nimbus", "prefix": "PH", "user": {"location": {"city": "Roswell", "state": "GA", "country": "United States"}}}}]}, "standing": {"placement": 1, "stats": {"score": {"value": 2}}}}, {"id": "93357362-1", "entrant": {"id": 21059693, "name": "Bitazeee", "participants": [{"id": 19371927, "gamerTag": "Bitazeee", "prefix": null, "user": {"location": {"city": "Charlotte", "state": "NC", "country": "United States"}}, "player": {"id": 3817099, "gamerTag": "Bitazeee", "prefix": null, "user": {"location": {"city": "Charlotte", "state": "NC", "country": "United States"}}}}]}, "standing": {"placement": 2, "stats": {"score": {"value": 0}}}}], "games": null}, {"id": 93362513, "state": 3, "round": 2, "fullRoundText": "Winners Semi-Final", "completedAt": 1756689028, "winnerId": 21047863, "slots": [{"id": "93362513-0", "entrant": {"id": 21126107, "name": "Rain~", "participants": [{"id": 19431869, "gamerTag": "Rain~", "prefix": null, "user": {"location": {"city": "Atlanta", "state": "GA", "country": "United States"}}, "player": {"id": 4240164, "gamerTag": "Rain~", "prefix": null, "user": {"location": {"city": "Atlanta", "state": "GA", "country": "United States"}}}}]}, "standing": {"placement": 2, "stats": {"score": {"value": 1}}}}, {"id": "93362513-1", "entrant": {"id": 21047863, "name": "PH | Nimbus", "participants": [{"id": 19361535, "gamerTag": "Nimbus", "prefix": "PH", "user": {"location": {"city": "Roswell", "state": "GA", "country": "United States"}}, "player": {"id": 36462, "gamerTag": "Nimbus", "prefix": "PH", "user": {"location": {"city": "Roswell", "state": "GA", "country": "United States"}}}}]}, "standing": {"placement": 1, "stats": {"score": {"value": 2}}}}], "games": null}, {"id": 93351215, "state": 3, "round": 2, "fullRoundText": "Winners Quarter-Final", "completedAt": 1756673180, "winnerId": 20734707, "slots": [{"id": "93351215-0", "entrant": {"id": 20734707, "name": "Ave~", "participants": [{"id": 19081749, "gamerTag": "Ave~", "prefix": null, "user": {"location": {"city": null, "state": null, "country": null}}, "player": {"id": 38830, "gamerTag": "Ave~", "prefix": "", "user": {"location": {"city": null, "state": null, "country": null}}}}]}, "standing": {"placement": 1, "stats": {"score": {"value": 2}}}}, {"id": "93351215-1", "entrant": {"id": 21103454, "name": "Tilted", "participants": [{"id": 19411689, "gamerTag": "Tilted", "prefix": null, "user": {"location": {"city": "Norcross", "state": "GA", "country": "United States"}}, "player": {"id": 2377635, "gamerTag": "Tilted", "prefix": null, "user": {"location": {"city": "Norcross", "state": "GA", "country": "United States"}}}}]}, "standing": {"placement": 2, "stats": {"score": {"value": 0}}}}], "games": null}, {"id": 93342868, "state": 3, "round": 2, "fullRoundText": "Winners Quarter-Final", "completedAt": 1756664611, "winnerId": 21091492, "slots": [{"id": "93342868-0", "entrant": {"id": 21091492, "name": "Hell Mode | ROB Slayer", "participants": [{"id": 19400829, "gamerTag": "ROB Slayer", "prefix": "Hell Mode", "user": {"location": {"city": "Atlanta", "state": "GA", "country": "United States"}}, "player": {"id": 2414381, "gamerTag": "ROB Slayer", "prefix": "Hell Mode", "user": {"location": {"city": "Atlanta", "state": "GA", "country": "United States"}}}}]}, "standing": {"placement": 1, "stats": {"score": {"value": 2}}}}, {"id": "93342868-1", "entrant": {"id": 21074825, "name": "LUNAR.", "participants": [{"id": 19385730, "gamerTag": "LUNAR.", "prefix": null, "user": {"location": {"city": "Nashville", "state": "TN", "country": "United States"}}, "player": {"id": 2708713, "gamerTag": "LUNAR.", "prefix": null, "user": {"location": {"city": "Nashville", "state": "TN", "country": "United States"}}}}]}, "standing": {"placement": 2, "stats": {"score": {"value": 0}}}}], "games": null}, {"id": 93362514, "state": 3, "round": 2, "fullRoundText": "Winners Semi-Final", "completedAt": 1756687697, "winnerId": 21091492, "slots": [{"id": "93362514-0", "entrant": {"id": 21091492, "name": "Hell Mode | ROB Slayer", "participants": [{"id": 19400829, "gamerTag": "ROB Slayer", "prefix": "Hell Mode", "user": {"location": {"city": "Atlanta", "state": "GA", "country": "United States"}}, "player": {"id": 2414381, "gamerTag": "ROB Slayer", "prefix": "Hell Mode", "user": {"location": {"city": "Atlanta", "state": "GA", "country": "United States"}}}}]}, "standing": {"placement": 1, "stats": {"score": {"value": 2}}}}, {"id": "93362514-1", "entrant": {"id": 20734707, "name": "Ave~", "participants": [{"id": 19081749, "gamerTag": "Ave~", "prefix": null, "user": {"location": {"city": null, "state": null, "country": null}}, "player": {"id": 38830, "gamerTag": "Ave~", "prefix": "", "user": {"location": {"city": null, "state": null, "country": null}}}}]}, "standing": {"placement": 2, "stats": {"score": {"value": 0}}}}], "games": null}, {"id": 93337893, "state": 3, "round": 2, "fullRoundText": "Winners Quarter-Final", "completedAt": 1756657638, "winnerId": 20808909, "slots": [{"id": "93337893-0", "entrant": {"id": 21125645, "name": "DTN | Jahzz0", "participants": [{"id": 19431401, "gamerTag": "Jahzz0", "prefix": "DTN", "user": {"location": {"city": null, "state": null, "country": "United States"}}, "player": {"id": 946548, "gamerTag": "Jahzz0", "prefix": "DTN", "user": {"location": {"city": null, "state": null, "country": "United States"}}}}]}, "standing": {"placement": 2, "stats": {"score": {"value": -1}}}}, {"id": "93337893-1", "entrant": {"id": 20808909, "name": "Chade | BonusOnus", "participants": [{"id": 19150135, "gamerTag": "BonusOnus", "prefix": "Chade", "user": {"location": {"city": "Detroit", "state": "MI", "country": "United States"}}, "player": {"id": 3656221, "gamerTag": "BonusOnus", "prefix": "Chade", "user": {"location": {"city": "Detroit", "state": "MI", "country": "United States"}}}}]}, "standing": {"placement": 1, "stats": {"score": {"value": null}}}}], "games": null}, {"id": 93357363, "state": 3, "round": 2, "fullRoundText": "Winners Quarter-Final", "completedAt": 1756680148, "winnerId": 21078191, "slots": [{"id": "93357363-0", "entrant": {"id": 21121856, "name": "RAMS | RussianJesus", "participants": [{"id": 19428046, "gamerTag": "RussianJesus", "prefix": "RAMS", "user": {"location": {"city": "Atlanta", "state": "GA", "country": "United States"}}, "player": {"id": 1140567, "gamerTag": "RussianJesus", "prefix": "RAMS", "user": {"location": {"city": "Atlanta", "state": "GA", "country": "United States"}}}}]}, "standing": {"placement": 2, "stats": {"score": {"value": 0}}}}, {"id": "93357363-1", "entrant": {"id": 21078191, "name": "Heart", "participants": [{"id": 19388853, "gamerTag": "Heart", "prefix": "", "user": {"location": {"city": "Atlanta", "state": "GA", "country": "United States"}}, "player": {"id": 4287822, "gamerTag": "Heart", "prefix": "", "user": {"location": {"city": "Atlanta", "state": "GA", "country": "United States"}}}}]}, "standing": {"placement": 1, "stats": {"score": {"value": 2}}}}], "games": null}, {"id": 93342869, "state": 3, "round": 2, "fullRoundText": "Winners Quarter-Final", "completedAt": 1756665951, "winnerId": 21116312, "slots": [{"id": "93342869-0", "entrant": {"id": 21116312, "name": "TnT | Sid", "participants": [{"id": 19423112, "gamerTag": "Sid", "prefix": "TnT", "user": {"location": {"city": "Powder Springs", "state": "GA", "country": "United States"}}, "player": {"id": 1229067, "gamerTag": "Sid", "prefix": "TnT", "user": {"location": {"city": "Powder Springs", "state": "GA", "country": "United States"}}}}]}, "standing": {"placement": 1, "stats": {"score": {"value": 2}}}}, {"id": "93342869-1", "entrant": {"id": 21115111, "name": "Crimson", "participants": [{"id": 19422115, "gamerTag": "Crimson", "prefix": null, "user": {"location": {"city": "Peoria", "state": "AZ", "country": "United States"}}, "player": {"id": 4533084, "gamerTag": "Crimson", "prefix": "", "user": {"location": {"city": "Peoria", "state": "AZ", "country": "United States"}}}}]}, "standing": {"placement": 2, "stats": {"score": {"value": 1}}}}], "games": null}, {"id": 93357364, "state": 3, "round": 2, "fullRoundText": "Winners Quarter-Final", "completedAt": 1756679399, "winnerId": 21094406, "slots": [{"id": "93357364-0", "entrant": {"id": 21094406, "name": "pristinetao", "participants": [{"id": 19403485, "gamerTag": "pristinetao", "prefix": "", "user": {"location": {"city": null, "state": null, "country": null}}, "player": {"id": 2721225, "gamerTag": "pristinetao", "prefix": "", "user": {"location": {"city": null, "state": null, "country": null}}}}]}, "standing": {"placement": 1, "stats": {"score": {"value": 2}}}}, {"id": "93357364-1", "entrant": {"id": 20992611, "name": "Par-i-dot Alpha", "participants": [{"id": 19311138, "gamerTag": "Par-i-dot Alpha", "prefix": "", "user": {"location": {"city": "Lithoina", "state": "GA", "country": "United States"}}, "player": {"id": 36418, "gamerTag": "Avalon", "prefix": "", "user": {"location": {"city": "Lithoina", "state": "GA", "country": "United States"}}}}]}, "standing": {"placement": 2, "stats": {"score": {"value": 0}}}}], "games": null}]}}}