{"phase": {"seeds": {"pageInfo": {"totalPages": 1, "total": 43}, "nodes": [{"id": 36164206, "seedNum": 1, "entrant": {"id": 20971354, "name": "omega", "participants": [{"id": 19292936, "gamerTag": "omega", "prefix": "", "user": {"location": {"city": "Suwanee", "state": "GA", "country": "United States"}}, "player": {"id": 24638, "gamerTag": "omega", "prefix": "", "user": {"location": {"city": "Suwanee", "state": "GA", "country": "United States"}}}}]}}, {"id": 36164299, "seedNum": 2, "entrant": {"id": 20971432, "name": "DTN | Jahzz0", "participants": [{"id": 19293010, "gamerTag": "Jahzz0", "prefix": "DTN", "user": {"location": {"city": null, "state": null, "country": "United States"}}, "player": {"id": 946548, "gamerTag": "Jahzz0", "prefix": "DTN", "user": {"location": {"city": null, "state": null, "country": "United States"}}}}]}}, {"id": 36131716, "seedNum": 5, "entrant": {"id": 20950270, "name": "Tobe", "participants": [{"id": 19274700, "gamerTag": "Tobe", "prefix": "", "user": {"location": {"city": "Buford", "state": "GA", "country": "United States"}}, "player": {"id": 1646132, "gamerTag": "Tobe", "prefix": "", "user": {"location": {"city": "Buford", "state": "GA", "country": "United States"}}}}]}}, {"id": 36164996, "seedNum": 4, "entrant": {"id": 20971739, "name": "GUMP2 | Eleven", "participants": [{"id": 19293287, "gamerTag": "Eleven", "prefix": "GUMP2", "user": {"location": {"city": null, "state": null, "country": null}}, "player": {"id": 2348605, "gamerTag": "Ryu from Streets", "prefix": "GUMP2", "user": {"location": {"city": null, "state": null, "country": null}}}}]}}, {"id": 36164879, "seedNum": 3, "entrant": {"id": 20971654, "name": "DGS | spickles", "participants": [{"id": 19293214, "gamerTag": "spickles", "prefix": "DGS", "user": {"location": {"city": null, "state": null, "country": "United States"}}, "player": {"id": 1154793, "gamerTag": "spickles", "prefix": "DGS", "user": {"location": {"city": null, "state": null, "country": "United States"}}}}]}}, {"id": 36135119, "seedNum": 11, "entrant": {"id": 20952845, "name": "GUMP2 | $Mark$", "participants": [{"id": 19276986, "gamerTag": "$Mark$", "prefix": "GUMP2", "user": {"location": {"city": null, "state": "GA", "country": "United States"}}, "player": {"id": 1850701, "gamerTag": "$Mark$", "prefix": "GUMP2", "user": {"location": {"city": null, "state": "GA", "country": "United States"}}}}]}}, {"id": 36152377, "seedNum": 6, "entrant": {"id": 20965429, "name": "GUMP2 | ToxiC", "participants": [{"id": 19287515, "gamerTag": "ToxiC", "prefix": "GUMP2", "user": {"location": {"city": "Marietta", "state": "GA", "country": "United States"}}, "player": {"id": 2585804, "gamerTag": "ToxiC", "prefix": "GUMP2", "user": {"location": {"city": "Marietta", "state": "GA", "country": "United States"}}}}]}}, {"id": 36163933, "seedNum": 10, "entrant": {"id": 20971182, "name": "GUMP2 | JankTrees!", "participants": [{"id": 19292780, "gamerTag": "JankTrees!", "prefix": "GUMP2", "user": {"location": {"city": "Cartersville", "state": "GA", "country": "United States"}}, "player": {"id": 35695, "gamerTag": "JankTrees!", "prefix": "GUMP2", "user": {"location": {"city": "Cartersville", "state": "GA", "country": "United States"}}}}]}}, {"id": 36164706, "seedNum": 7, "entrant": {"id": 20971592, "name": "GUMP2 | Spider", "participants": [{"id": 19293156, "gamerTag": "Spider", "prefix": "GUMP2", "user": {"location": {"city": "Atlanta", "state": "GA", "country": "United States"}}, "player": {"id": 691176, "gamerTag": "Spider", "prefix": "GUMP2", "user": {"location": {"city": "Atlanta", "state": "GA", "country": "United States"}}}}]}}, {"id": 36165282, "seedNum": 8, "entrant": {"id": 20971946, "name": "RM | GUMP2 | Kr!stal:0", "participants": [{"id": 19293481, "gamerTag": "Kr!stal:0", "prefix": "RM | GUMP2", "user": {"location": {"city": "Lawrenceville", "state": "GA", "country": "United States"}}, "player": {"id": 2409815, "gamerTag": "AO ASHI SEASON 2 2026", "prefix": "RM | GUMP2", "user": {"location": {"city": "Lawrenceville", "state": "GA", "country": "United States"}}}}]}}, {"id": 36163138, "seedNum": 9, "entrant": {"id": 20970555, "name": "Barbashop", "participants": [{"id": 19292216, "gamerTag": "Barbashop", "prefix": "", "user": {"location": {"city": null, "state": null, "country": null}}, "player": {"id": 2537853, "gamerTag": "Barbashop", "prefix": "", "user": {"location": {"city": null, "state": null, "country": null}}}}]}}, {"id": 36133787, "seedNum": 13, "entrant": {"id": 20951790, "name": "EVC | N8borsclub", "participants": [{"id": 19276081, "gamerTag": "N8borsclub", "prefix": "EVC", "user": {"location": {"city": "Smyrna", "state": "GA", "country": "United States"}}, "player": {"id": 1137803, "gamerTag": "N8borsclub", "prefix": "EVC", "user": {"location": {"city": "Smyrna", "state": "GA", "country": "United States"}}}}]}}, {"id": 36164777, "seedNum": 12, "entrant": {"id": 20971632, "name": "MilesisBae", "participants": [{"id": 19293194, "gamerTag": "MilesisBae", "prefix": "", "user": {"location": {"city": "Richmond", "state": "VA", "country": "United States"}}, "player": {"id": 1218383, "gamerTag": "MilesisBae", "prefix": "", "user": {"location": {"city": "Richmond", "state": "VA", "country": "United States"}}}}]}}, {"id": 36156784, "seedNum": 15, "entrant": {"id": 20968107, "name": "Plaid", "participants": [{"id": 19289960, "gamerTag": "Plaid", "prefix": "", "user": {"location": {"city": null, "state": null, "country": null}}, "player": {"id": 1452882, "gamerTag": "Plaid", "prefix": "", "user": {"location": {"city": null, "state": null, "country": null}}}}]}}, {"id": 36154654, "seedNum": 18, "entrant": {"id": 20966590, "name": "Tohsaka", "participants": [{"id": 19288577, "gamerTag": "Tohsaka", "prefix": null, "user": {"location": {"city": null, "state": null, "country": null}}, "player": {"id": 2933372, "gamerTag": "Tohsaka", "prefix": null, "user": {"location": {"city": null, "state": null, "country": null}}}}]}}, {"id": 36158382, "seedNum": 20, "entrant": {"id": 20968359, "name": "Rain~", "participants": [{"id": 19290206, "gamerTag": "Rain~", "prefix": null, "user": {"location": {"city": "Atlanta", "state": "GA", "country": "United States"}}, "player": {"id": 4240164, "gamerTag": "Rain~", "prefix": null, "user": {"location": {"city": "Atlanta", "state": "GA", "country": "United States"}}}}]}}, {"id": 36163280, "seedNum": 14, "entrant": {"id": 20970683, "name": "Nhiem", "participants": [{"id": 19292333, "gamerTag": "Nhiem", "prefix": "", "user": {"location": {"city": "Atlanta", "state": "GA", "country": "United States"}}, "player": {"id": 1429448, "gamerTag": "Nhiem", "prefix": "", "user": {"location": {"city": "Atlanta", "state": "GA", "country": "United States"}}}}]}}, {"id": 36163232, "seedNum": 17, "entrant": {"id": 20970651, "name": "red dot", "participants": [{"id": 19292301, "gamerTag": "red dot", "prefix": "", "user": {"location": {"city": "Milton", "state": "GA", "country": "United States"}}, "player": {"id": 1812177, "gamerTag": "red dot", "prefix": "", "user": {"location": {"city": "Milton", "state": "GA", "country": "United States"}}}}]}}, {"id": 36161507, "seedNum": 21, "entrant": {"id": 20969940, "name": "Heart", "participants": [{"id": 19291653, "gamerTag": "Heart", "prefix": "", "user": {"location": {"city": "Atlanta", "state": "GA", "country": "United States"}}, "player": {"id": 4287822, "gamerTag": "Heart", "prefix": "", "user": {"location": {"city": "Atlanta", "state": "GA", "country": "United States"}}}}]}}, {"id": 36162684, "seedNum": 22, "entrant": {"id": 20970217, "name": "UTO | Whaley", "participants": [{"id": 19291906, "gamerTag": "Whaley", "prefix": "UTO", "user": {"location": {"city": "Stone Mountain", "state": "GA", "country": "United States"}}, "player": {"id": 2016149, "gamerTag": "Whaley", "prefix": "KSU|UTO|BLZE", "user": {"location": {"city": "Stone Mountain", "state": "GA", "country": "United States"}}}}]}}, {"id": 36163453, "seedNum": 23, "entrant": {"id": 20970858, "name": "carlop", "participants": [{"id": 19292496, "gamerTag": "carlop", "prefix": null, "user": {"location": {"city": "Johns Creek", "state": "GA", "country": "United States"}}, "player": {"id": 3431919, "gamerTag": "carlop", "prefix": null, "user": {"location": {"city": "Johns Creek", "state": "GA", "country": "United States"}}}}]}}, {"id": 36163919, "seedNum": 24, "entrant": {"id": 20971168, "name": "Bagel", "participants": [{"id": 19292769, "gamerTag": "Bagel", "prefix": null, "user": {"location": {"city": "Atlanta", "state": "GA", "country": "United States"}}, "player": {"id": 1794753, "gamerTag": "Bagel", "prefix": "", "user": {"location": {"city": "Atlanta", "state": "GA", "country": "United States"}}}}]}}, {"id": 36163480, "seedNum": 30, "entrant": {"id": 20970877, "name": "promamamia", "participants": [{"id": 19292514, "gamerTag": "promamamia", "prefix": "", "user": {"location": {"city": "Alpharetta", "state": "GA", "country": "United States"}}, "player": {"id": 3548468, "gamerTag": "promamamia", "prefix": "", "user": {"location": {"city": "Alpharetta", "state": "GA", "country": "United States"}}}}]}}, {"id": 36165030, "seedNum": 33, "entrant": {"id": 20971774, "name": "SamRice", "participants": [{"id": 19293320, "gamerTag": "SamRice", "prefix": "", "user": {"location": {"city": "Norcross", "state": "GA", "country": "United States"}}, "player": {"id": 2387403, "gamerTag": "SamRice", "prefix": "", "user": {"location": {"city": "Norcross", "state": "GA", "country": "United States"}}}}]}}, {"id": 36163026, "seedNum": 25, "entrant": {"id": 20970458, "name": "KSU | Subzero", "participants": [{"id": 19292139, "gamerTag": "Subzero", "prefix": "KSU", "user": {"location": {"city": "Acworth", "state": "GA", "country": "United States"}}, "player": {"id": 1808159, "gamerTag": "Subzero", "prefix": "KSU", "user": {"location": {"city": "Acworth", "state": "GA", "country": "United States"}}}}]}}, {"id": 36162798, "seedNum": 26, "entrant": {"id": 20970300, "name": "KSU | colorful\u029a\u025e", "participants": [{"id": 19291988, "gamerTag": "colorful\u029a\u025e", "prefix": "KSU", "user": {"location": {"city": "Kennesaw", "state": "GA", "country": "United States"}}, "player": {"id": 1783074, "gamerTag": "colorful\u029a\u025e", "prefix": "KSU | RM", "user": {"location": {"city": "Kennesaw", "state": "GA", "country": "United States"}}}}]}}, {"id": 36165028, "seedNum": 27, "entrant": {"id": 20971772, "name": "Zarek", "participants": [{"id": 19293318, "gamerTag": "Zarek", "prefix": "", "user": {"location": {"city": "Atlanta", "state": "GA", "country": "United States"}}, "player": {"id": 405682, "gamerTag": "Zarek", "prefix": "", "user": {"location": {"city": "Atlanta", "state": "GA", "country": "United States"}}}}]}}, {"id": 36164291, "seedNum": 28, "entrant": {"id": 20971425, "name": "SaggyMilkJug", "participants": [{"id": 19293004, "gamerTag": "SaggyMilkJug", "prefix": "", "user": {"location": {"city": "Atlanta", "state": "GA", "country": "United States"}}, "player": {"id": 4651404, "gamerTag": "SaggyMilkJug", "prefix": "", "user": {"location": {"city": "Atlanta", "state": "GA", "country": "United States"}}}}]}}, {"id": 36161476, "seedNum": 29, "entrant": {"id": 20969908, "name": "SIR | vivor", "participants": [{"id": 19291628, "gamerTag": "vivor", "prefix": "SIR", "user": {"location": {"city": "Atlanta", "state": "GA", "country": "United States"}}, "player": {"id": 3373990, "gamerTag": "vivor", "prefix": "SIR", "user": {"location": {"city": "Atlanta", "state": "GA", "country": "United States"}}}}]}}, {"id": 36162948, "seedNum": 34, "entrant": {"id": 20970402, "name": "Pleeploploop", "participants": [{"id": 19292081, "gamerTag": "Pleeploploop", "prefix": "", "user": {"location": {"city": "Snellville", "state": null, "country": "United States"}}, "player": {"id": 1739676, "gamerTag": "Pleeploploop", "prefix": "", "user": {"location": {"city": "Snellville", "state": null, "country": "United States"}}}}]}}, {"id": 36161539, "seedNum": 38, "entrant": {"id": 20969961, "name": "EdiblePine", "participants": [{"id": 19291670, "gamerTag": "EdiblePine", "prefix": "", "user": {"location": {"city": "Atlanta", "state": "GA", "country": "United States"}}, "player": {"id": 1648278, "gamerTag": "EdiblePine", "prefix": "AP", "user": {"location": {"city": "Atlanta", "state": "GA", "country": "United States"}}}}]}}, {"id": 36154007, "seedNum": 40, "entrant": {"id": 20966190, "name": "Xcite!", "participants": [{"id": 19288216, "gamerTag": "Xcite!", "prefix": "", "user": {"location": {"city": "Atlanta", "state": "GA", "country": "United States"}}, "player": {"id": 4368183, "gamerTag": "Xcite!", "prefix": "", "user": {"location": {"city": "Atlanta", "state": "GA", "country": "United States"}}}}]}}, {"id": 36154442, "seedNum": 16, "entrant": {"id": 20966472, "name": "Sacred", "participants": [{"id": 19288477, "gamerTag": "Sacred", "prefix": "", "user": {"location": {"city": null, "state": null, "country": "United States"}}, "player": {"id": 1007555, "gamerTag": "Sacred", "prefix": "", "user": {"location": {"city": null, "state": null, "country": "United States"}}}}]}}, {"id": 36161649, "seedNum": 19, "entrant": {"id": 20969979, "name": "REAL | Ethan Winters", "participants": [{"id": 19291685, "gamerTag": "Ethan Winters", "prefix": "REAL", "user": {"location": {"city": "Atlanta", "state": "GA", "country": "United States"}}, "player": {"id": 135265, "gamerTag": "Ethan Winters", "prefix": "REAL", "user": {"location": {"city": "Atlanta", "state": "GA", "country": "United States"}}}}]}}, {"id": 36165402, "seedNum": 31, "entrant": {"id": 20972057, "name": "4o4 | Sh33rZ", "participants": [{"id": 19293579, "gamerTag": "Sh33rZ", "prefix": "4o4", "user": {"location": {"city": "alpharetta", "state": "GA", "country": "United States"}}, "player": {"id": 3640465, "gamerTag": "Sh33rZ", "prefix": "4o4", "user": {"location": {"city": "alpharetta", "state": "GA", "country": "United States"}}}}]}}, {"id": 36164468, "seedNum": 32, "entrant": {"id": 20971463, "name": "Par-i-dot Alpha", "participants": [{"id": 19293039, "gamerTag": "Par-i-dot Alpha", "prefix": "", "user": {"location": {"city": "Lithoina", "state": "GA", "country": "United States"}}, "player": {"id": 36418, "gamerTag": "Avalon", "prefix": "", "user": {"location": {"city": "Lithoina", "state": "GA", "country": "United States"}}}}]}}, {"id": 36118155, "seedNum": 35, "entrant": {"id": 20941831, "name": "brave", "participants": [{"id": 19267387, "gamerTag": "brave", "prefix": "", "user": {"location": {"city": "Lawrenceville", "state": "GA", "country": "United States"}}, "player": {"id": 1000536, "gamerTag": "brave", "prefix": "", "user": {"location": {"city": "Lawrenceville", "state": "GA", "country": "United States"}}}}]}}, {"id": 36165319, "seedNum": 36, "entrant": {"id": 20971982, "name": "Tilted", "participants": [{"id": 19293514, "gamerTag": "Tilted", "prefix": null, "user": {"location": {"city": "Norcross", "state": "GA", "country": "United States"}}, "player": {"id": 2377635, "gamerTag": "Tilted", "prefix": null, "user": {"location": {"city": "Norcross", "state": "GA", "country": "United States"}}}}]}}, {"id": 36165471, "seedNum": 37, "entrant": {"id": 20972106, "name": "D.King79", "participants": [{"id": 19293625, "gamerTag": "D.King79", "prefix": null, "user": {"location": {"city": "Mt. Olympus", "state": "GA", "country": "United States"}}, "player": {"id": 534660, "gamerTag": "D.King79", "prefix": null, "user": {"location": {"city": "Mt. Olympus", "state": "GA", "country": "United States"}}}}]}}, {"id": 36164466, "seedNum": 39, "entrant": {"id": 20971465, "name": "11D7", "participants": [{"id": 19293041, "gamerTag": "11D7", "prefix": null, "user": {"location": {"city": "Alpharetta", "state": "GA", "country": "United States"}}, "player": {"id": 4064891, "gamerTag": "11D7", "prefix": null, "user": {"location": {"city": "Alpharetta", "state": "GA", "country": "United States"}}}}]}}, {"id": 36164030, "seedNum": 41, "entrant": {"id": 20971263, "name": "Muhamed2009", "participants": [{"id": 19292861, "gamerTag": "Muhamed2009", "prefix": "", "user": null, "player": {"id": 4454104, "gamerTag": "Muhamed2009", "prefix": "", "user": null}}]}}, {"id": 36165431, "seedNum": 42, "entrant": {"id": 20972085, "name": "LittleMac9494", "participants": [{"id": 19293606, "gamerTag": "LittleMac9494", "prefix": null, "user": {"location": {"city": "", "state": "GA", "country": "United States"}}, "player": {"id": 4890718, "gamerTag": "LittleMac9494", "prefix": null, "user": {"location": {"city": "", "state": "GA", "country": "United States"}}}}]}}, {"id": 36164729, "seedNum": 43, "entrant": {"id": 20971600, "name": "Sage of Fire 313", "participants": [{"id": 19293164, "gamerTag": "Sage of Fire 313", "prefix": "", "user": {"location": {"city": null, "state": "GA", "country": "United States"}}, "player": {"id": 4923934, "gamerTag": "Sage of Fire 313", "prefix": "", "user": {"location": {"city": null, "state": "GA", "country": "United States"}}}}]}}]}}}