{"event": {"sets": {"pageInfo": {"totalPages": 1, "total": 5}, "nodes": [{"id": "preview_3030837_1_1", "state": 1, "round": 1, "fullRoundText": "Winners Round 1", "completedAt": null, "winnerId": null, "slots": [{"id": "preview_3030837_1_1-0", "entrant": {"id": 21284606, "name": "O.N.2", "participants": [{"id": 19569351, "gamerTag": "O.N.2", "prefix": "", "user": {"location": {"city": "SNELLVILLE", "state": "GA", "country": "United States"}}, "player": {"id": 1042436, "gamerTag": "O.N.2", "prefix": "", "user": {"location": {"city": "SNELLVILLE", "state": "GA", "country": "United States"}}}}]}, "standing": null}, {"id": "preview_3030837_1_1-1", "entrant": {"id": 21426204, "name": "StrataJay", "participants": [{"id": 19693631, "gamerTag": "StrataJay", "prefix": "", "user": {"location": {"city": "Grayson", "state": "GA", "country": "United States"}}, "player": {"id": 1112189, "gamerTag": "StrataJay", "prefix": "", "user": {"location": {"city": "Grayson", "state": "GA", "country": "United States"}}}}]}, "standing": null}], "games": null}, {"id": "preview_3030837_-4_0", "state": 1, "round": -4, "fullRoundText": "Losers Final", "completedAt": null, "winnerId": null, "slots": [{"id": "preview_3030837_-4_0-0", "entrant": null, "standing": null}, {"id": "preview_3030837_-4_0-1", "entrant": null, "standing": null}], "games": null}, {"id": "preview_3030837_2_0", "state": 1, "round": 2, "fullRoundText": "Winners Final", "completedAt": null, "winnerId": null, "slots": [{"id": "preview_3030837_2_0-0", "entrant": {"id": 21223376, "name": "Nurikami", "participants": [{"id": 19517682, "gamerTag": "Nurikami", "prefix": null, "user": {"location": {"city": "Sandy Springs", "state": "GA", "country": "United States"}}, "player": {"id": 2894467, "gamerTag": "Nurikami", "prefix": null, "user": {"location": {"city": "Sandy Springs", "state": "GA", "country": "United States"}}}}]}, "standing": null}, {"id": "preview_3030837_2_0-1", "entrant": null, "standing": null}], "games": null}, {"id": "preview_3030837_3_0", "state": 1, "round": 3, "fullRoundText": "Grand Final", "completedAt": null, "winnerId": null, "slots": [{"id": "preview_3030837_3_0-0", "entrant": null, "standing": null}, {"id": "preview_3030837_3_0-1", "entrant": null, "standing": null}], "games": null}, {"id": "preview_3030837_3_1", "state": 1, "round": 3, "fullRoundText": "Grand Final Reset", "completedAt": null, "winnerId": null, "slots": [{"id": "preview_3030837_3_1-0", "entrant": null, "standing": null}, {"id": "preview_3030837_3_1-1", "entrant": null, "standing": null}], "games": null}]}}}