{"phase": {"seeds": {"pageInfo": {"totalPages": 4, "total": 160}, "nodes": [{"id": 35732786, "seedNum": 35, "entrant": {"id": 20702798, "name": "Riddul", "participants": [{"id": 19053992, "gamerTag": "Riddul", "prefix": "", "user": {"location": {"city": null, "state": null, "country": "United States"}}, "player": {"id": 1418775, "gamerTag": "Riddul", "prefix": "", "user": {"location": {"city": null, "state": null, "country": "United States"}}}}]}}, {"id": 35408846, "seedNum": 39, "entrant": {"id": 20488065, "name": "Nut Esports | | Geemoney$", "participants": [{"id": 18867205, "gamerTag": "Geemoney$", "prefix": "Nut Esports |", "user": {"location": {"city": "Jacksonville", "state": "FL", "country": "United States"}}, "player": {"id": 252344, "gamerTag": "Geemoney$", "prefix": "", "user": {"location": {"city": "Jacksonville", "state": "FL", "country": "United States"}}}}]}}, {"id": 35651198, "seedNum": 40, "entrant": {"id": 20644087, "name": "Coven | REM!!!", "participants": [{"id": 19003323, "gamerTag": "REM!!!", "prefix": "Coven", "user": {"location": {"city": "Norcross", "state": "MS", "country": "United States"}}, "player": {"id": 4726196, "gamerTag": "REM!!!", "prefix": "Coven", "user": {"location": {"city": "Norcross", "state": "MS", "country": "United States"}}}}]}}, {"id": 35422670, "seedNum": 41, "entrant": {"id": 20498466, "name": "Yonko", "participants": [{"id": 18876446, "gamerTag": "Yonko", "prefix": "", "user": {"location": {"city": "Birmingham", "state": "AL", "country": "United States"}}, "player": {"id": 2453334, "gamerTag": "Yonko", "prefix": "", "user": {"location": {"city": "Birmingham", "state": "AL", "country": "United States"}}}}]}}, {"id": 35975548, "seedNum": 43, "entrant": {"id": 20851153, "name": "CJay", "participants": [{"id": 19187296, "gamerTag": "CJay", "prefix": null, "user": {"location": {"city": "tallahassee", "state": "FL", "country": "United States"}}, "player": {"id": 1852984, "gamerTag": "CJay", "prefix": null, "user": {"location": {"city": "tallahassee", "state": "FL", "country": "United States"}}}}]}}, {"id": 35412055, "seedNum": 60, "entrant": {"id": 20490328, "name": "Nia", "participants": [{"id": 18869058, "gamerTag": "Nia", "prefix": null, "user": {"location": {"city": "Buford", "state": "GA", "country": "United States"}}, "player": {"id": 428070, "gamerTag": "Nia", "prefix": null, "user": {"location": {"city": "Buford", "state": "GA", "country": "United States"}}}}]}}, {"id": 35941594, "seedNum": 65, "entrant": {"id": 20831892, "name": "iNGenius", "participants": [{"id": 19170319, "gamerTag": "iNGenius", "prefix": "", "user": {"location": {"city": null, "state": null, "country": null}}, "player": {"id": 3194293, "gamerTag": "iNGenius", "prefix": "", "user": {"location": {"city": null, "state": null, "country": null}}}}]}}, {"id": 35765807, "seedNum": 67, "entrant": {"id": 20726269, "name": "Sehbai", "participants": [{"id": 19074573, "gamerTag": "Sehbai", "prefix": "", "user": {"location": {"city": "Oxford", "state": "AL", "country": "United States"}}, "player": {"id": 2181360, "gamerTag": "Sehbai", "prefix": "", "user": {"location": {"city": "Oxford", "state": "AL", "country": "United States"}}}}]}}, {"id": 35676763, "seedNum": 84, "entrant": {"id": 20662622, "name": "Free | Hue", "participants": [{"id": 19019537, "gamerTag": "Hue", "prefix": "Free", "user": {"location": {"city": "Union City", "state": "GA", "country": "United States"}}, "player": {"id": 35934, "gamerTag": "Hue", "prefix": "Free", "user": {"location": {"city": "Union City", "state": "GA", "country": "United States"}}}}]}}, {"id": 35409166, "seedNum": 86, "entrant": {"id": 20488353, "name": "Cromat", "participants": [{"id": 18867338, "gamerTag": "Cromat", "prefix": "", "user": {"location": {"city": "Savannah", "state": "GA", "country": "United States"}}, "player": {"id": 3055798, "gamerTag": "Cromat", "prefix": "", "user": {"location": {"city": "Savannah", "state": "GA", "country": "United States"}}}}]}}, {"id": 35866195, "seedNum": 87, "entrant": {"id": 20783378, "name": "FreeDubs", "participants": [{"id": 19127053, "gamerTag": "FreeDubs", "prefix": "", "user": {"location": {"city": "Atlanta", "state": null, "country": "United States"}}, "player": {"id": 4888408, "gamerTag": "FreeDubs", "prefix": "", "user": {"location": {"city": "Atlanta", "state": null, "country": "United States"}}}}]}}, {"id": 35408489, "seedNum": 90, "entrant": {"id": 20487835, "name": "cO | Netherlord64", "participants": [{"id": 18867025, "gamerTag": "Netherlord64", "prefix": "cO", "user": {"location": {"city": "Roswell", "state": "GA", "country": "United States"}}, "player": {"id": 4586226, "gamerTag": "Netherlord64", "prefix": "", "user": {"location": {"city": "Roswell", "state": "GA", "country": "United States"}}}}]}}, {"id": 36000498, "seedNum": 100, "entrant": {"id": 20867172, "name": "Trout~", "participants": [{"id": 19201389, "gamerTag": "Trout~", "prefix": "", "user": {"location": {"city": "Lawrenceville", "state": "GA", "country": "United States"}}, "player": {"id": 905410, "gamerTag": "Primary Trout~", "prefix": "", "user": {"location": {"city": "Lawrenceville", "state": "GA", "country": "United States"}}}}]}}, {"id": 35693910, "seedNum": 116, "entrant": {"id": 20674489, "name": "Transcendent", "participants": [{"id": 19029548, "gamerTag": "Transcendent", "prefix": "", "user": {"location": {"city": "Lawrenceville", "state": "GA", "country": "United States"}}, "player": {"id": 1671724, "gamerTag": "Transcendent", "prefix": "", "user": {"location": {"city": "Lawrenceville", "state": "GA", "country": "United States"}}}}]}}, {"id": 35504930, "seedNum": 29, "entrant": {"id": 20557775, "name": "SPANDEX", "participants": [{"id": 18927984, "gamerTag": "SPANDEX", "prefix": "", "user": {"location": {"city": "Bahama", "state": "NC", "country": "United States"}}, "player": {"id": 1467671, "gamerTag": "SPANDEX", "prefix": "", "user": {"location": {"city": "Bahama", "state": "NC", "country": "United States"}}}}]}}, {"id": 35776825, "seedNum": 32, "entrant": {"id": 20733414, "name": "Kailen", "participants": [{"id": 19080738, "gamerTag": "Kailen", "prefix": "", "user": {"location": {"city": "Atlanta", "state": "GA", "country": "United States"}}, "player": {"id": 1647157, "gamerTag": "Kailen", "prefix": "", "user": {"location": {"city": "Atlanta", "state": "GA", "country": "United States"}}}}]}}, {"id": 35602477, "seedNum": 46, "entrant": {"id": 20611006, "name": "REAL | JoseJFB", "participants": [{"id": 18974125, "gamerTag": "JoseJFB", "prefix": "REAL", "user": {"location": {"city": "Atlanta", "state": "GA", "country": "United States"}}, "player": {"id": 29578, "gamerTag": "JoseJFB", "prefix": "REAL", "user": {"location": {"city": "Atlanta", "state": "GA", "country": "United States"}}}}]}}, {"id": 35846799, "seedNum": 53, "entrant": {"id": 20773742, "name": "Raven!", "participants": [{"id": 19118186, "gamerTag": "Raven!", "prefix": "", "user": {"location": {"city": "Toney", "state": "AL", "country": "United States"}}, "player": {"id": 3698114, "gamerTag": "Raven!", "prefix": "MTSU | MONO", "user": {"location": {"city": "Toney", "state": "AL", "country": "United States"}}}}]}}, {"id": 35449634, "seedNum": 59, "entrant": {"id": 20516612, "name": "CoolCactuS", "participants": [{"id": 18892328, "gamerTag": "CoolCactuS", "prefix": null, "user": {"location": {"city": null, "state": null, "country": "United States"}}, "player": {"id": 1885346, "gamerTag": "CoolCactuS", "prefix": "CV", "user": {"location": {"city": null, "state": null, "country": "United States"}}}}]}}, {"id": 35759333, "seedNum": 63, "entrant": {"id": 20721826, "name": "TCS BTV | Knockoutjoe", "participants": [{"id": 19070831, "gamerTag": "Knockoutjoe", "prefix": "TCS BTV", "user": {"location": {"city": "Antioch", "state": "TN", "country": "United States"}}, "player": {"id": 2741707, "gamerTag": "Knockoutjoe", "prefix": "TCS BTV", "user": {"location": {"city": "Antioch", "state": "TN", "country": "United States"}}}}]}}, {"id": 35414552, "seedNum": 68, "entrant": {"id": 20492179, "name": "Daiyan", "participants": [{"id": 18870720, "gamerTag": "Daiyan", "prefix": "", "user": {"location": {"city": "Lawrenceville", "state": "GA", "country": "United States"}}, "player": {"id": 1059715, "gamerTag": "Daiyan", "prefix": "", "user": {"location": {"city": "Lawrenceville", "state": "GA", "country": "United States"}}}}]}}, {"id": 35442823, "seedNum": 69, "entrant": {"id": 20511683, "name": "BE | Derp", "participants": [{"id": 18887902, "gamerTag": "Derp", "prefix": "BE", "user": {"location": {"city": "", "state": "GA", "country": "United States"}}, "player": {"id": 2080364, "gamerTag": "Derp", "prefix": "BE", "user": {"location": {"city": "", "state": "GA", "country": "United States"}}}}]}}, {"id": 35410781, "seedNum": 70, "entrant": {"id": 20489402, "name": "LBE | Savant", "participants": [{"id": 18868251, "gamerTag": "Savant", "prefix": "LBE", "user": {"location": {"city": "Athens", "state": "GA", "country": "United States"}}, "player": {"id": 1944044, "gamerTag": "Savant", "prefix": "LBE | CC", "user": {"location": {"city": "Athens", "state": "GA", "country": "United States"}}}}]}}, {"id": 35927261, "seedNum": 71, "entrant": {"id": 20822777, "name": "Jeni", "participants": [{"id": 19161733, "gamerTag": "Jeni", "prefix": "", "user": {"location": {"city": null, "state": null, "country": null}}, "player": {"id": 1499467, "gamerTag": "Jeni", "prefix": "", "user": {"location": {"city": null, "state": null, "country": null}}}}]}}, {"id": 35416470, "seedNum": 72, "entrant": {"id": 20493556, "name": "TEASER FANCLUB | #1 TEASER FAN FOR LIFE", "participants": [{"id": 18871944, "gamerTag": "#1 TEASER FAN FOR LIFE", "prefix": "TEASER FANCLUB", "user": {"location": {"city": "Johns Creek", "state": "GA", "country": "United States"}}, "player": {"id": 181040, "gamerTag": "#1 TEASER FAN FOR LIFE", "prefix": "TEASER FANCLUB", "user": {"location": {"city": "Johns Creek", "state": "GA", "country": "United States"}}}}]}}, {"id": 35425635, "seedNum": 76, "entrant": {"id": 20500222, "name": "BE/JLE | CaptainMilkMan", "participants": [{"id": 18877814, "gamerTag": "CaptainMilkMan", "prefix": "BE/JLE", "user": {"location": {"city": "Albany", "state": "GA", "country": "United States"}}, "player": {"id": 1101654, "gamerTag": "CaptainMilkMan", "prefix": "BE/JLE", "user": {"location": {"city": "Albany", "state": "GA", "country": "United States"}}}}]}}, {"id": 35957977, "seedNum": 79, "entrant": {"id": 20842149, "name": "FANN", "participants": [{"id": 19178967, "gamerTag": "FANN", "prefix": "", "user": {"location": {"city": "Valdosta", "state": "GA", "country": "United States"}}, "player": {"id": 2366169, "gamerTag": "crimFANN", "prefix": "", "user": {"location": {"city": "Valdosta", "state": "GA", "country": "United States"}}}}]}}, {"id": 35476749, "seedNum": 80, "entrant": {"id": 20535710, "name": "Coraz\u00f3nCodi", "participants": [{"id": 18909366, "gamerTag": "Coraz\u00f3nCodi", "prefix": "", "user": {"location": {"city": "Stockbridge", "state": "GA", "country": "United States"}}, "player": {"id": 295892, "gamerTag": "Coraz\u00f3nCodi", "prefix": "", "user": {"location": {"city": "Stockbridge", "state": "GA", "country": "United States"}}}}]}}, {"id": 35408705, "seedNum": 81, "entrant": {"id": 20488008, "name": "Sacred", "participants": [{"id": 18867157, "gamerTag": "Sacred", "prefix": "", "user": {"location": {"city": null, "state": null, "country": "United States"}}, "player": {"id": 1007555, "gamerTag": "Sacred", "prefix": "", "user": {"location": {"city": null, "state": null, "country": "United States"}}}}]}}, {"id": 35962847, "seedNum": 83, "entrant": {"id": 20843596, "name": "CeR | scruffie:))", "participants": [{"id": 19180359, "gamerTag": "scruffie:))", "prefix": "CeR", "user": {"location": {"city": "Boca raton", "state": "FL", "country": "United States"}}, "player": {"id": 1894348, "gamerTag": "scruffie:))", "prefix": "", "user": {"location": {"city": "Boca raton", "state": "FL", "country": "United States"}}}}]}}, {"id": 35414671, "seedNum": 91, "entrant": {"id": 20492297, "name": "TFT | Frank", "participants": [{"id": 18870820, "gamerTag": "Frank", "prefix": "TFT", "user": {"location": {"city": "Doraville", "state": "GA", "country": "United States"}}, "player": {"id": 1227401, "gamerTag": "Terry Labonte", "prefix": "TFT", "user": {"location": {"city": "Doraville", "state": "GA", "country": "United States"}}}}]}}, {"id": 35667204, "seedNum": 92, "entrant": {"id": 20654955, "name": "red dot", "participants": [{"id": 19012783, "gamerTag": "red dot", "prefix": "", "user": {"location": {"city": "Milton", "state": "GA", "country": "United States"}}, "player": {"id": 1812177, "gamerTag": "red dot", "prefix": "", "user": {"location": {"city": "Milton", "state": "GA", "country": "United States"}}}}]}}, {"id": 35853815, "seedNum": 95, "entrant": {"id": 20777657, "name": "REAL | Apollonitus", "participants": [{"id": 19121798, "gamerTag": "Apollonitus", "prefix": "REAL", "user": {"location": {"city": "PACOIMA", "state": "CA", "country": "United States"}}, "player": {"id": 354915, "gamerTag": "Apollonitus", "prefix": "REAL", "user": {"location": {"city": "PACOIMA", "state": "CA", "country": "United States"}}}}]}}, {"id": 35752709, "seedNum": 97, "entrant": {"id": 20717425, "name": "HOPE | Sung Jinwoo", "participants": [{"id": 19066790, "gamerTag": "Sung Jinwoo", "prefix": "HOPE", "user": {"location": {"city": "Atlanta", "state": "GA", "country": "United States"}}, "player": {"id": 595350, "gamerTag": "Sung Jinwoo", "prefix": "HOPE", "user": {"location": {"city": "Atlanta", "state": "GA", "country": "United States"}}}}]}}, {"id": 35409039, "seedNum": 98, "entrant": {"id": 20488255, "name": "Burlum", "participants": [{"id": 18867260, "gamerTag": "Burlum", "prefix": "", "user": {"location": {"city": "Lithia Springs", "state": "GA", "country": "United States"}}, "player": {"id": 397537, "gamerTag": "Burlum", "prefix": "", "user": {"location": {"city": "Lithia Springs", "state": "GA", "country": "United States"}}}}]}}, {"id": 35664983, "seedNum": 99, "entrant": {"id": 20653366, "name": "WFF | Happy", "participants": [{"id": 19011376, "gamerTag": "Happy", "prefix": "WFF", "user": {"location": {"city": "Peachtree CIty", "state": "GA", "country": "United States"}}, "player": {"id": 1383907, "gamerTag": "Happy", "prefix": "WFF", "user": {"location": {"city": "Peachtree CIty", "state": "GA", "country": "United States"}}}}]}}, {"id": 35409262, "seedNum": 105, "entrant": {"id": 20488423, "name": "Sol | Spruce", "participants": [{"id": 18867391, "gamerTag": "Spruce", "prefix": "Sol", "user": {"location": {"city": null, "state": null, "country": "United States"}}, "player": {"id": 1100077, "gamerTag": "Spruce", "prefix": "Sol", "user": {"location": {"city": null, "state": null, "country": "United States"}}}}]}}, {"id": 35409983, "seedNum": 106, "entrant": {"id": 20488896, "name": "BB | Buddwaur", "participants": [{"id": 18867819, "gamerTag": "Buddwaur", "prefix": "BB", "user": {"location": {"city": "Holly Springs", "state": "NC", "country": "United States"}}, "player": {"id": 1469415, "gamerTag": "Buddwaur", "prefix": "BB", "user": {"location": {"city": "Holly Springs", "state": "NC", "country": "United States"}}}}]}}, {"id": 35409397, "seedNum": 108, "entrant": {"id": 20488513, "name": "BE | Bumble", "participants": [{"id": 18867472, "gamerTag": "Bumble", "prefix": "BE", "user": {"location": {"city": "Savannah", "state": "GA", "country": "United States"}}, "player": {"id": 1169889, "gamerTag": "Bumble", "prefix": "", "user": {"location": {"city": "Savannah", "state": "GA", "country": "United States"}}}}]}}, {"id": 35959960, "seedNum": 109, "entrant": {"id": 20843201, "name": "MONEY | ImNoPro", "participants": [{"id": 19180001, "gamerTag": "ImNoPro", "prefix": "MONEY", "user": {"location": {"city": "Calhoun", "state": "GA", "country": "United States"}}, "player": {"id": 2149803, "gamerTag": "ImNoPro", "prefix": "MONEY", "user": {"location": {"city": "Calhoun", "state": "GA", "country": "United States"}}}}]}}, {"id": 35449017, "seedNum": 111, "entrant": {"id": 20516098, "name": "Heart", "participants": [{"id": 18891882, "gamerTag": "Heart", "prefix": "", "user": {"location": {"city": "Atlanta", "state": "GA", "country": "United States"}}, "player": {"id": 4287822, "gamerTag": "Heart", "prefix": "", "user": {"location": {"city": "Atlanta", "state": "GA", "country": "United States"}}}}]}}, {"id": 35424586, "seedNum": 115, "entrant": {"id": 20499634, "name": "sushinap", "participants": [{"id": 18877287, "gamerTag": "sushinap", "prefix": "", "user": {"location": {"city": "BIRMINGHAM", "state": "AL", "country": "United States"}}, "player": {"id": 1092449, "gamerTag": "sushinap", "prefix": "", "user": {"location": {"city": "BIRMINGHAM", "state": "AL", "country": "United States"}}}}]}}, {"id": 35956201, "seedNum": 118, "entrant": {"id": 20840838, "name": "UTO | Whaley", "participants": [{"id": 19177809, "gamerTag": "Whaley", "prefix": "UTO", "user": {"location": {"city": "Stone Mountain", "state": "GA", "country": "United States"}}, "player": {"id": 2016149, "gamerTag": "Whaley", "prefix": "KSU|UTO|BLZE", "user": {"location": {"city": "Stone Mountain", "state": "GA", "country": "United States"}}}}]}}, {"id": 35410023, "seedNum": 119, "entrant": {"id": 20488936, "name": "Boo", "participants": [{"id": 18867842, "gamerTag": "Boo", "prefix": "", "user": {"location": {"city": "Cumming", "state": "GA", "country": "United States"}}, "player": {"id": 2647915, "gamerTag": "Boo", "prefix": "", "user": {"location": {"city": "Cumming", "state": "GA", "country": "United States"}}}}]}}, {"id": 35410630, "seedNum": 120, "entrant": {"id": 20489324, "name": "carlop", "participants": [{"id": 18868187, "gamerTag": "carlop", "prefix": null, "user": {"location": {"city": "Johns Creek", "state": "GA", "country": "United States"}}, "player": {"id": 3431919, "gamerTag": "carlop", "prefix": null, "user": {"location": {"city": "Johns Creek", "state": "GA", "country": "United States"}}}}]}}, {"id": 35934361, "seedNum": 129, "entrant": {"id": 20827624, "name": "Zarek", "participants": [{"id": 19166290, "gamerTag": "Zarek", "prefix": "", "user": {"location": {"city": "Atlanta", "state": "GA", "country": "United States"}}, "player": {"id": 405682, "gamerTag": "Zarek", "prefix": "", "user": {"location": {"city": "Atlanta", "state": "GA", "country": "United States"}}}}]}}, {"id": 35772036, "seedNum": 42, "entrant": {"id": 20730462, "name": "REAL | Jonestly", "participants": [{"id": 19078147, "gamerTag": "Jonestly", "prefix": "REAL", "user": {"location": {"city": "Alpharetta", "state": "GA", "country": "United States"}}, "player": {"id": 30532, "gamerTag": "Jonestly", "prefix": "REAL", "user": {"location": {"city": "Alpharetta", "state": "GA", "country": "United States"}}}}]}}, {"id": 35709493, "seedNum": 74, "entrant": {"id": 20685811, "name": "SyN | Mexjandro", "participants": [{"id": 19039011, "gamerTag": "Mexjandro", "prefix": "SyN", "user": {"location": {"city": "Pelham", "state": "AL", "country": "United States"}}, "player": {"id": 160281, "gamerTag": "Mexjandro", "prefix": "SyN", "user": {"location": {"city": "Pelham", "state": "AL", "country": "United States"}}}}]}}, {"id": 35733303, "seedNum": 75, "entrant": {"id": 20703207, "name": "Fedora", "participants": [{"id": 19054258, "gamerTag": "Fedora", "prefix": "", "user": {"location": {"city": "Dalton", "state": "GA", "country": "United States"}}, "player": {"id": 1110820, "gamerTag": "Fedora", "prefix": "", "user": {"location": {"city": "Dalton", "state": "GA", "country": "United States"}}}}]}}, {"id": 35997501, "seedNum": 78, "entrant": {"id": 20865147, "name": "KageGato", "participants": [{"id": 19167093, "gamerTag": "KageGato", "prefix": "", "user": {"location": {"city": "Valdosta", "state": "GA", "country": "United States"}}, "player": {"id": 1392649, "gamerTag": "KageGato", "prefix": "", "user": {"location": {"city": "Valdosta", "state": "GA", "country": "United States"}}}}]}}]}}}