{"phase": {"seeds": {"pageInfo": {"totalPages": 1, "total": 6}, "nodes": [{"id": 36309094, "seedNum": 6, "entrant": {"id": 21060506, "name": "GCB | fries", "participants": [{"id": 19372681, "gamerTag": "fries", "prefix": "GCB", "user": {"location": {"city": "Greer", "state": "SC", "country": "United States"}}, "player": {"id": 1120136, "gamerTag": "fries", "prefix": "GCB", "user": {"location": {"city": "Greer", "state": "SC", "country": "United States"}}}}]}}, {"id": 36308544, "seedNum": 5, "entrant": {"id": 21060068, "name": "KHW | Frumps", "participants": [{"id": 19372260, "gamerTag": "Frumps", "prefix": "KHW", "user": {"location": {"city": "Greenville", "state": "SC", "country": "United States"}}, "player": {"id": 2844590, "gamerTag": "Frumps", "prefix": "KHW", "user": {"location": {"city": "Greenville", "state": "SC", "country": "United States"}}}}]}}, {"id": 36238986, "seedNum": 4, "entrant": {"id": 21014015, "name": "Shifty", "participants": [{"id": 19330844, "gamerTag": "Shifty", "prefix": "", "user": {"location": {"city": "Evans", "state": "GA", "country": "United States"}}, "player": {"id": 4387897, "gamerTag": "Shifty", "prefix": "", "user": {"location": {"city": "Evans", "state": "GA", "country": "United States"}}}}]}}, {"id": 36150646, "seedNum": 2, "entrant": {"id": 20964089, "name": "SBG | pick", "participants": [{"id": 19286380, "gamerTag": "pick", "prefix": "SBG", "user": {"location": {"city": null, "state": null, "country": null}}, "player": {"id": 4151589, "gamerTag": "pick", "prefix": "SBG", "user": {"location": {"city": null, "state": null, "country": null}}}}]}}, {"id": 36130435, "seedNum": 1, "entrant": {"id": 20949371, "name": "JollyPie", "participants": [{"id": 19274084, "gamerTag": "JollyPie", "prefix": "", "user": {"location": {"city": "Oakton", "state": "VA", "country": "United States"}}, "player": {"id": 434421, "gamerTag": "JollyPie", "prefix": "", "user": {"location": {"city": "Oakton", "state": "VA", "country": "United States"}}}}]}}, {"id": 36215226, "seedNum": 3, "entrant": {"id": 20998865, "name": "CV | NiNE", "participants": [{"id": 19316676, "gamerTag": "NiNE", "prefix": "CV", "user": {"location": {"city": "Augusta", "state": "GA", "country": "United States"}}, "player": {"id": 25337, "gamerTag": "NiNE", "prefix": "CV", "user": {"location": {"city": "Augusta", "state": "GA", "country": "United States"}}}}]}}]}}}