{"event": {"sets": {"pageInfo": {"totalPages": 3, "total": 41}, "nodes": [{"id": 92756306, "state": 3, "round": -6, "fullRoundText": "Losers Round 3", "completedAt": 1755388210, "winnerId": 20971034, "slots": [{"id": "92756306-0", "entrant": {"id": 20978036, "name": "REDD", "participants": [{"id": 19298964, "gamerTag": "REDD", "prefix": "", "user": {"location": {"city": "Valdosta", "state": "GA", "country": "United States"}}, "player": {"id": 1305309, "gamerTag": "REDD", "prefix": "", "user": {"location": {"city": "Valdosta", "state": "GA", "country": "United States"}}}}]}, "standing": {"placement": 2, "stats": {"score": {"value": 1}}}}, {"id": "92756306-1", "entrant": {"id": 20971034, "name": "Pokchop", "participants": [{"id": 19292652, "gamerTag": "Pokchop", "prefix": "", "user": {"location": {"city": "Atlanta", "state": "GA", "country": "United States"}}, "player": {"id": 150402, "gamerTag": "Pokchop", "prefix": "", "user": {"location": {"city": "Atlanta", "state": "GA", "country": "United States"}}}}]}, "standing": {"placement": 1, "stats": {"score": {"value": 2}}}}], "games": null}, {"id": 92756307, "state": 3, "round": -6, "fullRoundText": "Losers Round 3", "completedAt": 1755388445, "winnerId": 20975407, "slots": [{"id": "92756307-0", "entrant": {"id": 20975407, "name": "AfterKast", "participants": [{"id": 19296563, "gamerTag": "AfterKast", "prefix": null, "user": {"location": {"city": "Macon", "state": "GA", "country": "United States"}}, "player": {"id": 3467624, "gamerTag": "AfterKast", "prefix": null, "user": {"location": {"city": "Macon", "state": "GA", "country": "United States"}}}}]}, "standing": {"placement": 1, "stats": {"score": {"value": 2}}}}, {"id": "92756307-1", "entrant": {"id": 20980869, "name": "Amras", "participants": [{"id": 19301466, "gamerTag": "Amras", "prefix": null, "user": {"location": {"city": "Covington", "state": "GA", "country": "United States"}}, "player": {"id": 3712610, "gamerTag": "Amras", "prefix": null, "user": {"location": {"city": "Covington", "state": "GA", "country": "United States"}}}}]}, "standing": {"placement": 2, "stats": {"score": {"value": 0}}}}], "games": null}, {"id": 92756308, "state": 3, "round": -6, "fullRoundText": "Losers Round 3", "completedAt": 1755387976, "winnerId": 20986394, "slots": [{"id": "92756308-0", "entrant": {"id": 20944180, "name": "Gorduri Cap", "participants": [{"id": 19269483, "gamerTag": "Gorduri Cap", "prefix": "", "user": {"location": {"city": "", "state": "AK", "country": "United States"}}, "player": {"id": 2068683, "gamerTag": "Spauldo", "prefix": "", "user": {"location": {"city": "", "state": "AK", "country": "United States"}}}}]}, "standing": {"placement": 2, "stats": {"score": {"value": 0}}}}, {"id": "92756308-1", "entrant": {"id": 20986394, "name": "TGS | Dattebane", "participants": [{"id": 19305796, "gamerTag": "Dattebane", "prefix": "TGS", "user": {"location": {"city": "McDonough", "state": "GA", "country": "United States"}}, "player": {"id": 1524545, "gamerTag": "Dattebane", "prefix": "TGS", "user": {"location": {"city": "McDonough", "state": "GA", "country": "United States"}}}}]}, "standing": {"placement": 1, "stats": {"score": {"value": 2}}}}], "games": null}, {"id": 92756309, "state": 3, "round": -6, "fullRoundText": "Losers Round 3", "completedAt": 1755388378, "winnerId": 20920899, "slots": [{"id": "92756309-0", "entrant": {"id": 20983602, "name": "BlazingFox", "participants": [{"id": 19303627, "gamerTag": "BlazingFox", "prefix": "", "user": {"location": {"city": "Byron", "state": null, "country": "United States"}}, "player": {"id": 592139, "gamerTag": "BlazingFox", "prefix": "", "user": {"location": {"city": "Byron", "state": null, "country": "United States"}}}}]}, "standing": {"placement": 2, "stats": {"score": {"value": 0}}}}, {"id": "92756309-1", "entrant": {"id": 20920899, "name": "JSH3LLZ", "participants": [{"id": 19248764, "gamerTag": "JSH3LLZ", "prefix": null, "user": {"location": {"city": "atlanta", "state": "GA", "country": "United States"}}, "player": {"id": 1379919, "gamerTag": "JSH3LLZ", "prefix": null, "user": {"location": {"city": "atlanta", "state": "GA", "country": "United States"}}}}]}, "standing": {"placement": 1, "stats": {"score": {"value": 2}}}}], "games": null}, {"id": 92756302, "state": 3, "round": -5, "fullRoundText": "Losers Round 2", "completedAt": 1755387701, "winnerId": 20971034, "slots": [{"id": "92756302-0", "entrant": {"id": 20958572, "name": "LOL!", "participants": [{"id": 19281775, "gamerTag": "LOL!", "prefix": null, "user": {"location": {"city": "Byron", "state": "GA", "country": "United States"}}, "player": {"id": 730420, "gamerTag": "LOL!", "prefix": "HJE", "user": {"location": {"city": "Byron", "state": "GA", "country": "United States"}}}}]}, "standing": {"placement": 2, "stats": {"score": {"value": 1}}}}, {"id": "92756302-1", "entrant": {"id": 20971034, "name": "Pokchop", "participants": [{"id": 19292652, "gamerTag": "Pokchop", "prefix": "", "user": {"location": {"city": "Atlanta", "state": "GA", "country": "United States"}}, "player": {"id": 150402, "gamerTag": "Pokchop", "prefix": "", "user": {"location": {"city": "Atlanta", "state": "GA", "country": "United States"}}}}]}, "standing": {"placement": 1, "stats": {"score": {"value": 2}}}}], "games": null}, {"id": 92756303, "state": 3, "round": -5, "fullRoundText": "Losers Round 2", "completedAt": 1755387079, "winnerId": 20980869, "slots": [{"id": "92756303-0", "entrant": {"id": 20980869, "name": "Amras", "participants": [{"id": 19301466, "gamerTag": "Amras", "prefix": null, "user": {"location": {"city": "Covington", "state": "GA", "country": "United States"}}, "player": {"id": 3712610, "gamerTag": "Amras", "prefix": null, "user": {"location": {"city": "Covington", "state": "GA", "country": "United States"}}}}]}, "standing": {"placement": 1, "stats": {"score": {"value": 2}}}}, {"id": "92756303-1", "entrant": {"id": 20947550, "name": "Foam Root", "participants": [{"id": 19272375, "gamerTag": "Foam Root", "prefix": "", "user": {"location": {"city": "Covington", "state": "GA", "country": "United States"}}, "player": {"id": 541222, "gamerTag": "Foam Root", "prefix": "", "user": {"location": {"city": "Covington", "state": "GA", "country": "United States"}}}}]}, "standing": {"placement": 2, "stats": {"score": {"value": 1}}}}], "games": null}, {"id": 92756304, "state": 3, "round": -5, "fullRoundText": "Losers Round 2", "completedAt": 1755387041, "winnerId": 20986394, "slots": [{"id": "92756304-0", "entrant": {"id": 20986394, "name": "TGS | Dattebane", "participants": [{"id": 19305796, "gamerTag": "Dattebane", "prefix": "TGS", "user": {"location": {"city": "McDonough", "state": "GA", "country": "United States"}}, "player": {"id": 1524545, "gamerTag": "Dattebane", "prefix": "TGS", "user": {"location": {"city": "McDonough", "state": "GA", "country": "United States"}}}}]}, "standing": {"placement": 1, "stats": {"score": {"value": 2}}}}, {"id": "92756304-1", "entrant": {"id": 20982755, "name": "Evernight", "participants": [{"id": 19302967, "gamerTag": "Evernight", "prefix": null, "user": {"location": {"city": "Macon", "state": "GA", "country": "United States"}}, "player": {"id": 548064, "gamerTag": "Evernight", "prefix": null, "user": {"location": {"city": "Macon", "state": "GA", "country": "United States"}}}}]}, "standing": {"placement": 2, "stats": {"score": {"value": 0}}}}], "games": null}, {"id": 92756305, "state": 3, "round": -5, "fullRoundText": "Losers Round 2", "completedAt": 1755387112, "winnerId": 20920899, "slots": [{"id": "92756305-0", "entrant": {"id": 20976516, "name": "Area_478 | BigBoss_DP", "participants": [{"id": 19297563, "gamerTag": "BigBoss_DP", "prefix": "Area_478", "user": {"location": {"city": "Macon", "state": "GA", "country": "United States"}}, "player": {"id": 146751, "gamerTag": "BigBoss_DP", "prefix": "Area_478", "user": {"location": {"city": "Macon", "state": "GA", "country": "United States"}}}}]}, "standing": {"placement": 2, "stats": {"score": {"value": 0}}}}, {"id": "92756305-1", "entrant": {"id": 20920899, "name": "JSH3LLZ", "participants": [{"id": 19248764, "gamerTag": "JSH3LLZ", "prefix": null, "user": {"location": {"city": "atlanta", "state": "GA", "country": "United States"}}, "player": {"id": 1379919, "gamerTag": "JSH3LLZ", "prefix": null, "user": {"location": {"city": "atlanta", "state": "GA", "country": "United States"}}}}]}, "standing": {"placement": 1, "stats": {"score": {"value": 2}}}}], "games": null}, {"id": 92756237, "state": 3, "round": 2, "fullRoundText": "Winners Round 2", "completedAt": 1755384777, "winnerId": 20989393, "slots": [{"id": "92756237-0", "entrant": {"id": 20989393, "name": "blendoben", "participants": [{"id": 19308336, "gamerTag": "blendoben", "prefix": null, "user": {"location": {"city": "Perry", "state": "GA", "country": "United States"}}, "player": {"id": 140048, "gamerTag": "blendoben", "prefix": null, "user": {"location": {"city": "Perry", "state": "GA", "country": "United States"}}}}]}, "standing": {"placement": 1, "stats": {"score": {"value": 2}}}}, {"id": "92756237-1", "entrant": {"id": 20920899, "name": "JSH3LLZ", "participants": [{"id": 19248764, "gamerTag": "JSH3LLZ", "prefix": null, "user": {"location": {"city": "atlanta", "state": "GA", "country": "United States"}}, "player": {"id": 1379919, "gamerTag": "JSH3LLZ", "prefix": null, "user": {"location": {"city": "atlanta", "state": "GA", "country": "United States"}}}}]}, "standing": {"placement": 2, "stats": {"score": {"value": 1}}}}], "games": null}, {"id": 92756238, "state": 3, "round": 2, "fullRoundText": "Winners Round 2", "completedAt": 1755385603, "winnerId": 20975407, "slots": [{"id": "92756238-0", "entrant": {"id": 20975407, "name": "AfterKast", "participants": [{"id": 19296563, "gamerTag": "AfterKast", "prefix": null, "user": {"location": {"city": "Macon", "state": "GA", "country": "United States"}}, "player": {"id": 3467624, "gamerTag": "AfterKast", "prefix": null, "user": {"location": {"city": "Macon", "state": "GA", "country": "United States"}}}}]}, "standing": {"placement": 1, "stats": {"score": {"value": 2}}}}, {"id": "92756238-1", "entrant": {"id": 20976516, "name": "Area_478 | BigBoss_DP", "participants": [{"id": 19297563, "gamerTag": "BigBoss_DP", "prefix": "Area_478", "user": {"location": {"city": "Macon", "state": "GA", "country": "United States"}}, "player": {"id": 146751, "gamerTag": "BigBoss_DP", "prefix": "Area_478", "user": {"location": {"city": "Macon", "state": "GA", "country": "United States"}}}}]}, "standing": {"placement": 2, "stats": {"score": {"value": 0}}}}], "games": null}, {"id": 92756239, "state": 3, "round": 2, "fullRoundText": "Winners Round 2", "completedAt": 1755386206, "winnerId": 20982015, "slots": [{"id": "92756239-0", "entrant": {"id": 20982015, "name": "MrMixtape", "participants": [{"id": 19302404, "gamerTag": "MrMixtape", "prefix": null, "user": {"location": {"city": null, "state": null, "country": null}}, "player": {"id": 3930310, "gamerTag": "MrMixtape", "prefix": null, "user": {"location": {"city": null, "state": null, "country": null}}}}]}, "standing": {"placement": 1, "stats": {"score": {"value": 2}}}}, {"id": "92756239-1", "entrant": {"id": 20982755, "name": "Evernight", "participants": [{"id": 19302967, "gamerTag": "Evernight", "prefix": null, "user": {"location": {"city": "Macon", "state": "GA", "country": "United States"}}, "player": {"id": 548064, "gamerTag": "Evernight", "prefix": null, "user": {"location": {"city": "Macon", "state": "GA", "country": "United States"}}}}]}, "standing": {"placement": 2, "stats": {"score": {"value": 0}}}}], "games": null}, {"id": 92756240, "state": 3, "round": 2, "fullRoundText": "Winners Round 2", "completedAt": 1755385788, "winnerId": 20978036, "slots": [{"id": "92756240-0", "entrant": {"id": 20986394, "name": "TGS | Dattebane", "participants": [{"id": 19305796, "gamerTag": "Dattebane", "prefix": "TGS", "user": {"location": {"city": "McDonough", "state": "GA", "country": "United States"}}, "player": {"id": 1524545, "gamerTag": "Dattebane", "prefix": "TGS", "user": {"location": {"city": "McDonough", "state": "GA", "country": "United States"}}}}]}, "standing": {"placement": 2, "stats": {"score": {"value": 0}}}}, {"id": "92756240-1", "entrant": {"id": 20978036, "name": "REDD", "participants": [{"id": 19298964, "gamerTag": "REDD", "prefix": "", "user": {"location": {"city": "Valdosta", "state": "GA", "country": "United States"}}, "player": {"id": 1305309, "gamerTag": "REDD", "prefix": "", "user": {"location": {"city": "Valdosta", "state": "GA", "country": "United States"}}}}]}, "standing": {"placement": 1, "stats": {"score": {"value": 2}}}}], "games": null}, {"id": 92756241, "state": 3, "round": 2, "fullRoundText": "Winners Round 2", "completedAt": 1755385941, "winnerId": 20987359, "slots": [{"id": "92756241-0", "entrant": {"id": 20987359, "name": "Chato", "participants": [{"id": 19306623, "gamerTag": "Chato", "prefix": null, "user": {"location": {"city": null, "state": null, "country": null}}, "player": {"id": 657291, "gamerTag": "Chato", "prefix": null, "user": {"location": {"city": null, "state": null, "country": null}}}}]}, "standing": {"placement": 1, "stats": {"score": {"value": 2}}}}, {"id": "92756241-1", "entrant": {"id": 20943953, "name": "ATLRiot", "participants": [{"id": 19269312, "gamerTag": "ATLRiot", "prefix": "", "user": {"location": {"city": "Augusta", "state": "GA", "country": "United States"}}, "player": {"id": 2057913, "gamerTag": "ATLRiot", "prefix": "", "user": {"location": {"city": "Augusta", "state": "GA", "country": "United States"}}}}]}, "standing": {"placement": 2, "stats": {"score": {"value": 0}}}}], "games": null}, {"id": 92756242, "state": 3, "round": 2, "fullRoundText": "Winners Round 2", "completedAt": 1755384745, "winnerId": 20983602, "slots": [{"id": "92756242-0", "entrant": {"id": 20983602, "name": "BlazingFox", "participants": [{"id": 19303627, "gamerTag": "BlazingFox", "prefix": "", "user": {"location": {"city": "Byron", "state": null, "country": "United States"}}, "player": {"id": 592139, "gamerTag": "BlazingFox", "prefix": "", "user": {"location": {"city": "Byron", "state": null, "country": "United States"}}}}]}, "standing": {"placement": 1, "stats": {"score": {"value": 2}}}}, {"id": "92756242-1", "entrant": {"id": 20980869, "name": "Amras", "participants": [{"id": 19301466, "gamerTag": "Amras", "prefix": null, "user": {"location": {"city": "Covington", "state": "GA", "country": "United States"}}, "player": {"id": 3712610, "gamerTag": "Amras", "prefix": null, "user": {"location": {"city": "Covington", "state": "GA", "country": "United States"}}}}]}, "standing": {"placement": 2, "stats": {"score": {"value": 0}}}}], "games": null}, {"id": 92756243, "state": 3, "round": 2, "fullRoundText": "Winners Round 2", "completedAt": 1755386085, "winnerId": 20878606, "slots": [{"id": "92756243-0", "entrant": {"id": 20971034, "name": "Pokchop", "participants": [{"id": 19292652, "gamerTag": "Pokchop", "prefix": "", "user": {"location": {"city": "Atlanta", "state": "GA", "country": "United States"}}, "player": {"id": 150402, "gamerTag": "Pokchop", "prefix": "", "user": {"location": {"city": "Atlanta", "state": "GA", "country": "United States"}}}}]}, "standing": {"placement": 2, "stats": {"score": {"value": 0}}}}, {"id": "92756243-1", "entrant": {"id": 20878606, "name": "JazzMo", "participants": [{"id": 19211372, "gamerTag": "JazzMo", "prefix": null, "user": {"location": {"city": "Macon", "state": "GA", "country": "United States"}}, "player": {"id": 2369252, "gamerTag": "JazzMo", "prefix": null, "user": {"location": {"city": "Macon", "state": "GA", "country": "United States"}}}}]}, "standing": {"placement": 1, "stats": {"score": {"value": 2}}}}], "games": null}]}}}