{"event": {"sets": {"pageInfo": {"totalPages": 2, "total": 18}, "nodes": [{"id": 91606656, "state": 3, "round": -4, "fullRoundText": "Losers Round 1", "completedAt": 1752961015, "winnerId": 20740585, "slots": [{"id": "91606656-0", "entrant": {"id": 20740585, "name": "4o4 | Yugo", "participants": [{"id": 19086573, "gamerTag": "Yugo", "prefix": "4o4", "user": {"location": {"city": "Sandy springs", "state": "GA", "country": "United States"}}, "player": {"id": 338020, "gamerTag": "Yugo", "prefix": "4o4", "user": {"location": {"city": "Sandy springs", "state": "GA", "country": "United States"}}}}]}, "standing": {"placement": 1, "stats": {"score": {"value": 3}}}}, {"id": "91606656-1", "entrant": {"id": 20741625, "name": "ToBeFrank | FF | SLAYlor Moon", "participants": [{"id": 19087594, "gamerTag": "SLAYlor Moon", "prefix": "ToBeFrank | FF", "user": {"location": {"city": "Atlanta", "state": "GA", "country": "United States"}}, "player": {"id": 267007, "gamerTag": "SLAYlor Moon", "prefix": "ToBeFrank | FF", "user": {"location": {"city": "Atlanta", "state": "GA", "country": "United States"}}}}]}, "standing": {"placement": 2, "stats": {"score": {"value": 0}}}}], "games": null}, {"id": 91606618, "state": 3, "round": 1, "fullRoundText": "Winners Round 1", "completedAt": 1752960319, "winnerId": 20741916, "slots": [{"id": "91606618-0", "entrant": {"id": 20741916, "name": "Archway", "participants": [{"id": 19087902, "gamerTag": "Archway", "prefix": "", "user": {"location": {"city": "Sandy Springs", "state": "GA", "country": "United States"}}, "player": {"id": 1435251, "gamerTag": "Archway", "prefix": "", "user": {"location": {"city": "Sandy Springs", "state": "GA", "country": "United States"}}}}]}, "standing": {"placement": 1, "stats": {"score": {"value": 3}}}}, {"id": "91606618-1", "entrant": {"id": 20718754, "name": "Cupp!", "participants": [{"id": 19068038, "gamerTag": "Cupp!", "prefix": "", "user": {"location": {"city": "Atlanta", "state": "GA", "country": "United States"}}, "player": {"id": 3779462, "gamerTag": "Cupp!", "prefix": "", "user": {"location": {"city": "Atlanta", "state": "GA", "country": "United States"}}}}]}, "standing": {"placement": 2, "stats": {"score": {"value": 1}}}}], "games": null}, {"id": 91606622, "state": 3, "round": 1, "fullRoundText": "Winners Round 1", "completedAt": 1752960487, "winnerId": 20741597, "slots": [{"id": "91606622-0", "entrant": {"id": 20741597, "name": "EEK!", "participants": [{"id": 19087566, "gamerTag": "EEK!", "prefix": null, "user": {"location": {"city": "Atlanta", "state": "GA", "country": "United States"}}, "player": {"id": 148794, "gamerTag": "EEK!", "prefix": null, "user": {"location": {"city": "Atlanta", "state": "GA", "country": "United States"}}}}]}, "standing": {"placement": 1, "stats": {"score": {"value": 3}}}}, {"id": "91606622-1", "entrant": {"id": 20741625, "name": "ToBeFrank | FF | SLAYlor Moon", "participants": [{"id": 19087594, "gamerTag": "SLAYlor Moon", "prefix": "ToBeFrank | FF", "user": {"location": {"city": "Atlanta", "state": "GA", "country": "United States"}}, "player": {"id": 267007, "gamerTag": "SLAYlor Moon", "prefix": "ToBeFrank | FF", "user": {"location": {"city": "Atlanta", "state": "GA", "country": "United States"}}}}]}, "standing": {"placement": 2, "stats": {"score": {"value": 0}}}}], "games": null}]}}}