{"event": {"sets": {"pageInfo": {"totalPages": 4, "total": 46}, "nodes": [{"id": 92636910, "state": 3, "round": -6, "fullRoundText": "Losers Round 3", "completedAt": 1755134393, "winnerId": 20955330, "slots": [{"id": "92636910-0", "entrant": {"id": 20959036, "name": "4o4 | KhalRhaego", "participants": [{"id": 19282185, "gamerTag": "KhalRhaego", "prefix": "4o4", "user": {"location": {"city": "Jonesboro", "state": "GA", "country": "United States"}}, "player": {"id": 4076327, "gamerTag": "KhalRhaego", "prefix": "BOLT", "user": {"location": {"city": "Jonesboro", "state": "GA", "country": "United States"}}}}]}, "standing": {"placement": 2, "stats": {"score": {"value": 1}}}}, {"id": "92636910-1", "entrant": {"id": 20955330, "name": "UHH | longlivnando", "participants": [{"id": 19278983, "gamerTag": "longlivnando", "prefix": "UHH", "user": {"location": {"city": "Warrenville", "state": "SC", "country": "United States"}}, "player": {"id": 3746165, "gamerTag": "longlivnando", "prefix": "UHH", "user": {"location": {"city": "Warrenville", "state": "SC", "country": "United States"}}}}]}, "standing": {"placement": 1, "stats": {"score": {"value": 2}}}}], "games": null}, {"id": 92636911, "state": 3, "round": -6, "fullRoundText": "Losers Round 3", "completedAt": 1755134557, "winnerId": 20961576, "slots": [{"id": "92636911-0", "entrant": {"id": 20961576, "name": "100% | juice", "participants": [{"id": 19284335, "gamerTag": "juice", "prefix": "100%", "user": {"location": {"city": "atlanta", "state": "GA", "country": "United States"}}, "player": {"id": 146905, "gamerTag": "juice", "prefix": "100%", "user": {"location": {"city": "atlanta", "state": "GA", "country": "United States"}}}}]}, "standing": {"placement": 1, "stats": {"score": {"value": 2}}}}, {"id": "92636911-1", "entrant": {"id": 20963147, "name": "Greed", "participants": [{"id": 19285714, "gamerTag": "Greed", "prefix": "", "user": {"location": {"city": "Atlanta", "state": "GA", "country": "United States"}}, "player": {"id": 907329, "gamerTag": "Greed", "prefix": "", "user": {"location": {"city": "Atlanta", "state": "GA", "country": "United States"}}}}]}, "standing": {"placement": 2, "stats": {"score": {"value": 0}}}}], "games": null}, {"id": 92636912, "state": 3, "round": -6, "fullRoundText": "Losers Round 3", "completedAt": 1755134876, "winnerId": 20959000, "slots": [{"id": "92636912-0", "entrant": {"id": 20959000, "name": "InIt2WynneIt", "participants": [{"id": 19282155, "gamerTag": "InIt2WynneIt", "prefix": "", "user": {"location": {"city": "LAWRENCEVILLE", "state": "GA", "country": "United States"}}, "player": {"id": 260407, "gamerTag": "InIt2WynneIt", "prefix": "", "user": {"location": {"city": "LAWRENCEVILLE", "state": "GA", "country": "United States"}}}}]}, "standing": {"placement": 1, "stats": {"score": {"value": 2}}}}, {"id": "92636912-1", "entrant": {"id": 20962318, "name": "TPC | TrayTrizzy", "participants": [{"id": 19284981, "gamerTag": "TrayTrizzy", "prefix": "TPC", "user": {"location": {"city": "NYC", "state": "NY", "country": "United States"}}, "player": {"id": 646096, "gamerTag": "TrayTrizzy", "prefix": "TPC", "user": {"location": {"city": "NYC", "state": "NY", "country": "United States"}}}}]}, "standing": {"placement": 2, "stats": {"score": {"value": 1}}}}], "games": null}, {"id": 92636905, "state": 3, "round": -5, "fullRoundText": "Losers Round 2", "completedAt": 1755134252, "winnerId": 20962081, "slots": [{"id": "92636905-0", "entrant": {"id": 20962175, "name": "HEAVENER", "participants": [{"id": 19284853, "gamerTag": "HEAVENER", "prefix": "", "user": {"location": {"city": "Marietta", "state": "GA", "country": "United States"}}, "player": {"id": 1829744, "gamerTag": "HEAVENER", "prefix": "", "user": {"location": {"city": "Marietta", "state": "GA", "country": "United States"}}}}]}, "standing": {"placement": 2, "stats": {"score": {"value": 0}}}}, {"id": "92636905-1", "entrant": {"id": 20962081, "name": "Jet Midder", "participants": [{"id": 19284765, "gamerTag": "Jet Midder", "prefix": null, "user": {"location": {"city": null, "state": null, "country": null}}, "player": {"id": 2363656, "gamerTag": "Jet Dayo", "prefix": null, "user": {"location": {"city": null, "state": null, "country": null}}}}]}, "standing": {"placement": 1, "stats": {"score": {"value": 2}}}}], "games": null}, {"id": 92636906, "state": 3, "round": -5, "fullRoundText": "Losers Round 2", "completedAt": 1755133765, "winnerId": 20955330, "slots": [{"id": "92636906-0", "entrant": {"id": 20962058, "name": "Hipster Lion", "participants": [{"id": 19284746, "gamerTag": "Hipster Lion", "prefix": "", "user": {"location": {"city": "College Park", "state": "GA", "country": "United States"}}, "player": {"id": 897409, "gamerTag": "Hipster Lion", "prefix": "", "user": {"location": {"city": "College Park", "state": "GA", "country": "United States"}}}}]}, "standing": {"placement": 2, "stats": {"score": {"value": 1}}}}, {"id": "92636906-1", "entrant": {"id": 20955330, "name": "UHH | longlivnando", "participants": [{"id": 19278983, "gamerTag": "longlivnando", "prefix": "UHH", "user": {"location": {"city": "Warrenville", "state": "SC", "country": "United States"}}, "player": {"id": 3746165, "gamerTag": "longlivnando", "prefix": "UHH", "user": {"location": {"city": "Warrenville", "state": "SC", "country": "United States"}}}}]}, "standing": {"placement": 1, "stats": {"score": {"value": 2}}}}], "games": null}, {"id": 92636907, "state": 3, "round": -5, "fullRoundText": "Losers Round 2", "completedAt": 1755133598, "winnerId": 20963147, "slots": [{"id": "92636907-0", "entrant": {"id": 20963147, "name": "Greed", "participants": [{"id": 19285714, "gamerTag": "Greed", "prefix": "", "user": {"location": {"city": "Atlanta", "state": "GA", "country": "United States"}}, "player": {"id": 907329, "gamerTag": "Greed", "prefix": "", "user": {"location": {"city": "Atlanta", "state": "GA", "country": "United States"}}}}]}, "standing": {"placement": 1, "stats": {"score": {"value": 2}}}}, {"id": "92636907-1", "entrant": {"id": 20963365, "name": "Buddy3k", "participants": [{"id": 19285886, "gamerTag": "Buddy3k", "prefix": "", "user": {"location": {"city": "Atlanta", "state": "GA", "country": "United States"}}, "player": {"id": 4443794, "gamerTag": "Buddy3k", "prefix": "", "user": {"location": {"city": "Atlanta", "state": "GA", "country": "United States"}}}}]}, "standing": {"placement": 2, "stats": {"score": {"value": 0}}}}], "games": null}, {"id": 92636908, "state": 3, "round": -5, "fullRoundText": "Losers Round 2", "completedAt": 1755134011, "winnerId": 20962318, "slots": [{"id": "92636908-0", "entrant": {"id": 20962318, "name": "TPC | TrayTrizzy", "participants": [{"id": 19284981, "gamerTag": "TrayTrizzy", "prefix": "TPC", "user": {"location": {"city": "NYC", "state": "NY", "country": "United States"}}, "player": {"id": 646096, "gamerTag": "TrayTrizzy", "prefix": "TPC", "user": {"location": {"city": "NYC", "state": "NY", "country": "United States"}}}}]}, "standing": {"placement": 1, "stats": {"score": {"value": 2}}}}, {"id": "92636908-1", "entrant": {"id": 20962218, "name": "Momokins", "participants": [{"id": 19284893, "gamerTag": "Momokins", "prefix": "", "user": {"location": {"city": "Atlanta", "state": "GA", "country": "United States"}}, "player": {"id": 612216, "gamerTag": "Momokins", "prefix": "", "user": {"location": {"city": "Atlanta", "state": "GA", "country": "United States"}}}}]}, "standing": {"placement": 2, "stats": {"score": {"value": 0}}}}], "games": null}, {"id": 92636840, "state": 3, "round": 2, "fullRoundText": "Winners Round 2", "completedAt": 1755132236, "winnerId": 20959036, "slots": [{"id": "92636840-0", "entrant": {"id": 20959036, "name": "4o4 | KhalRhaego", "participants": [{"id": 19282185, "gamerTag": "KhalRhaego", "prefix": "4o4", "user": {"location": {"city": "Jonesboro", "state": "GA", "country": "United States"}}, "player": {"id": 4076327, "gamerTag": "KhalRhaego", "prefix": "BOLT", "user": {"location": {"city": "Jonesboro", "state": "GA", "country": "United States"}}}}]}, "standing": {"placement": 1, "stats": {"score": {"value": 2}}}}, {"id": "92636840-1", "entrant": {"id": 20962218, "name": "Momokins", "participants": [{"id": 19284893, "gamerTag": "Momokins", "prefix": "", "user": {"location": {"city": "Atlanta", "state": "GA", "country": "United States"}}, "player": {"id": 612216, "gamerTag": "Momokins", "prefix": "", "user": {"location": {"city": "Atlanta", "state": "GA", "country": "United States"}}}}]}, "standing": {"placement": 2, "stats": {"score": {"value": 0}}}}], "games": null}, {"id": 92636841, "state": 3, "round": 2, "fullRoundText": "Winners Round 2", "completedAt": 1755132474, "winnerId": 20962902, "slots": [{"id": "92636841-0", "entrant": {"id": 20962318, "name": "TPC | TrayTrizzy", "participants": [{"id": 19284981, "gamerTag": "TrayTrizzy", "prefix": "TPC", "user": {"location": {"city": "NYC", "state": "NY", "country": "United States"}}, "player": {"id": 646096, "gamerTag": "TrayTrizzy", "prefix": "TPC", "user": {"location": {"city": "NYC", "state": "NY", "country": "United States"}}}}]}, "standing": {"placement": 2, "stats": {"score": {"value": 0}}}}, {"id": "92636841-1", "entrant": {"id": 20962902, "name": "GCH | slaughterwall", "participants": [{"id": 19285490, "gamerTag": "slaughterwall", "prefix": "GCH", "user": {"location": {"city": "Atlanta", "state": "GA", "country": "United States"}}, "player": {"id": 1104452, "gamerTag": "slaughterwall", "prefix": "GCH", "user": {"location": {"city": "Atlanta", "state": "GA", "country": "United States"}}}}]}, "standing": {"placement": 1, "stats": {"score": {"value": 2}}}}], "games": null}, {"id": 92636842, "state": 3, "round": 2, "fullRoundText": "Winners Round 2", "completedAt": 1755132223, "winnerId": 20962055, "slots": [{"id": "92636842-0", "entrant": {"id": 20962055, "name": "duetosideeffects", "participants": [{"id": 19284743, "gamerTag": "duetosideeffects", "prefix": "", "user": {"location": {"city": "Atlanta", "state": "GA", "country": "United States"}}, "player": {"id": 924041, "gamerTag": "duetosideeffects", "prefix": "", "user": {"location": {"city": "Atlanta", "state": "GA", "country": "United States"}}}}]}, "standing": {"placement": 1, "stats": {"score": {"value": 2}}}}, {"id": "92636842-1", "entrant": {"id": 20960616, "name": "Fiji | 100 Latinas", "participants": [{"id": 19283502, "gamerTag": "100 Latinas", "prefix": "Fiji", "user": {"location": {"city": "Lithonia", "state": "GA", "country": "United States"}}, "player": {"id": 1890427, "gamerTag": "100 Latinas", "prefix": "Fiji", "user": {"location": {"city": "Lithonia", "state": "GA", "country": "United States"}}}}]}, "standing": {"placement": 2, "stats": {"score": {"value": 1}}}}], "games": null}, {"id": 92636843, "state": 3, "round": 2, "fullRoundText": "Winners Round 2", "completedAt": 1755132309, "winnerId": 20958726, "slots": [{"id": "92636843-0", "entrant": {"id": 20958726, "name": "Iso.Dgaf", "participants": [{"id": 19281912, "gamerTag": "Iso.Dgaf", "prefix": null, "user": {"location": {"city": "Acworth", "state": "GA", "country": "United States"}}, "player": {"id": 4285541, "gamerTag": "Iso.Dgaf", "prefix": null, "user": {"location": {"city": "Acworth", "state": "GA", "country": "United States"}}}}]}, "standing": {"placement": 1, "stats": {"score": {"value": 2}}}}, {"id": "92636843-1", "entrant": {"id": 20963147, "name": "Greed", "participants": [{"id": 19285714, "gamerTag": "Greed", "prefix": "", "user": {"location": {"city": "Atlanta", "state": "GA", "country": "United States"}}, "player": {"id": 907329, "gamerTag": "Greed", "prefix": "", "user": {"location": {"city": "Atlanta", "state": "GA", "country": "United States"}}}}]}, "standing": {"placement": 2, "stats": {"score": {"value": 1}}}}], "games": null}, {"id": 92636844, "state": 3, "round": 2, "fullRoundText": "Winners Round 2", "completedAt": 1755132155, "winnerId": 20960827, "slots": [{"id": "92636844-0", "entrant": {"id": 20960827, "name": "Armanisaint", "participants": [{"id": 19283669, "gamerTag": "Armanisaint", "prefix": null, "user": {"location": {"city": "Roswell", "state": "GA", "country": "United States"}}, "player": {"id": 3943806, "gamerTag": "Armanisaint", "prefix": null, "user": {"location": {"city": "Roswell", "state": "GA", "country": "United States"}}}}]}, "standing": {"placement": 1, "stats": {"score": {"value": 2}}}}, {"id": "92636844-1", "entrant": {"id": 20955330, "name": "UHH | longlivnando", "participants": [{"id": 19278983, "gamerTag": "longlivnando", "prefix": "UHH", "user": {"location": {"city": "Warrenville", "state": "SC", "country": "United States"}}, "player": {"id": 3746165, "gamerTag": "longlivnando", "prefix": "UHH", "user": {"location": {"city": "Warrenville", "state": "SC", "country": "United States"}}}}]}, "standing": {"placement": 2, "stats": {"score": {"value": 0}}}}], "games": null}, {"id": 92636845, "state": 3, "round": 2, "fullRoundText": "Winners Round 2", "completedAt": 1755132260, "winnerId": 20959000, "slots": [{"id": "92636845-0", "entrant": {"id": 20959000, "name": "InIt2WynneIt", "participants": [{"id": 19282155, "gamerTag": "InIt2WynneIt", "prefix": "", "user": {"location": {"city": "LAWRENCEVILLE", "state": "GA", "country": "United States"}}, "player": {"id": 260407, "gamerTag": "InIt2WynneIt", "prefix": "", "user": {"location": {"city": "LAWRENCEVILLE", "state": "GA", "country": "United States"}}}}]}, "standing": {"placement": 1, "stats": {"score": {"value": 2}}}}, {"id": "92636845-1", "entrant": {"id": 20947363, "name": "Myk_JUMP", "participants": [{"id": 19272206, "gamerTag": "Myk_JUMP", "prefix": "", "user": {"location": {"city": "Atlanta", "state": "GA", "country": "United States"}}, "player": {"id": 469002, "gamerTag": "Myk_JUMP", "prefix": "", "user": {"location": {"city": "Atlanta", "state": "GA", "country": "United States"}}}}]}, "standing": {"placement": 2, "stats": {"score": {"value": 0}}}}], "games": null}, {"id": 92636846, "state": 3, "round": 2, "fullRoundText": "Winners Round 2", "completedAt": 1755133122, "winnerId": 20962730, "slots": [{"id": "92636846-0", "entrant": {"id": 20962730, "name": "Rel", "participants": [{"id": 19285341, "gamerTag": "Rel", "prefix": "", "user": {"location": {"city": "Atlanta", "state": null, "country": "United States"}}, "player": {"id": 2774889, "gamerTag": "Rel", "prefix": "", "user": {"location": {"city": "Atlanta", "state": null, "country": "United States"}}}}]}, "standing": {"placement": 1, "stats": {"score": {"value": 2}}}}, {"id": "92636846-1", "entrant": {"id": 20962081, "name": "Jet Midder", "participants": [{"id": 19284765, "gamerTag": "Jet Midder", "prefix": null, "user": {"location": {"city": null, "state": null, "country": null}}, "player": {"id": 2363656, "gamerTag": "Jet Dayo", "prefix": null, "user": {"location": {"city": null, "state": null, "country": null}}}}]}, "standing": {"placement": 2, "stats": {"score": {"value": 1}}}}], "games": null}, {"id": 92636847, "state": 3, "round": 2, "fullRoundText": "Winners Round 2", "completedAt": 1755132503, "winnerId": 20961576, "slots": [{"id": "92636847-0", "entrant": {"id": 20961576, "name": "100% | juice", "participants": [{"id": 19284335, "gamerTag": "juice", "prefix": "100%", "user": {"location": {"city": "atlanta", "state": "GA", "country": "United States"}}, "player": {"id": 146905, "gamerTag": "juice", "prefix": "100%", "user": {"location": {"city": "atlanta", "state": "GA", "country": "United States"}}}}]}, "standing": {"placement": 1, "stats": {"score": {"value": 2}}}}, {"id": "92636847-1", "entrant": {"id": 20962175, "name": "HEAVENER", "participants": [{"id": 19284853, "gamerTag": "HEAVENER", "prefix": "", "user": {"location": {"city": "Marietta", "state": "GA", "country": "United States"}}, "player": {"id": 1829744, "gamerTag": "HEAVENER", "prefix": "", "user": {"location": {"city": "Marietta", "state": "GA", "country": "United States"}}}}]}, "standing": {"placement": 2, "stats": {"score": {"value": 0}}}}], "games": null}]}}}