{"phase": {"seeds": {"pageInfo": {"totalPages": 1, "total": 26}, "nodes": [{"id": 36341979, "seedNum": 2, "entrant": {"id": 21083569, "name": "4o4 | MessatsuIM", "participants": [{"id": 19393784, "gamerTag": "MessatsuIM", "prefix": "4o4", "user": {"location": {"city": "Kennesaw", "state": "GA", "country": "United States"}}, "player": {"id": 3564235, "gamerTag": "MessatsuIM", "prefix": "4o4", "user": {"location": {"city": "Kennesaw", "state": "GA", "country": "United States"}}}}]}}, {"id": 36341602, "seedNum": 6, "entrant": {"id": 21083283, "name": "4o4 | Musa", "participants": [{"id": 19393529, "gamerTag": "Musa", "prefix": "4o4", "user": {"location": {"city": null, "state": null, "country": "United States"}}, "player": {"id": 131537, "gamerTag": "Musa", "prefix": "4o4", "user": {"location": {"city": null, "state": null, "country": "United States"}}}}]}}, {"id": 36340807, "seedNum": 9, "entrant": {"id": 21082695, "name": "4o4 | chrisymandias", "participants": [{"id": 19393011, "gamerTag": "chrisymandias", "prefix": "4o4", "user": {"location": {"city": "Dacula", "state": "GA", "country": "United States"}}, "player": {"id": 258173, "gamerTag": "chrisymandias", "prefix": "4o4", "user": {"location": {"city": "Dacula", "state": "GA", "country": "United States"}}}}]}}, {"id": 36341939, "seedNum": 7, "entrant": {"id": 21083528, "name": "4o4 | Yugo", "participants": [{"id": 19393743, "gamerTag": "Yugo", "prefix": "4o4", "user": {"location": {"city": "Sandy springs", "state": "GA", "country": "United States"}}, "player": {"id": 338020, "gamerTag": "Yugo", "prefix": "4o4", "user": {"location": {"city": "Sandy springs", "state": "GA", "country": "United States"}}}}]}}, {"id": 36338274, "seedNum": 4, "entrant": {"id": 21081038, "name": "Trophi", "participants": [{"id": 19391463, "gamerTag": "Trophi", "prefix": null, "user": {"location": {"city": "Sugar Hill", "state": "GA", "country": "United States"}}, "player": {"id": 35637, "gamerTag": "Trophi", "prefix": null, "user": {"location": {"city": "Sugar Hill", "state": "GA", "country": "United States"}}}}]}}, {"id": 36340386, "seedNum": 14, "entrant": {"id": 21082337, "name": "Air | Airplanes", "participants": [{"id": 19392684, "gamerTag": "Airplanes", "prefix": "Air", "user": {"location": {"city": "Dacula", "state": "GA", "country": "United States"}}, "player": {"id": 3872614, "gamerTag": "Airplanes", "prefix": "Air", "user": {"location": {"city": "Dacula", "state": "GA", "country": "United States"}}}}]}}, {"id": 36339701, "seedNum": 1, "entrant": {"id": 21082057, "name": "Burboovas", "participants": [{"id": 19392439, "gamerTag": "Burboovas", "prefix": null, "user": {"location": {"city": null, "state": null, "country": null}}, "player": {"id": 3927191, "gamerTag": "Burboovas", "prefix": null, "user": {"location": {"city": null, "state": null, "country": null}}}}]}}, {"id": 36341954, "seedNum": 3, "entrant": {"id": 21083544, "name": "JKong", "participants": [{"id": 19393759, "gamerTag": "JKong", "prefix": null, "user": {"location": {"city": "Riverdale", "state": "GA", "country": "United States"}}, "player": {"id": 3515833, "gamerTag": "JKong", "prefix": null, "user": {"location": {"city": "Riverdale", "state": "GA", "country": "United States"}}}}]}}, {"id": 36337959, "seedNum": 5, "entrant": {"id": 21080748, "name": "Noodle", "participants": [{"id": 19391213, "gamerTag": "Noodle", "prefix": null, "user": {"location": {"city": "McDonough", "state": "GA", "country": "United States"}}, "player": {"id": 3029288, "gamerTag": "Noodle", "prefix": "", "user": {"location": {"city": "McDonough", "state": "GA", "country": "United States"}}}}]}}, {"id": 36342140, "seedNum": 10, "entrant": {"id": 21083672, "name": "Archway", "participants": [{"id": 19393885, "gamerTag": "Archway", "prefix": "", "user": {"location": {"city": "Sandy Springs", "state": "GA", "country": "United States"}}, "player": {"id": 1435251, "gamerTag": "Archway", "prefix": "", "user": {"location": {"city": "Sandy Springs", "state": "GA", "country": "United States"}}}}]}}, {"id": 36342176, "seedNum": 15, "entrant": {"id": 21083698, "name": "LukeWarm", "participants": [{"id": 19393908, "gamerTag": "LukeWarm", "prefix": "", "user": {"location": {"city": "Alpharetta", "state": "GA", "country": "United States"}}, "player": {"id": 1348903, "gamerTag": "LukeWarm", "prefix": "", "user": {"location": {"city": "Alpharetta", "state": "GA", "country": "United States"}}}}]}}, {"id": 36342312, "seedNum": 19, "entrant": {"id": 21083822, "name": "Leon Nights", "participants": [{"id": 19394020, "gamerTag": "Leon Nights", "prefix": null, "user": {"location": {"city": "Atlanta", "state": "GA", "country": "United States"}}, "player": {"id": 4752335, "gamerTag": "Leon Nights", "prefix": null, "user": {"location": {"city": "Atlanta", "state": "GA", "country": "United States"}}}}]}}, {"id": 36341994, "seedNum": 11, "entrant": {"id": 21083577, "name": "BOLT | KhalRhaego", "participants": [{"id": 19393791, "gamerTag": "KhalRhaego", "prefix": "BOLT", "user": {"location": {"city": "Jonesboro", "state": "GA", "country": "United States"}}, "player": {"id": 4076327, "gamerTag": "KhalRhaego", "prefix": "BOLT", "user": {"location": {"city": "Jonesboro", "state": "GA", "country": "United States"}}}}]}}, {"id": 36341083, "seedNum": 16, "entrant": {"id": 21082887, "name": "C$", "participants": [{"id": 19393187, "gamerTag": "C$", "prefix": "", "user": {"location": {"city": "Stone mountain", "state": "GA", "country": "United States"}}, "player": {"id": 1532681, "gamerTag": "C$", "prefix": "", "user": {"location": {"city": "Stone mountain", "state": "GA", "country": "United States"}}}}]}}, {"id": 36341993, "seedNum": 18, "entrant": {"id": 21083576, "name": "Xangief", "participants": [{"id": 19393790, "gamerTag": "Xangief", "prefix": null, "user": {"location": {"city": "Atlanta", "state": "GA", "country": "United States"}}, "player": {"id": 135082, "gamerTag": "Xangief", "prefix": null, "user": {"location": {"city": "Atlanta", "state": "GA", "country": "United States"}}}}]}}, {"id": 36342403, "seedNum": 20, "entrant": {"id": 21083877, "name": "stylesK", "participants": [{"id": 19394065, "gamerTag": "stylesK", "prefix": "", "user": {"location": {"city": "Sandy Springs", "state": "GA", "country": "United States"}}, "player": {"id": 3475419, "gamerTag": "stylesK", "prefix": "", "user": {"location": {"city": "Sandy Springs", "state": "GA", "country": "United States"}}}}]}}, {"id": 36342318, "seedNum": 8, "entrant": {"id": 21083829, "name": "EEK!", "participants": [{"id": 19394025, "gamerTag": "EEK!", "prefix": null, "user": {"location": {"city": "Atlanta", "state": "GA", "country": "United States"}}, "player": {"id": 148794, "gamerTag": "EEK!", "prefix": null, "user": {"location": {"city": "Atlanta", "state": "GA", "country": "United States"}}}}]}}, {"id": 36332837, "seedNum": 12, "entrant": {"id": 21077635, "name": "4o4 | Bakuryu", "participants": [{"id": 19388356, "gamerTag": "Bakuryu", "prefix": "4o4", "user": {"location": {"city": "Marietta", "state": "GA", "country": "United States"}}, "player": {"id": 337943, "gamerTag": "Bakuryu", "prefix": "4o4", "user": {"location": {"city": "Marietta", "state": "GA", "country": "United States"}}}}]}}, {"id": 36342383, "seedNum": 13, "entrant": {"id": 21083875, "name": "MBossProductions", "participants": [{"id": 19394063, "gamerTag": "MBossProductions", "prefix": "", "user": {"location": {"city": "Norcross", "state": "GA", "country": "United States"}}, "player": {"id": 1997490, "gamerTag": "MBossProductions", "prefix": "", "user": {"location": {"city": "Norcross", "state": "GA", "country": "United States"}}}}]}}, {"id": 36341277, "seedNum": 17, "entrant": {"id": 21083022, "name": "Cupp!", "participants": [{"id": 19393308, "gamerTag": "Cupp!", "prefix": "", "user": {"location": {"city": "Atlanta", "state": "GA", "country": "United States"}}, "player": {"id": 3779462, "gamerTag": "Cupp!", "prefix": "", "user": {"location": {"city": "Atlanta", "state": "GA", "country": "United States"}}}}]}}, {"id": 36337935, "seedNum": 21, "entrant": {"id": 21080722, "name": "WFG | ChaosDunk", "participants": [{"id": 19391191, "gamerTag": "ChaosDunk", "prefix": "WFG", "user": {"location": {"city": "Woodstock", "state": "GA", "country": "United States"}}, "player": {"id": 24721, "gamerTag": "ChaosDunk", "prefix": "WFG", "user": {"location": {"city": "Woodstock", "state": "GA", "country": "United States"}}}}]}}, {"id": 36339208, "seedNum": 22, "entrant": {"id": 21081586, "name": "Pazure", "participants": [{"id": 19391992, "gamerTag": "Pazure", "prefix": null, "user": {"location": {"city": null, "state": null, "country": "United States"}}, "player": {"id": 72218, "gamerTag": "Pazure", "prefix": null, "user": {"location": {"city": null, "state": null, "country": "United States"}}}}]}}, {"id": 36341859, "seedNum": 24, "entrant": {"id": 21083446, "name": "jwhighwind", "participants": [{"id": 19393675, "gamerTag": "jwhighwind", "prefix": null, "user": {"location": {"city": "", "state": "GA", "country": "United States"}}, "player": {"id": 3416836, "gamerTag": "jwhighwind", "prefix": null, "user": {"location": {"city": "", "state": "GA", "country": "United States"}}}}]}}, {"id": 36342373, "seedNum": 26, "entrant": {"id": 21083866, "name": "Barky", "participants": [{"id": 19394054, "gamerTag": "Barky", "prefix": null, "user": {"location": {"city": "Orlando", "state": "FL", "country": "United States"}}, "player": {"id": 1460695, "gamerTag": "Barky", "prefix": null, "user": {"location": {"city": "Orlando", "state": "FL", "country": "United States"}}}}]}}, {"id": 36341094, "seedNum": 23, "entrant": {"id": 21082899, "name": "WFG | MondoLad", "participants": [{"id": 19393196, "gamerTag": "MondoLad", "prefix": "WFG", "user": {"location": {"city": "Atlanta", "state": "GA", "country": "United States"}}, "player": {"id": 180028, "gamerTag": "MondoLad", "prefix": "WFG", "user": {"location": {"city": "Atlanta", "state": "GA", "country": "United States"}}}}]}}, {"id": 36342579, "seedNum": 25, "entrant": {"id": 21084006, "name": "WhatMike", "participants": [{"id": 19394179, "gamerTag": "WhatMike", "prefix": "", "user": {"location": {"city": "Oakwood", "state": "GA", "country": "United States"}}, "player": {"id": 154427, "gamerTag": "WhatMike", "prefix": "", "user": {"location": {"city": "Oakwood", "state": "GA", "country": "United States"}}}}]}}]}}}