{"phase": {"seeds": {"pageInfo": {"totalPages": 1, "total": 9}, "nodes": [{"id": 35884926, "seedNum": 8, "entrant": {"id": 20796658, "name": "NLP | iNGenius", "participants": [{"id": 19139607, "gamerTag": "iNGenius", "prefix": "NLP", "user": {"location": {"city": null, "state": null, "country": null}}, "player": {"id": 3194293, "gamerTag": "iNGenius", "prefix": "", "user": {"location": {"city": null, "state": null, "country": null}}}}]}}, {"id": 35921864, "seedNum": 9, "entrant": {"id": 20819284, "name": "Zenith", "participants": [{"id": 19158606, "gamerTag": "Zenith", "prefix": null, "user": {"location": {"city": null, "state": null, "country": null}}, "player": {"id": 4341204, "gamerTag": "Zenith", "prefix": null, "user": {"location": {"city": null, "state": null, "country": null}}}}]}}, {"id": 35537415, "seedNum": 2, "entrant": {"id": 20580591, "name": "FNG | S0URCEC0DE", "participants": [{"id": 18947989, "gamerTag": "S0URCEC0DE", "prefix": "FNG", "user": {"location": {"city": "Macon", "state": "GA", "country": "United States"}}, "player": {"id": 2699776, "gamerTag": "S0URCEC0DE", "prefix": "FNG", "user": {"location": {"city": "Macon", "state": "GA", "country": "United States"}}}}]}}, {"id": 35764595, "seedNum": 5, "entrant": {"id": 20725304, "name": "EISEN", "participants": [{"id": 19073787, "gamerTag": "EISEN", "prefix": "", "user": {"location": {"city": null, "state": null, "country": "United States"}}, "player": {"id": 3483274, "gamerTag": "EISEN", "prefix": "", "user": {"location": {"city": null, "state": null, "country": "United States"}}}}]}}, {"id": 35552114, "seedNum": 3, "entrant": {"id": 20589947, "name": "FNG | BEANMAN", "participants": [{"id": 18956518, "gamerTag": "BEANMAN", "prefix": "FNG", "user": {"location": {"city": null, "state": null, "country": "United States"}}, "player": {"id": 3024601, "gamerTag": "BEANMAN", "prefix": "FNG", "user": {"location": {"city": null, "state": null, "country": "United States"}}}}]}}, {"id": 35632544, "seedNum": 4, "entrant": {"id": 20631494, "name": "FNG | I hate Krool", "participants": [{"id": 18992495, "gamerTag": "I hate Krool", "prefix": "FNG", "user": {"location": {"city": "Macon", "state": "GA", "country": "United States"}}, "player": {"id": 3328447, "gamerTag": "I hate Krool", "prefix": "FNG", "user": {"location": {"city": "Macon", "state": "GA", "country": "United States"}}}}]}}, {"id": 35537390, "seedNum": 1, "entrant": {"id": 20580565, "name": "FNG | SHB", "participants": [{"id": 18947963, "gamerTag": "SHB", "prefix": "FNG", "user": {"location": {"city": null, "state": null, "country": "United States"}}, "player": {"id": 3194253, "gamerTag": "SHB", "prefix": "FNG", "user": {"location": {"city": null, "state": null, "country": "United States"}}}}]}}, {"id": 35873944, "seedNum": 7, "entrant": {"id": 20788867, "name": "Typo | Slack", "participants": [{"id": 19132327, "gamerTag": "Slack", "prefix": "Typo", "user": {"location": {"city": "warner robins", "state": "GA", "country": "United States"}}, "player": {"id": 940533, "gamerTag": "Slack", "prefix": "Typo", "user": {"location": {"city": "warner robins", "state": "GA", "country": "United States"}}}}]}}, {"id": 35870431, "seedNum": 6, "entrant": {"id": 20786470, "name": "forvr | forevertrent", "participants": [{"id": 19130018, "gamerTag": "forevertrent", "prefix": "forvr", "user": {"location": {"city": "Macon", "state": "GA", "country": "United States"}}, "player": {"id": 4276309, "gamerTag": "forevertrent", "prefix": "forvr", "user": {"location": {"city": "Macon", "state": "GA", "country": "United States"}}}}]}}]}}}