{"event": {"sets": {"pageInfo": {"totalPages": 3, "total": 41}, "nodes": [{"id": 92756244, "state": 3, "round": 2, "fullRoundText": "Winners Round 2", "completedAt": 1755386348, "winnerId": 20944180, "slots": [{"id": "92756244-0", "entrant": {"id": 20958572, "name": "LOL!", "participants": [{"id": 19281775, "gamerTag": "LOL!", "prefix": null, "user": {"location": {"city": "Byron", "state": "GA", "country": "United States"}}, "player": {"id": 730420, "gamerTag": "LOL!", "prefix": "HJE", "user": {"location": {"city": "Byron", "state": "GA", "country": "United States"}}}}]}, "standing": {"placement": 2, "stats": {"score": {"value": 1}}}}, {"id": "92756244-1", "entrant": {"id": 20944180, "name": "Gorduri Cap", "participants": [{"id": 19269483, "gamerTag": "Gorduri Cap", "prefix": "", "user": {"location": {"city": "", "state": "AK", "country": "United States"}}, "player": {"id": 2068683, "gamerTag": "Spauldo", "prefix": "", "user": {"location": {"city": "", "state": "AK", "country": "United States"}}}}]}, "standing": {"placement": 1, "stats": {"score": {"value": 2}}}}], "games": null}, {"id": 92756300, "state": 3, "round": -4, "fullRoundText": "Losers Round 1", "completedAt": 1755386441, "winnerId": 20976516, "slots": [{"id": "92756300-0", "entrant": {"id": 20976516, "name": "Area_478 | BigBoss_DP", "participants": [{"id": 19297563, "gamerTag": "BigBoss_DP", "prefix": "Area_478", "user": {"location": {"city": "Macon", "state": "GA", "country": "United States"}}, "player": {"id": 146751, "gamerTag": "BigBoss_DP", "prefix": "Area_478", "user": {"location": {"city": "Macon", "state": "GA", "country": "United States"}}}}]}, "standing": {"placement": 1, "stats": {"score": {"value": 2}}}}, {"id": "92756300-1", "entrant": {"id": 20942794, "name": "SE UNI | Shuri", "participants": [{"id": 19268251, "gamerTag": "Shuri", "prefix": "SE UNI", "user": {"location": {"city": "Bonaire", "state": "GA", "country": "United States"}}, "player": {"id": 183894, "gamerTag": "Shuri", "prefix": "SE UNI", "user": {"location": {"city": "Bonaire", "state": "GA", "country": "United States"}}}}]}, "standing": {"placement": 2, "stats": {"score": {"value": 0}}}}], "games": null}, {"id": 92756294, "state": 3, "round": -4, "fullRoundText": "Losers Round 1", "completedAt": 1755387204, "winnerId": 20958572, "slots": [{"id": "92756294-0", "entrant": {"id": 20958572, "name": "LOL!", "participants": [{"id": 19281775, "gamerTag": "LOL!", "prefix": null, "user": {"location": {"city": "Byron", "state": "GA", "country": "United States"}}, "player": {"id": 730420, "gamerTag": "LOL!", "prefix": "HJE", "user": {"location": {"city": "Byron", "state": "GA", "country": "United States"}}}}]}, "standing": {"placement": 1, "stats": {"score": {"value": 2}}}}, {"id": "92756294-1", "entrant": {"id": 20961734, "name": "MGA | Hoodlum1012", "participants": [{"id": 19284478, "gamerTag": "Hoodlum1012", "prefix": "MGA", "user": {"location": {"city": "Macon", "state": "GA", "country": "United States"}}, "player": {"id": 855502, "gamerTag": "Hoodlum1012", "prefix": "MGA", "user": {"location": {"city": "Macon", "state": "GA", "country": "United States"}}}}]}, "standing": {"placement": 2, "stats": {"score": {"value": 0}}}}], "games": null}, {"id": 92756296, "state": 3, "round": -4, "fullRoundText": "Losers Round 1", "completedAt": 1755386011, "winnerId": 20980869, "slots": [{"id": "92756296-0", "entrant": {"id": 20980869, "name": "Amras", "participants": [{"id": 19301466, "gamerTag": "Amras", "prefix": null, "user": {"location": {"city": "Covington", "state": "GA", "country": "United States"}}, "player": {"id": 3712610, "gamerTag": "Amras", "prefix": null, "user": {"location": {"city": "Covington", "state": "GA", "country": "United States"}}}}]}, "standing": {"placement": 1, "stats": {"score": {"value": 2}}}}, {"id": "92756296-1", "entrant": {"id": 20987620, "name": "C A F E", "participants": [{"id": 19306842, "gamerTag": "C A F E", "prefix": "", "user": {"location": {"city": "Macon", "state": "GA", "country": "United States"}}, "player": {"id": 4926755, "gamerTag": "C A F E", "prefix": "", "user": {"location": {"city": "Macon", "state": "GA", "country": "United States"}}}}]}, "standing": {"placement": 2, "stats": {"score": {"value": 0}}}}], "games": null}, {"id": 92756297, "state": 3, "round": -4, "fullRoundText": "Losers Round 1", "completedAt": 1755386479, "winnerId": 20947550, "slots": [{"id": "92756297-0", "entrant": {"id": 20943953, "name": "ATLRiot", "participants": [{"id": 19269312, "gamerTag": "ATLRiot", "prefix": "", "user": {"location": {"city": "Augusta", "state": "GA", "country": "United States"}}, "player": {"id": 2057913, "gamerTag": "ATLRiot", "prefix": "", "user": {"location": {"city": "Augusta", "state": "GA", "country": "United States"}}}}]}, "standing": {"placement": 2, "stats": {"score": {"value": 0}}}}, {"id": "92756297-1", "entrant": {"id": 20947550, "name": "Foam Root", "participants": [{"id": 19272375, "gamerTag": "Foam Root", "prefix": "", "user": {"location": {"city": "Covington", "state": "GA", "country": "United States"}}, "player": {"id": 541222, "gamerTag": "Foam Root", "prefix": "", "user": {"location": {"city": "Covington", "state": "GA", "country": "United States"}}}}]}, "standing": {"placement": 1, "stats": {"score": {"value": 2}}}}], "games": null}, {"id": 92756298, "state": 3, "round": -4, "fullRoundText": "Losers Round 1", "completedAt": 1755386582, "winnerId": 20986394, "slots": [{"id": "92756298-0", "entrant": {"id": 20986394, "name": "TGS | Dattebane", "participants": [{"id": 19305796, "gamerTag": "Dattebane", "prefix": "TGS", "user": {"location": {"city": "McDonough", "state": "GA", "country": "United States"}}, "player": {"id": 1524545, "gamerTag": "Dattebane", "prefix": "TGS", "user": {"location": {"city": "McDonough", "state": "GA", "country": "United States"}}}}]}, "standing": {"placement": 1, "stats": {"score": {"value": 2}}}}, {"id": "92756298-1", "entrant": {"id": 20985537, "name": "visc", "participants": [{"id": 19305078, "gamerTag": "visc", "prefix": null, "user": {"location": {"city": "Macon", "state": "GA", "country": "United States"}}, "player": {"id": 3662491, "gamerTag": "visc", "prefix": null, "user": {"location": {"city": "Macon", "state": "GA", "country": "United States"}}}}]}, "standing": {"placement": 2, "stats": {"score": {"value": 0}}}}], "games": null}, {"id": 92756222, "state": 3, "round": 1, "fullRoundText": "Winners Round 1", "completedAt": 1755384242, "winnerId": 20920899, "slots": [{"id": "92756222-0", "entrant": {"id": 20920899, "name": "JSH3LLZ", "participants": [{"id": 19248764, "gamerTag": "JSH3LLZ", "prefix": null, "user": {"location": {"city": "atlanta", "state": "GA", "country": "United States"}}, "player": {"id": 1379919, "gamerTag": "JSH3LLZ", "prefix": null, "user": {"location": {"city": "atlanta", "state": "GA", "country": "United States"}}}}]}, "standing": {"placement": 1, "stats": {"score": {"value": 2}}}}, {"id": "92756222-1", "entrant": {"id": 20961734, "name": "MGA | Hoodlum1012", "participants": [{"id": 19284478, "gamerTag": "Hoodlum1012", "prefix": "MGA", "user": {"location": {"city": "Macon", "state": "GA", "country": "United States"}}, "player": {"id": 855502, "gamerTag": "Hoodlum1012", "prefix": "MGA", "user": {"location": {"city": "Macon", "state": "GA", "country": "United States"}}}}]}, "standing": {"placement": 2, "stats": {"score": {"value": 0}}}}], "games": null}, {"id": 92756226, "state": 3, "round": 1, "fullRoundText": "Winners Round 1", "completedAt": 1755384278, "winnerId": 20982755, "slots": [{"id": "92756226-0", "entrant": {"id": 20982755, "name": "Evernight", "participants": [{"id": 19302967, "gamerTag": "Evernight", "prefix": null, "user": {"location": {"city": "Macon", "state": "GA", "country": "United States"}}, "player": {"id": 548064, "gamerTag": "Evernight", "prefix": null, "user": {"location": {"city": "Macon", "state": "GA", "country": "United States"}}}}]}, "standing": {"placement": 1, "stats": {"score": {"value": 2}}}}, {"id": "92756226-1", "entrant": {"id": 20987620, "name": "C A F E", "participants": [{"id": 19306842, "gamerTag": "C A F E", "prefix": "", "user": {"location": {"city": "Macon", "state": "GA", "country": "United States"}}, "player": {"id": 4926755, "gamerTag": "C A F E", "prefix": "", "user": {"location": {"city": "Macon", "state": "GA", "country": "United States"}}}}]}, "standing": {"placement": 2, "stats": {"score": {"value": 0}}}}], "games": null}, {"id": 92756228, "state": 3, "round": 1, "fullRoundText": "Winners Round 1", "completedAt": 1755384271, "winnerId": 20978036, "slots": [{"id": "92756228-0", "entrant": {"id": 20947550, "name": "Foam Root", "participants": [{"id": 19272375, "gamerTag": "Foam Root", "prefix": "", "user": {"location": {"city": "Covington", "state": "GA", "country": "United States"}}, "player": {"id": 541222, "gamerTag": "Foam Root", "prefix": "", "user": {"location": {"city": "Covington", "state": "GA", "country": "United States"}}}}]}, "standing": {"placement": 2, "stats": {"score": {"value": 1}}}}, {"id": "92756228-1", "entrant": {"id": 20978036, "name": "REDD", "participants": [{"id": 19298964, "gamerTag": "REDD", "prefix": "", "user": {"location": {"city": "Valdosta", "state": "GA", "country": "United States"}}, "player": {"id": 1305309, "gamerTag": "REDD", "prefix": "", "user": {"location": {"city": "Valdosta", "state": "GA", "country": "United States"}}}}]}, "standing": {"placement": 1, "stats": {"score": {"value": 2}}}}], "games": null}, {"id": 92756230, "state": 3, "round": 1, "fullRoundText": "Winners Round 1", "completedAt": 1755385518, "winnerId": 20943953, "slots": [{"id": "92756230-0", "entrant": {"id": 20943953, "name": "ATLRiot", "participants": [{"id": 19269312, "gamerTag": "ATLRiot", "prefix": "", "user": {"location": {"city": "Augusta", "state": "GA", "country": "United States"}}, "player": {"id": 2057913, "gamerTag": "ATLRiot", "prefix": "", "user": {"location": {"city": "Augusta", "state": "GA", "country": "United States"}}}}]}, "standing": {"placement": 1, "stats": {"score": {"value": 2}}}}, {"id": "92756230-1", "entrant": {"id": 20985537, "name": "visc", "participants": [{"id": 19305078, "gamerTag": "visc", "prefix": null, "user": {"location": {"city": "Macon", "state": "GA", "country": "United States"}}, "player": {"id": 3662491, "gamerTag": "visc", "prefix": null, "user": {"location": {"city": "Macon", "state": "GA", "country": "United States"}}}}]}, "standing": {"placement": 2, "stats": {"score": {"value": 0}}}}], "games": null}, {"id": 92756234, "state": 3, "round": 1, "fullRoundText": "Winners Round 1", "completedAt": 1755385365, "winnerId": 20878606, "slots": [{"id": "92756234-0", "entrant": {"id": 20942794, "name": "SE UNI | Shuri", "participants": [{"id": 19268251, "gamerTag": "Shuri", "prefix": "SE UNI", "user": {"location": {"city": "Bonaire", "state": "GA", "country": "United States"}}, "player": {"id": 183894, "gamerTag": "Shuri", "prefix": "SE UNI", "user": {"location": {"city": "Bonaire", "state": "GA", "country": "United States"}}}}]}, "standing": {"placement": 2, "stats": {"score": {"value": 0}}}}, {"id": "92756234-1", "entrant": {"id": 20878606, "name": "JazzMo", "participants": [{"id": 19211372, "gamerTag": "JazzMo", "prefix": null, "user": {"location": {"city": "Macon", "state": "GA", "country": "United States"}}, "player": {"id": 2369252, "gamerTag": "JazzMo", "prefix": null, "user": {"location": {"city": "Macon", "state": "GA", "country": "United States"}}}}]}, "standing": {"placement": 1, "stats": {"score": {"value": 2}}}}], "games": null}]}}}