{"phase": {"seeds": {"pageInfo": {"totalPages": 2, "total": 51}, "nodes": [{"id": 36356911, "seedNum": 2, "entrant": {"id": 21091492, "name": "Hell Mode | ROB Slayer", "participants": [{"id": 19400829, "gamerTag": "ROB Slayer", "prefix": "Hell Mode", "user": {"location": {"city": "Atlanta", "state": "GA", "country": "United States"}}, "player": {"id": 2414381, "gamerTag": "ROB Slayer", "prefix": "Hell Mode", "user": {"location": {"city": "Atlanta", "state": "GA", "country": "United States"}}}}]}}, {"id": 35778813, "seedNum": 3, "entrant": {"id": 20734707, "name": "Ave~", "participants": [{"id": 19081749, "gamerTag": "Ave~", "prefix": null, "user": {"location": {"city": null, "state": null, "country": null}}, "player": {"id": 38830, "gamerTag": "Ave~", "prefix": "", "user": {"location": {"city": null, "state": null, "country": null}}}}]}}, {"id": 36291805, "seedNum": 4, "entrant": {"id": 21047863, "name": "PH | Nimbus", "participants": [{"id": 19361535, "gamerTag": "Nimbus", "prefix": "PH", "user": {"location": {"city": "Roswell", "state": "GA", "country": "United States"}}, "player": {"id": 36462, "gamerTag": "Nimbus", "prefix": "PH", "user": {"location": {"city": "Roswell", "state": "GA", "country": "United States"}}}}]}}, {"id": 36360661, "seedNum": 5, "entrant": {"id": 21094406, "name": "pristinetao", "participants": [{"id": 19403485, "gamerTag": "pristinetao", "prefix": "", "user": {"location": {"city": null, "state": null, "country": null}}, "player": {"id": 2721225, "gamerTag": "pristinetao", "prefix": "", "user": {"location": {"city": null, "state": null, "country": null}}}}]}}, {"id": 36368497, "seedNum": 6, "entrant": {"id": 21098320, "name": "KRU | CarbonCopies", "participants": [{"id": 19406775, "gamerTag": "CarbonCopies", "prefix": "KRU", "user": {"location": {"city": "Denver", "state": "CO", "country": "United States"}}, "player": {"id": 521097, "gamerTag": "CarbonCopies", "prefix": "KRU", "user": {"location": {"city": "Denver", "state": "CO", "country": "United States"}}}}]}}, {"id": 36319780, "seedNum": 7, "entrant": {"id": 21067634, "name": "Giizus", "participants": [{"id": 19379149, "gamerTag": "Giizus", "prefix": "", "user": {"location": {"city": "Spring City", "state": null, "country": "United States"}}, "player": {"id": 922274, "gamerTag": "Giizus", "prefix": "", "user": {"location": {"city": "Spring City", "state": null, "country": "United States"}}}}]}}, {"id": 36407795, "seedNum": 9, "entrant": {"id": 21126107, "name": "Rain~", "participants": [{"id": 19431869, "gamerTag": "Rain~", "prefix": null, "user": {"location": {"city": "Atlanta", "state": "GA", "country": "United States"}}, "player": {"id": 4240164, "gamerTag": "Rain~", "prefix": null, "user": {"location": {"city": "Atlanta", "state": "GA", "country": "United States"}}}}]}}, {"id": 36372568, "seedNum": 17, "entrant": {"id": 21100706, "name": "Huggles", "participants": [{"id": 19409098, "gamerTag": "Huggles", "prefix": "", "user": {"location": {"city": "Irmo", "state": "SC", "country": "United States"}}, "player": {"id": 53024, "gamerTag": "Huggles", "prefix": "", "user": {"location": {"city": "Irmo", "state": "SC", "country": "United States"}}}}]}}, {"id": 36406292, "seedNum": 8, "entrant": {"id": 21125289, "name": "BigPlay", "participants": [{"id": 19431060, "gamerTag": "BigPlay", "prefix": "", "user": {"location": {"city": "Atlanta", "state": "GA", "country": "United States"}}, "player": {"id": 31308, "gamerTag": "BigPlay", "prefix": "", "user": {"location": {"city": "Atlanta", "state": "GA", "country": "United States"}}}}]}}, {"id": 36311529, "seedNum": 10, "entrant": {"id": 21062207, "name": "Frank", "participants": [{"id": 19374337, "gamerTag": "Frank", "prefix": null, "user": {"location": {"city": "Doraville", "state": "GA", "country": "United States"}}, "player": {"id": 1227401, "gamerTag": "Terry Labonte", "prefix": "TFT", "user": {"location": {"city": "Doraville", "state": "GA", "country": "United States"}}}}]}}, {"id": 36353791, "seedNum": 11, "entrant": {"id": 21088942, "name": "TFT | RoKu", "participants": [{"id": 19398449, "gamerTag": "RoKu", "prefix": "TFT", "user": {"location": {"city": "Peachtree Corners", "state": "GA", "country": "United States"}}, "player": {"id": 1107285, "gamerTag": "RoKu", "prefix": "TFT", "user": {"location": {"city": "Peachtree Corners", "state": "GA", "country": "United States"}}}}]}}, {"id": 36408689, "seedNum": 12, "entrant": {"id": 21126806, "name": "ToBeFrank | FF | SLAYlor Moon", "participants": [{"id": 19432500, "gamerTag": "SLAYlor Moon", "prefix": "ToBeFrank | FF", "user": {"location": {"city": "Atlanta", "state": "GA", "country": "United States"}}, "player": {"id": 267007, "gamerTag": "SLAYlor Moon", "prefix": "ToBeFrank | FF", "user": {"location": {"city": "Atlanta", "state": "GA", "country": "United States"}}}}]}}, {"id": 36401721, "seedNum": 13, "entrant": {"id": 21121856, "name": "RAMS | RussianJesus", "participants": [{"id": 19428046, "gamerTag": "RussianJesus", "prefix": "RAMS", "user": {"location": {"city": "Atlanta", "state": "GA", "country": "United States"}}, "player": {"id": 1140567, "gamerTag": "RussianJesus", "prefix": "RAMS", "user": {"location": {"city": "Atlanta", "state": "GA", "country": "United States"}}}}]}}, {"id": 36311298, "seedNum": 14, "entrant": {"id": 21062074, "name": "Jdaddy", "participants": [{"id": 19374212, "gamerTag": "Jdaddy", "prefix": null, "user": {"location": {"city": "Atlanta", "state": "GA", "country": "United States"}}, "player": {"id": 4384721, "gamerTag": "Jdaddy", "prefix": null, "user": {"location": {"city": "Atlanta", "state": "GA", "country": "United States"}}}}]}}, {"id": 36393622, "seedNum": 15, "entrant": {"id": 21116312, "name": "TnT | Sid", "participants": [{"id": 19423112, "gamerTag": "Sid", "prefix": "TnT", "user": {"location": {"city": "Powder Springs", "state": "GA", "country": "United States"}}, "player": {"id": 1229067, "gamerTag": "Sid", "prefix": "TnT", "user": {"location": {"city": "Powder Springs", "state": "GA", "country": "United States"}}}}]}}, {"id": 36333617, "seedNum": 20, "entrant": {"id": 21078191, "name": "Heart", "participants": [{"id": 19388853, "gamerTag": "Heart", "prefix": "", "user": {"location": {"city": "Atlanta", "state": "GA", "country": "United States"}}, "player": {"id": 4287822, "gamerTag": "Heart", "prefix": "", "user": {"location": {"city": "Atlanta", "state": "GA", "country": "United States"}}}}]}}, {"id": 36402149, "seedNum": 22, "entrant": {"id": 21122153, "name": "MTM | Bob Weiner", "participants": [{"id": 19428298, "gamerTag": "Bob Weiner", "prefix": "MTM", "user": {"location": {"city": "Kennesaw", "state": "GA", "country": "United States"}}, "player": {"id": 2142601, "gamerTag": "Bob Weiner", "prefix": "MTM", "user": {"location": {"city": "Kennesaw", "state": "GA", "country": "United States"}}}}]}}, {"id": 36410860, "seedNum": 23, "entrant": {"id": 21128641, "name": "TFT | BigCheese", "participants": [{"id": 19434413, "gamerTag": "BigCheese", "prefix": "TFT", "user": {"location": {"city": null, "state": null, "country": null}}, "player": {"id": 3991446, "gamerTag": "BigCheese", "prefix": "TFT", "user": {"location": {"city": null, "state": null, "country": null}}}}]}}, {"id": 36408602, "seedNum": 24, "entrant": {"id": 21126747, "name": "Aaron", "participants": [{"id": 19432451, "gamerTag": "Aaron", "prefix": null, "user": {"location": {"city": "Lexington", "state": null, "country": null}}, "player": {"id": 448165, "gamerTag": "Aaron", "prefix": null, "user": {"location": {"city": "Lexington", "state": null, "country": null}}}}]}}, {"id": 36353127, "seedNum": 29, "entrant": {"id": 21088449, "name": "WeleX", "participants": [{"id": 19398013, "gamerTag": "WeleX", "prefix": null, "user": {"location": {"city": "Atlanta", "state": "GA", "country": "United States"}}, "player": {"id": 2894975, "gamerTag": "WeleX", "prefix": null, "user": {"location": {"city": "Atlanta", "state": "GA", "country": "United States"}}}}]}}, {"id": 35905489, "seedNum": 32, "entrant": {"id": 20808909, "name": "Chade | BonusOnus", "participants": [{"id": 19150135, "gamerTag": "BonusOnus", "prefix": "Chade", "user": {"location": {"city": "Detroit", "state": "MI", "country": "United States"}}, "player": {"id": 3656221, "gamerTag": "BonusOnus", "prefix": "Chade", "user": {"location": {"city": "Detroit", "state": "MI", "country": "United States"}}}}]}}, {"id": 36329162, "seedNum": 34, "entrant": {"id": 21074825, "name": "LUNAR.", "participants": [{"id": 19385730, "gamerTag": "LUNAR.", "prefix": null, "user": {"location": {"city": "Nashville", "state": "TN", "country": "United States"}}, "player": {"id": 2708713, "gamerTag": "LUNAR.", "prefix": null, "user": {"location": {"city": "Nashville", "state": "TN", "country": "United States"}}}}]}}, {"id": 36266723, "seedNum": 40, "entrant": {"id": 21030363, "name": "w3155", "participants": [{"id": 19345540, "gamerTag": "w3155", "prefix": "", "user": {"location": {"city": "Flowery Branch", "state": "GA", "country": "United States"}}, "player": {"id": 3556938, "gamerTag": "w3155", "prefix": "", "user": {"location": {"city": "Flowery Branch", "state": "GA", "country": "United States"}}}}]}}, {"id": 36341853, "seedNum": 46, "entrant": {"id": 21083439, "name": "Fe | Atomic", "participants": [{"id": 19393668, "gamerTag": "Atomic", "prefix": "Fe", "user": {"location": {"city": "Atlanta", "state": "GA", "country": "United States"}}, "player": {"id": 1809403, "gamerTag": "Atomic", "prefix": "Fe", "user": {"location": {"city": "Atlanta", "state": "GA", "country": "United States"}}}}]}}, {"id": 36370882, "seedNum": 25, "entrant": {"id": 21099538, "name": "JJ Hardy", "participants": [{"id": 19408044, "gamerTag": "JJ Hardy", "prefix": null, "user": {"location": {"city": "Windsor", "state": "CT", "country": "United States"}}, "player": {"id": 1825931, "gamerTag": "JJ Hardy", "prefix": "", "user": {"location": {"city": "Windsor", "state": "CT", "country": "United States"}}}}]}}, {"id": 36397975, "seedNum": 26, "entrant": {"id": 21119103, "name": "SirMelltheGreat", "participants": [{"id": 19425677, "gamerTag": "SirMelltheGreat", "prefix": "", "user": {"location": {"city": "Savannah", "state": "GA", "country": "United States"}}, "player": {"id": 3603872, "gamerTag": "SirMelltheGreat", "prefix": "", "user": {"location": {"city": "Savannah", "state": "GA", "country": "United States"}}}}]}}, {"id": 36206448, "seedNum": 28, "entrant": {"id": 20992611, "name": "Par-i-dot Alpha", "participants": [{"id": 19311138, "gamerTag": "Par-i-dot Alpha", "prefix": "", "user": {"location": {"city": "Lithoina", "state": "GA", "country": "United States"}}, "player": {"id": 36418, "gamerTag": "Avalon", "prefix": "", "user": {"location": {"city": "Lithoina", "state": "GA", "country": "United States"}}}}]}}, {"id": 36376076, "seedNum": 35, "entrant": {"id": 21103454, "name": "Tilted", "participants": [{"id": 19411689, "gamerTag": "Tilted", "prefix": null, "user": {"location": {"city": "Norcross", "state": "GA", "country": "United States"}}, "player": {"id": 2377635, "gamerTag": "Tilted", "prefix": null, "user": {"location": {"city": "Norcross", "state": "GA", "country": "United States"}}}}]}}, {"id": 36308114, "seedNum": 36, "entrant": {"id": 21059693, "name": "Bitazeee", "participants": [{"id": 19371927, "gamerTag": "Bitazeee", "prefix": null, "user": {"location": {"city": "Charlotte", "state": "NC", "country": "United States"}}, "player": {"id": 3817099, "gamerTag": "Bitazeee", "prefix": null, "user": {"location": {"city": "Charlotte", "state": "NC", "country": "United States"}}}}]}}, {"id": 36295880, "seedNum": 41, "entrant": {"id": 21050482, "name": "Vincenzo", "participants": [{"id": 19363924, "gamerTag": "Vincenzo", "prefix": "", "user": {"location": {"city": "Raleigh", "state": "NC", "country": "United States"}}, "player": {"id": 4381443, "gamerTag": "SirBacon", "prefix": null, "user": {"location": {"city": "Raleigh", "state": "NC", "country": "United States"}}}}]}}, {"id": 36376888, "seedNum": 50, "entrant": {"id": 21104042, "name": "Chromaticblue28", "participants": [{"id": 19412220, "gamerTag": "Chromaticblue28", "prefix": null, "user": {"location": {"city": null, "state": null, "country": null}}, "player": {"id": 3607653, "gamerTag": "Chromaticblue28", "prefix": null, "user": {"location": {"city": null, "state": null, "country": null}}}}]}}, {"id": 36409169, "seedNum": 51, "entrant": {"id": 21127162, "name": "BeigeMage", "participants": [{"id": 19432878, "gamerTag": "BeigeMage", "prefix": "", "user": {"location": {"city": "Savannah", "state": "GA", "country": "United States"}}, "player": {"id": 4949517, "gamerTag": "BeigeMage", "prefix": "", "user": {"location": {"city": "Savannah", "state": "GA", "country": "United States"}}}}]}}, {"id": 36406986, "seedNum": 1, "entrant": {"id": 21125645, "name": "DTN | Jahzz0", "participants": [{"id": 19431401, "gamerTag": "Jahzz0", "prefix": "DTN", "user": {"location": {"city": null, "state": null, "country": "United States"}}, "player": {"id": 946548, "gamerTag": "Jahzz0", "prefix": "DTN", "user": {"location": {"city": null, "state": null, "country": "United States"}}}}]}}, {"id": 36336266, "seedNum": 16, "entrant": {"id": 21080045, "name": "Damp\u00e9", "participants": [{"id": 19390581, "gamerTag": "Damp\u00e9", "prefix": null, "user": {"location": {"city": "Atlanta", "state": "GA", "country": "United States"}}, "player": {"id": 1170738, "gamerTag": "Damp\u00e9", "prefix": "TnT", "user": {"location": {"city": "Atlanta", "state": "GA", "country": "United States"}}}}]}}, {"id": 36391988, "seedNum": 18, "entrant": {"id": 21115111, "name": "Crimson", "participants": [{"id": 19422115, "gamerTag": "Crimson", "prefix": null, "user": {"location": {"city": "Peoria", "state": "AZ", "country": "United States"}}, "player": {"id": 4533084, "gamerTag": "Crimson", "prefix": "", "user": {"location": {"city": "Peoria", "state": "AZ", "country": "United States"}}}}]}}, {"id": 36320420, "seedNum": 21, "entrant": {"id": 21068091, "name": "RAMS | Bragmuffin", "participants": [{"id": 19379661, "gamerTag": "Bragmuffin", "prefix": "RAMS", "user": {"location": {"city": "Alpharetta", "state": "GA", "country": "United States"}}, "player": {"id": 2354073, "gamerTag": "Bragmuffin", "prefix": "RAMS", "user": {"location": {"city": "Alpharetta", "state": "GA", "country": "United States"}}}}]}}, {"id": 36377225, "seedNum": 27, "entrant": {"id": 21104272, "name": "SaggyMilkJug", "participants": [{"id": 19412425, "gamerTag": "SaggyMilkJug", "prefix": "", "user": {"location": {"city": "Atlanta", "state": "GA", "country": "United States"}}, "player": {"id": 4651404, "gamerTag": "SaggyMilkJug", "prefix": "", "user": {"location": {"city": "Atlanta", "state": "GA", "country": "United States"}}}}]}}, {"id": 36311708, "seedNum": 30, "entrant": {"id": 21062348, "name": "Turquoise", "participants": [{"id": 19374452, "gamerTag": "Turquoise", "prefix": "", "user": {"location": {"city": "Matthews", "state": "NC", "country": "United States"}}, "player": {"id": 49856, "gamerTag": "Turquoise", "prefix": "", "user": {"location": {"city": "Matthews", "state": "NC", "country": "United States"}}}}]}}, {"id": 36400142, "seedNum": 31, "entrant": {"id": 21120930, "name": "Lupo", "participants": [{"id": 19426471, "gamerTag": "Lupo", "prefix": "", "user": {"location": {"city": null, "state": null, "country": null}}, "player": {"id": 3848849, "gamerTag": "Lupo", "prefix": "", "user": {"location": {"city": null, "state": null, "country": null}}}}]}}, {"id": 36315854, "seedNum": 33, "entrant": {"id": 21065322, "name": "TG | Cleppey", "participants": [{"id": 19376983, "gamerTag": "Cleppey", "prefix": "TG", "user": {"location": {"city": "San diego", "state": "CA", "country": "United States"}}, "player": {"id": 1132464, "gamerTag": "Cleppey", "prefix": "TG", "user": {"location": {"city": "San diego", "state": "CA", "country": "United States"}}}}]}}, {"id": 36396810, "seedNum": 37, "entrant": {"id": 21118207, "name": "6thRaikage", "participants": [{"id": 19424815, "gamerTag": "6thRaikage", "prefix": "", "user": {"location": {"city": "Stone mountain", "state": null, "country": "South Korea"}}, "player": {"id": 1290793, "gamerTag": "6thRaikage", "prefix": "", "user": {"location": {"city": "Stone mountain", "state": null, "country": "South Korea"}}}}]}}, {"id": 36373230, "seedNum": 38, "entrant": {"id": 21101150, "name": "GOONER | VolarIRL", "participants": [{"id": 19409518, "gamerTag": "VolarIRL", "prefix": "GOONER", "user": {"location": {"city": "Atlanta/Marietta", "state": "GA", "country": "United States"}}, "player": {"id": 2998706, "gamerTag": "VolarIRL", "prefix": "GOONER", "user": {"location": {"city": "Atlanta/Marietta", "state": "GA", "country": "United States"}}}}]}}, {"id": 36191711, "seedNum": 39, "entrant": {"id": 20983084, "name": "Swaggin Waggon", "participants": [{"id": 19303225, "gamerTag": "Swaggin Waggon", "prefix": "", "user": {"location": {"city": "Bay City", "state": "TX", "country": "United States"}}, "player": {"id": 833326, "gamerTag": "Swaggin Waggon", "prefix": "", "user": {"location": {"city": "Bay City", "state": "TX", "country": "United States"}}}}]}}, {"id": 36262838, "seedNum": 42, "entrant": {"id": 21028219, "name": "The_Editors", "participants": [{"id": 19343550, "gamerTag": "The_Editors", "prefix": null, "user": {"location": {"city": "Albertville", "state": "AL", "country": "United States"}}, "player": {"id": 3796522, "gamerTag": "The_Editors", "prefix": null, "user": {"location": {"city": "Albertville", "state": "AL", "country": "United States"}}}}]}}, {"id": 36225112, "seedNum": 43, "entrant": {"id": 21005112, "name": "Reco", "participants": [{"id": 19322769, "gamerTag": "Reco", "prefix": null, "user": {"location": {"city": "Atlanta", "state": "GA", "country": "United States"}}, "player": {"id": 4343297, "gamerTag": "Reco", "prefix": null, "user": {"location": {"city": "Atlanta", "state": "GA", "country": "United States"}}}}]}}, {"id": 36262832, "seedNum": 44, "entrant": {"id": 21028213, "name": "Greenflaming0", "participants": [{"id": 19343543, "gamerTag": "Greenflaming0", "prefix": null, "user": {"location": {"city": "marietta", "state": "GA", "country": "United States"}}, "player": {"id": 4932878, "gamerTag": "Greenflaming0", "prefix": null, "user": {"location": {"city": "marietta", "state": "GA", "country": "United States"}}}}]}}, {"id": 36313991, "seedNum": 45, "entrant": {"id": 21063950, "name": "TheACwarriors", "participants": [{"id": 19375816, "gamerTag": "TheACwarriors", "prefix": null, "user": {"location": {"city": "Charlotte", "state": "NC", "country": "United States"}}, "player": {"id": 4939011, "gamerTag": "TheACwarriors", "prefix": null, "user": {"location": {"city": "Charlotte", "state": "NC", "country": "United States"}}}}]}}, {"id": 36354052, "seedNum": 48, "entrant": {"id": 21089141, "name": "sol.onion", "participants": [{"id": 19398634, "gamerTag": "sol.onion", "prefix": "", "user": {"location": {"city": "Stamford", "state": "CT", "country": "United States"}}, "player": {"id": 4943274, "gamerTag": "sol.onion", "prefix": "", "user": {"location": {"city": "Stamford", "state": "CT", "country": "United States"}}}}]}}, {"id": 36305666, "seedNum": 19, "entrant": {"id": 21057962, "name": "MAJOR | Goob", "participants": [{"id": 19370452, "gamerTag": "Goob", "prefix": "MAJOR", "user": {"location": {"city": "Redmond", "state": "WA", "country": "United States"}}, "player": {"id": 68099, "gamerTag": "Goob", "prefix": "MAJOR", "user": {"location": {"city": "Redmond", "state": "WA", "country": "United States"}}}}]}}, {"id": 36344839, "seedNum": 47, "entrant": {"id": 21085986, "name": "too cute", "participants": [{"id": 19395783, "gamerTag": "too cute", "prefix": "", "user": {"location": {"city": "Atlanta", "state": "GA", "country": "United States"}}, "player": {"id": 4942794, "gamerTag": "too cute", "prefix": "", "user": {"location": {"city": "Atlanta", "state": "GA", "country": "United States"}}}}]}}]}}}