{"phase": {"seeds": {"pageInfo": {"totalPages": 1, "total": 4}, "nodes": [{"id": 36998263, "seedNum": 3, "entrant": {"id": 21533984, "name": "Jayy", "participants": [{"id": 19787301, "gamerTag": "Jayy", "prefix": "", "user": {"location": {"city": "Pooler", "state": "GA", "country": "United States"}}, "player": {"id": 3238431, "gamerTag": "Jayy", "prefix": "", "user": {"location": {"city": "Pooler", "state": "GA", "country": "United States"}}}}]}}, {"id": 36999048, "seedNum": 1, "entrant": {"id": 21534601, "name": "Aloe", "participants": [{"id": 19787842, "gamerTag": "Aloe", "prefix": null, "user": {"location": {"city": "Savannah", "state": "WI", "country": "United States"}}, "player": {"id": 2656903, "gamerTag": "Aloe", "prefix": null, "user": {"location": {"city": "Savannah", "state": "WI", "country": "United States"}}}}]}}, {"id": 36999974, "seedNum": 4, "entrant": {"id": 21535278, "name": "SQ1 | Luff", "participants": [{"id": 19788433, "gamerTag": "Luff", "prefix": "SQ1", "user": {"location": {"city": "Savannah", "state": "GA", "country": "United States"}}, "player": {"id": 4102348, "gamerTag": "Luff", "prefix": "SQ1", "user": {"location": {"city": "Savannah", "state": "GA", "country": "United States"}}}}]}}, {"id": 36999778, "seedNum": 2, "entrant": {"id": 21535110, "name": "Armor Jeff", "participants": [{"id": 19788291, "gamerTag": "Armor Jeff", "prefix": "", "user": {"location": {"city": "Savannah", "state": "GA", "country": "United States"}}, "player": {"id": 3937751, "gamerTag": "Armor Jeff", "prefix": "", "user": {"location": {"city": "Savannah", "state": "GA", "country": "United States"}}}}]}}]}}}