{"phase": {"seeds": {"pageInfo": {"totalPages": 1, "total": 32}, "nodes": [{"id": 35708661, "seedNum": 1, "entrant": {"id": 20685453, "name": "Panko", "participants": [{"id": 19038692, "gamerTag": "Panko", "prefix": null, "user": {"location": {"city": "Atlanta", "state": "GA", "country": "United States"}}, "player": {"id": 241093, "gamerTag": "Panko", "prefix": null, "user": {"location": {"city": "Atlanta", "state": "GA", "country": "United States"}}}}]}}, {"id": 35712516, "seedNum": 6, "entrant": {"id": 20687975, "name": "vivesthesia", "participants": [{"id": 19041043, "gamerTag": "vivesthesia", "prefix": null, "user": {"location": {"city": "Atlanta", "state": "GA", "country": "United States"}}, "player": {"id": 4395171, "gamerTag": "vivesthesia", "prefix": null, "user": {"location": {"city": "Atlanta", "state": "GA", "country": "United States"}}}}]}}, {"id": 35708383, "seedNum": 4, "entrant": {"id": 20685388, "name": "audrey", "participants": [{"id": 19038632, "gamerTag": "audrey", "prefix": null, "user": {"location": {"city": "Dunwoody", "state": "GA", "country": "United States"}}, "player": {"id": 1335864, "gamerTag": "audrey", "prefix": null, "user": {"location": {"city": "Dunwoody", "state": "GA", "country": "United States"}}}}]}}, {"id": 35718870, "seedNum": 5, "entrant": {"id": 20692683, "name": "skyguy | bag", "participants": [{"id": 19045414, "gamerTag": "bag", "prefix": "skyguy", "user": {"location": {"city": "Atlanta", "state": "GA", "country": "United States"}}, "player": {"id": 271346, "gamerTag": "bag", "prefix": "skyguy", "user": {"location": {"city": "Atlanta", "state": "GA", "country": "United States"}}}}]}}, {"id": 35717337, "seedNum": 2, "entrant": {"id": 20691596, "name": "Ryan Ford", "participants": [{"id": 19044480, "gamerTag": "Ryan Ford", "prefix": "", "user": {"location": {"city": "Toronto", "state": "ON", "country": "Canada"}}, "player": {"id": 4111, "gamerTag": "Ryan Ford", "prefix": "", "user": {"location": {"city": "Toronto", "state": "ON", "country": "Canada"}}}}]}}, {"id": 35708810, "seedNum": 3, "entrant": {"id": 20685561, "name": "skyguy | Chris Danger", "participants": [{"id": 19038788, "gamerTag": "Chris Danger", "prefix": "skyguy", "user": {"location": {"city": "Atlanta", "state": "GA", "country": "United States"}}, "player": {"id": 2808268, "gamerTag": "Chris Danger", "prefix": "skyguy", "user": {"location": {"city": "Atlanta", "state": "GA", "country": "United States"}}}}]}}, {"id": 35711156, "seedNum": 7, "entrant": {"id": 20686985, "name": "Erika Bonchiko", "participants": [{"id": 19040098, "gamerTag": "Erika Bonchiko", "prefix": null, "user": {"location": {"city": "Atlanta", "state": "GA", "country": "United States"}}, "player": {"id": 16360, "gamerTag": "Erika Bonchiko", "prefix": null, "user": {"location": {"city": "Atlanta", "state": "GA", "country": "United States"}}}}]}}, {"id": 35708308, "seedNum": 8, "entrant": {"id": 20685338, "name": "Tipped Off | GAwes", "participants": [{"id": 19038612, "gamerTag": "GAwes", "prefix": "Tipped Off", "user": {"location": {"city": "Decatur", "state": "GA", "country": "United States"}}, "player": {"id": 19690, "gamerTag": "GAwes", "prefix": "Tipped Off", "user": {"location": {"city": "Decatur", "state": "GA", "country": "United States"}}}}]}}, {"id": 35708717, "seedNum": 9, "entrant": {"id": 20685475, "name": "Wolven", "participants": [{"id": 19038707, "gamerTag": "Wolven", "prefix": null, "user": {"location": {"city": "Atlanta", "state": "GA", "country": "United States"}}, "player": {"id": 126978, "gamerTag": "Wolven", "prefix": null, "user": {"location": {"city": "Atlanta", "state": "GA", "country": "United States"}}}}]}}, {"id": 35718906, "seedNum": 10, "entrant": {"id": 20692719, "name": "What.", "participants": [{"id": 19045450, "gamerTag": "What.", "prefix": "", "user": {"location": {"city": "Duluth", "state": "GA", "country": "United States"}}, "player": {"id": 24727, "gamerTag": "What.", "prefix": "", "user": {"location": {"city": "Duluth", "state": "GA", "country": "United States"}}}}]}}, {"id": 35710319, "seedNum": 14, "entrant": {"id": 20686296, "name": "SKRUNT | diremaykr", "participants": [{"id": 19039436, "gamerTag": "diremaykr", "prefix": "SKRUNT", "user": {"location": {"city": "Buford", "state": "GA", "country": "United States"}}, "player": {"id": 3207366, "gamerTag": "diremaykr", "prefix": "", "user": {"location": {"city": "Buford", "state": "GA", "country": "United States"}}}}]}}, {"id": 35717057, "seedNum": 21, "entrant": {"id": 20691390, "name": "at", "participants": [{"id": 19044283, "gamerTag": "at", "prefix": "", "user": {"location": {"city": "", "state": "GA", "country": "United States"}}, "player": {"id": 35971, "gamerTag": "at", "prefix": "", "user": {"location": {"city": "", "state": "GA", "country": "United States"}}}}]}}, {"id": 35719064, "seedNum": 11, "entrant": {"id": 20692830, "name": "Bori", "participants": [{"id": 19045553, "gamerTag": "Bori", "prefix": null, "user": {"location": {"city": "Atlanta", "state": "GA", "country": "United States"}}, "player": {"id": 3126775, "gamerTag": "Bori", "prefix": null, "user": {"location": {"city": "Atlanta", "state": "GA", "country": "United States"}}}}]}}, {"id": 35715103, "seedNum": 12, "entrant": {"id": 20689806, "name": "cheeks", "participants": [{"id": 19042784, "gamerTag": "cheeks", "prefix": "", "user": {"location": {"city": "Greenville", "state": "SC", "country": "United States"}}, "player": {"id": 2168044, "gamerTag": "cheeks", "prefix": "", "user": {"location": {"city": "Greenville", "state": "SC", "country": "United States"}}}}]}}, {"id": 35718567, "seedNum": 13, "entrant": {"id": 20692438, "name": "Ronan", "participants": [{"id": 19045207, "gamerTag": "Ronan", "prefix": "", "user": {"location": {"city": "Atlanta", "state": "GA", "country": "United States"}}, "player": {"id": 147384, "gamerTag": "Ronan", "prefix": "", "user": {"location": {"city": "Atlanta", "state": "GA", "country": "United States"}}}}]}}, {"id": 35710958, "seedNum": 17, "entrant": {"id": 20686870, "name": "blaise", "participants": [{"id": 19039983, "gamerTag": "blaise", "prefix": "", "user": {"location": {"city": "douglasville", "state": "GA", "country": "United States"}}, "player": {"id": 1326121, "gamerTag": "blaise", "prefix": "", "user": {"location": {"city": "douglasville", "state": "GA", "country": "United States"}}}}]}}, {"id": 35718743, "seedNum": 15, "entrant": {"id": 20692595, "name": "Yello", "participants": [{"id": 19045344, "gamerTag": "Yello", "prefix": null, "user": {"location": {"city": "", "state": null, "country": "Japan"}}, "player": {"id": 64892, "gamerTag": "Yello", "prefix": null, "user": {"location": {"city": "", "state": null, "country": "Japan"}}}}]}}, {"id": 35715110, "seedNum": 16, "entrant": {"id": 20689814, "name": "Chamu", "participants": [{"id": 19042788, "gamerTag": "Chamu", "prefix": null, "user": {"location": {"city": "Columbia", "state": "SC", "country": "United States"}}, "player": {"id": 1471872, "gamerTag": "Chamu", "prefix": null, "user": {"location": {"city": "Columbia", "state": "SC", "country": "United States"}}}}]}}, {"id": 35716640, "seedNum": 18, "entrant": {"id": 20691087, "name": "Tyme", "participants": [{"id": 19043985, "gamerTag": "Tyme", "prefix": null, "user": {"location": {"city": null, "state": null, "country": null}}, "player": {"id": 325589, "gamerTag": "Tyme", "prefix": null, "user": {"location": {"city": null, "state": null, "country": null}}}}]}}, {"id": 35712961, "seedNum": 19, "entrant": {"id": 20688326, "name": "drimys", "participants": [{"id": 19041369, "gamerTag": "drimys", "prefix": null, "user": {"location": {"city": "Cumming", "state": "GA", "country": "United States"}}, "player": {"id": 2436958, "gamerTag": "drimys", "prefix": null, "user": {"location": {"city": "Cumming", "state": "GA", "country": "United States"}}}}]}}, {"id": 35716585, "seedNum": 20, "entrant": {"id": 20691054, "name": "KHW | Frumps", "participants": [{"id": 19043955, "gamerTag": "Frumps", "prefix": "KHW", "user": {"location": {"city": "Greenville", "state": "SC", "country": "United States"}}, "player": {"id": 2844590, "gamerTag": "Frumps", "prefix": "KHW", "user": {"location": {"city": "Greenville", "state": "SC", "country": "United States"}}}}]}}, {"id": 35718494, "seedNum": 22, "entrant": {"id": 20692373, "name": "TSOAP | MuchOlmec", "participants": [{"id": 19045158, "gamerTag": "MuchOlmec", "prefix": "TSOAP", "user": {"location": {"city": "Athens", "state": "GA", "country": "United States"}}, "player": {"id": 1105460, "gamerTag": "MuchOlmec", "prefix": "TSOAP", "user": {"location": {"city": "Athens", "state": "GA", "country": "United States"}}}}]}}, {"id": 35714319, "seedNum": 23, "entrant": {"id": 20689341, "name": "Newt Man", "participants": [{"id": 19042381, "gamerTag": "Newt Man", "prefix": "", "user": {"location": {"city": null, "state": null, "country": "United States"}}, "player": {"id": 4726806, "gamerTag": "Newt Man", "prefix": "", "user": {"location": {"city": null, "state": null, "country": "United States"}}}}]}}, {"id": 35708747, "seedNum": 24, "entrant": {"id": 20685505, "name": "Deign", "participants": [{"id": 19038734, "gamerTag": "Deign", "prefix": "", "user": {"location": {"city": null, "state": null, "country": "United States"}}, "player": {"id": 325595, "gamerTag": "Deign", "prefix": "", "user": {"location": {"city": null, "state": null, "country": "United States"}}}}]}}, {"id": 35714180, "seedNum": 25, "entrant": {"id": 20689194, "name": "TSOAP | Slothy", "participants": [{"id": 19042182, "gamerTag": "Slothy", "prefix": "TSOAP", "user": {"location": {"city": "", "state": "GA", "country": "United States"}}, "player": {"id": 3475413, "gamerTag": "Slothy", "prefix": "TSOAP", "user": {"location": {"city": "", "state": "GA", "country": "United States"}}}}]}}, {"id": 35719154, "seedNum": 26, "entrant": {"id": 20692895, "name": "MSU | transrights420", "participants": [{"id": 19045597, "gamerTag": "transrights420", "prefix": "MSU", "user": {"location": {"city": "Starkville", "state": "MS", "country": "United States"}}, "player": {"id": 1479899, "gamerTag": "transrights420", "prefix": "", "user": {"location": {"city": "Starkville", "state": "MS", "country": "United States"}}}}]}}, {"id": 35716980, "seedNum": 27, "entrant": {"id": 20691333, "name": "Milk", "participants": [{"id": 19044231, "gamerTag": "Milk", "prefix": null, "user": {"location": {"city": "Cumming", "state": "GA", "country": "United States"}}, "player": {"id": 3196902, "gamerTag": "Milk", "prefix": null, "user": {"location": {"city": "Cumming", "state": "GA", "country": "United States"}}}}]}}, {"id": 35715604, "seedNum": 28, "entrant": {"id": 20690154, "name": "Permafrost", "participants": [{"id": 19043091, "gamerTag": "Permafrost", "prefix": "", "user": {"location": {"city": "Atlanta", "state": "GA", "country": "United States"}}, "player": {"id": 1256898, "gamerTag": "Permafrost", "prefix": "", "user": {"location": {"city": "Atlanta", "state": "GA", "country": "United States"}}}}]}}, {"id": 35717027, "seedNum": 29, "entrant": {"id": 20691372, "name": "Divinitycove", "participants": [{"id": 19044266, "gamerTag": "Divinitycove", "prefix": null, "user": {"location": {"city": "Lithonia", "state": "GA", "country": "United States"}}, "player": {"id": 3821146, "gamerTag": "dgo", "prefix": null, "user": {"location": {"city": "Lithonia", "state": "GA", "country": "United States"}}}}]}}, {"id": 35708247, "seedNum": 30, "entrant": {"id": 20685288, "name": "TPS | cryptonic", "participants": [{"id": 19038584, "gamerTag": "cryptonic", "prefix": "TPS", "user": {"location": {"city": "Acworth", "state": "GA", "country": "United States"}}, "player": {"id": 3422494, "gamerTag": "$CAITLIN", "prefix": "TPS", "user": {"location": {"city": "Acworth", "state": "GA", "country": "United States"}}}}]}}, {"id": 35716564, "seedNum": 31, "entrant": {"id": 20691032, "name": "popsicle", "participants": [{"id": 19043939, "gamerTag": "popsicle", "prefix": null, "user": {"location": {"city": "Atlanta", "state": "GA", "country": "United States"}}, "player": {"id": 4435133, "gamerTag": "popsicle", "prefix": "", "user": {"location": {"city": "Atlanta", "state": "GA", "country": "United States"}}}}]}}, {"id": 35715943, "seedNum": 32, "entrant": {"id": 20690457, "name": "jwg", "participants": [{"id": 19043398, "gamerTag": "jwg", "prefix": "", "user": {"location": {"city": null, "state": "GA", "country": "United States"}}, "player": {"id": 4770959, "gamerTag": "juug", "prefix": "", "user": {"location": {"city": null, "state": "GA", "country": "United States"}}}}]}}]}}}