{"event": {"sets": {"pageInfo": {"totalPages": 22, "total": 318}, "nodes": [{"id": 92227528, "state": 3, "round": -8, "fullRoundText": "Losers Round 5", "completedAt": 1754172999, "winnerId": 20554478, "slots": [{"id": "92227528-0", "entrant": {"id": 20710303, "name": "iGreg!", "participants": [{"id": 19060770, "gamerTag": "iGreg!", "prefix": "", "user": {"location": {"city": "FLOWERY BR", "state": "GA", "country": "United States"}}, "player": {"id": 509710, "gamerTag": "iGreg!", "prefix": "", "user": {"location": {"city": "FLOWERY BR", "state": "GA", "country": "United States"}}}}]}, "standing": {"placement": 2, "stats": {"score": {"value": 0}}}}, {"id": "92227528-1", "entrant": {"id": 20554478, "name": "Cake", "participants": [{"id": 18925007, "gamerTag": "Cake", "prefix": "", "user": {"location": {"city": "Dallas", "state": "AL", "country": "United States"}}, "player": {"id": 1046075, "gamerTag": "Cake", "prefix": "", "user": {"location": {"city": "Dallas", "state": "AL", "country": "United States"}}}}]}, "standing": {"placement": 1, "stats": {"score": {"value": 2}}}}], "games": null}, {"id": 92227979, "state": 3, "round": -8, "fullRoundText": "Losers Round 5", "completedAt": 1754180642, "winnerId": 20488054, "slots": [{"id": "92227979-0", "entrant": {"id": 20703864, "name": "EVC | squirtleB", "participants": [{"id": 19054784, "gamerTag": "squirtleB", "prefix": "EVC", "user": {"location": {"city": null, "state": null, "country": null}}, "player": {"id": 264290, "gamerTag": "squirtleB", "prefix": "EVC", "user": {"location": {"city": null, "state": null, "country": null}}}}]}, "standing": {"placement": 2, "stats": {"score": {"value": 1}}}}, {"id": "92227979-1", "entrant": {"id": 20488054, "name": "GUMP2 | JankTrees!", "participants": [{"id": 18867197, "gamerTag": "JankTrees!", "prefix": "GUMP2", "user": {"location": {"city": "Cartersville", "state": "GA", "country": "United States"}}, "player": {"id": 35695, "gamerTag": "JankTrees!", "prefix": "GUMP2", "user": {"location": {"city": "Cartersville", "state": "GA", "country": "United States"}}}}]}, "standing": {"placement": 1, "stats": {"score": {"value": 2}}}}], "games": null}, {"id": 92227767, "state": 3, "round": -8, "fullRoundText": "Losers Round 5", "completedAt": 1754180927, "winnerId": 20722062, "slots": [{"id": "92227767-0", "entrant": {"id": 20722062, "name": "YBG Don", "participants": [{"id": 19071049, "gamerTag": "YBG Don", "prefix": "", "user": {"location": {"city": "sussy amogus school", "state": "TX", "country": "United States"}}, "player": {"id": 2228357, "gamerTag": "YBG Don", "prefix": "", "user": {"location": {"city": "sussy amogus school", "state": "TX", "country": "United States"}}}}]}, "standing": {"placement": 1, "stats": {"score": {"value": 2}}}}, {"id": "92227767-1", "entrant": {"id": 20488160, "name": "GUMP2 | Spider", "participants": [{"id": 18867233, "gamerTag": "Spider", "prefix": "GUMP2", "user": {"location": {"city": "Atlanta", "state": "GA", "country": "United States"}}, "player": {"id": 691176, "gamerTag": "Spider", "prefix": "GUMP2", "user": {"location": {"city": "Atlanta", "state": "GA", "country": "United States"}}}}]}, "standing": {"placement": 2, "stats": {"score": {"value": 1}}}}], "games": null}, {"id": 92227338, "state": 3, "round": -8, "fullRoundText": "Losers Round 5", "completedAt": 1754173475, "winnerId": 20778878, "slots": [{"id": "92227338-0", "entrant": {"id": 20778878, "name": "ROK | Sneaky Pocket Golem", "participants": [{"id": 19122930, "gamerTag": "Sneaky Pocket Golem", "prefix": "ROK", "user": {"location": {"city": "Miami", "state": "FL", "country": "United States"}}, "player": {"id": 1042374, "gamerTag": "Riku", "prefix": "ROK", "user": {"location": {"city": "Miami", "state": "FL", "country": "United States"}}}}]}, "standing": {"placement": 1, "stats": {"score": {"value": 2}}}}, {"id": "92227338-1", "entrant": {"id": 20778023, "name": "Barbashop", "participants": [{"id": 19122132, "gamerTag": "Barbashop", "prefix": "", "user": {"location": {"city": null, "state": null, "country": null}}, "player": {"id": 2537853, "gamerTag": "Barbashop", "prefix": "", "user": {"location": {"city": null, "state": null, "country": null}}}}]}, "standing": {"placement": 2, "stats": {"score": {"value": 0}}}}], "games": null}, {"id": 92227529, "state": 3, "round": -8, "fullRoundText": "Losers Round 5", "completedAt": 1754173259, "winnerId": 20555595, "slots": [{"id": "92227529-0", "entrant": {"id": 20555595, "name": "Tavares", "participants": [{"id": 18925965, "gamerTag": "Tavares", "prefix": "", "user": {"location": {"city": "Huntsville", "state": "AL", "country": "United States"}}, "player": {"id": 234829, "gamerTag": "Tavares", "prefix": "CF | AR |", "user": {"location": {"city": "Huntsville", "state": "AL", "country": "United States"}}}}]}, "standing": {"placement": 1, "stats": {"score": {"value": 2}}}}, {"id": "92227529-1", "entrant": {"id": 20709932, "name": "MBS | Vivid", "participants": [{"id": 19060437, "gamerTag": "Vivid", "prefix": "MBS", "user": {"location": {"city": "Atl", "state": "GA", "country": "United States"}}, "player": {"id": 499333, "gamerTag": "Vivid", "prefix": "MBS", "user": {"location": {"city": "Atl", "state": "GA", "country": "United States"}}}}]}, "standing": {"placement": 2, "stats": {"score": {"value": 0}}}}], "games": null}, {"id": 92110858, "state": 3, "round": -9, "fullRoundText": "Losers Semi-Final", "completedAt": 1754189679, "winnerId": 20699992, "slots": [{"id": "92110858-0", "entrant": {"id": 20735917, "name": "DTN | Fatality", "participants": [{"id": 19082720, "gamerTag": "Fatality", "prefix": "DTN", "user": {"location": {"city": "Lilburn", "state": "GA", "country": "United States"}}, "player": {"id": 15921, "gamerTag": "Fatality", "prefix": "DTN", "user": {"location": {"city": "Lilburn", "state": "GA", "country": "United States"}}}}]}, "standing": {"placement": 2, "stats": {"score": {"value": 1}}}}, {"id": "92110858-1", "entrant": {"id": 20699992, "name": "SFS | TCS | Dany", "participants": [{"id": 19051511, "gamerTag": "Dany", "prefix": "SFS | TCS", "user": {"location": {"city": "Nashville", "state": "TN", "country": "United States"}}, "player": {"id": 606386, "gamerTag": "Dany2theny", "prefix": "TCS", "user": {"location": {"city": "Nashville", "state": "TN", "country": "United States"}}}}]}, "standing": {"placement": 1, "stats": {"score": {"value": 3}}}}], "games": null}, {"id": 92227331, "state": 3, "round": -7, "fullRoundText": "Losers Round 4", "completedAt": 1754172744, "winnerId": 20494615, "slots": [{"id": "92227331-0", "entrant": {"id": 20555303, "name": "MopN", "participants": [{"id": 18925707, "gamerTag": "MopN", "prefix": "", "user": {"location": {"city": "Montevallo", "state": "AL", "country": "United States"}}, "player": {"id": 180688, "gamerTag": "MopN", "prefix": "", "user": {"location": {"city": "Montevallo", "state": "AL", "country": "United States"}}}}]}, "standing": {"placement": 2, "stats": {"score": {"value": 0}}}}, {"id": "92227331-1", "entrant": {"id": 20494615, "name": "PACDUECE", "participants": [{"id": 18872949, "gamerTag": "PACDUECE", "prefix": "", "user": {"location": {"city": "Valdosta", "state": "GA", "country": "United States"}}, "player": {"id": 35275, "gamerTag": "PACDUECE", "prefix": "", "user": {"location": {"city": "Valdosta", "state": "GA", "country": "United States"}}}}]}, "standing": {"placement": 1, "stats": {"score": {"value": 2}}}}], "games": null}, {"id": 92227522, "state": 3, "round": -7, "fullRoundText": "Losers Round 4", "completedAt": 1754172429, "winnerId": 20488758, "slots": [{"id": "92227522-0", "entrant": {"id": 20662622, "name": "Free | Hue", "participants": [{"id": 19019537, "gamerTag": "Hue", "prefix": "Free", "user": {"location": {"city": "Union City", "state": "GA", "country": "United States"}}, "player": {"id": 35934, "gamerTag": "Hue", "prefix": "Free", "user": {"location": {"city": "Union City", "state": "GA", "country": "United States"}}}}]}, "standing": {"placement": 2, "stats": {"score": {"value": 0}}}}, {"id": "92227522-1", "entrant": {"id": 20488758, "name": "LBE | Acid @ Indigo Park", "participants": [{"id": 18867695, "gamerTag": "Acid @ Indigo Park", "prefix": "LBE", "user": {"location": {"city": null, "state": null, "country": "United States"}}, "player": {"id": 1917673, "gamerTag": "Acid @ Indigo Park", "prefix": "LBE", "user": {"location": {"city": null, "state": null, "country": "United States"}}}}]}, "standing": {"placement": 1, "stats": {"score": {"value": 2}}}}], "games": null}, {"id": 92227972, "state": 3, "round": -7, "fullRoundText": "Losers Round 4", "completedAt": 1754178479, "winnerId": 20719693, "slots": [{"id": "92227972-0", "entrant": {"id": 20719693, "name": "PHNM | Senn", "participants": [{"id": 19068870, "gamerTag": "Senn", "prefix": "PHNM", "user": {"location": {"city": "Waxhaw", "state": "NC", "country": "United States"}}, "player": {"id": 1194511, "gamerTag": "Senn", "prefix": "PHNM", "user": {"location": {"city": "Waxhaw", "state": "NC", "country": "United States"}}}}]}, "standing": {"placement": 1, "stats": {"score": {"value": 2}}}}, {"id": "92227972-1", "entrant": {"id": 20554453, "name": "WOD | Scrafty", "participants": [{"id": 18924986, "gamerTag": "Scrafty", "prefix": "WOD", "user": {"location": {"city": "Tupelo", "state": "MS", "country": "United States"}}, "player": {"id": 159520, "gamerTag": "Scrafty", "prefix": "WOD", "user": {"location": {"city": "Tupelo", "state": "MS", "country": "United States"}}}}]}, "standing": {"placement": 2, "stats": {"score": {"value": 0}}}}], "games": null}, {"id": 92227760, "state": 3, "round": -7, "fullRoundText": "Losers Round 4", "completedAt": 1754180128, "winnerId": 20777459, "slots": [{"id": "92227760-0", "entrant": {"id": 20851153, "name": "CJay", "participants": [{"id": 19187296, "gamerTag": "CJay", "prefix": null, "user": {"location": {"city": "tallahassee", "state": "FL", "country": "United States"}}, "player": {"id": 1852984, "gamerTag": "CJay", "prefix": null, "user": {"location": {"city": "tallahassee", "state": "FL", "country": "United States"}}}}]}, "standing": {"placement": 2, "stats": {"score": {"value": 1}}}}, {"id": "92227760-1", "entrant": {"id": 20777459, "name": "UAH | Otogi", "participants": [{"id": 19121590, "gamerTag": "Otogi", "prefix": "UAH", "user": {"location": {"city": "Huntsville", "state": "AL", "country": "United States"}}, "player": {"id": 3846627, "gamerTag": "Otogi", "prefix": "Argon", "user": {"location": {"city": "Huntsville", "state": "AL", "country": "United States"}}}}]}, "standing": {"placement": 1, "stats": {"score": {"value": 2}}}}], "games": null}, {"id": 92227332, "state": 3, "round": -7, "fullRoundText": "Losers Round 4", "completedAt": 1754171991, "winnerId": 20634587, "slots": [{"id": "92227332-0", "entrant": {"id": 20634587, "name": "Rain~", "participants": [{"id": 18995271, "gamerTag": "Rain~", "prefix": null, "user": {"location": {"city": "Atlanta", "state": "GA", "country": "United States"}}, "player": {"id": 4240164, "gamerTag": "Rain~", "prefix": null, "user": {"location": {"city": "Atlanta", "state": "GA", "country": "United States"}}}}]}, "standing": {"placement": 1, "stats": {"score": {"value": 2}}}}, {"id": "92227332-1", "entrant": {"id": 20831892, "name": "iNGenius", "participants": [{"id": 19170319, "gamerTag": "iNGenius", "prefix": "", "user": {"location": {"city": null, "state": null, "country": null}}, "player": {"id": 3194293, "gamerTag": "iNGenius", "prefix": "", "user": {"location": {"city": null, "state": null, "country": null}}}}]}, "standing": {"placement": 2, "stats": {"score": {"value": 1}}}}], "games": null}, {"id": 92227761, "state": 3, "round": -7, "fullRoundText": "Losers Round 4", "completedAt": 1754179440, "winnerId": 20488306, "slots": [{"id": "92227761-0", "entrant": {"id": 20702798, "name": "Riddul", "participants": [{"id": 19053992, "gamerTag": "Riddul", "prefix": "", "user": {"location": {"city": null, "state": null, "country": "United States"}}, "player": {"id": 1418775, "gamerTag": "Riddul", "prefix": "", "user": {"location": {"city": null, "state": null, "country": "United States"}}}}]}, "standing": {"placement": 2, "stats": {"score": {"value": 0}}}}, {"id": "92227761-1", "entrant": {"id": 20488306, "name": "VA | StreetDzine", "participants": [{"id": 18867299, "gamerTag": "StreetDzine", "prefix": "VA", "user": {"location": {"city": null, "state": null, "country": "United States"}}, "player": {"id": 989587, "gamerTag": "StreetDzine", "prefix": "VA", "user": {"location": {"city": null, "state": null, "country": "United States"}}}}]}, "standing": {"placement": 1, "stats": {"score": {"value": 2}}}}], "games": null}, {"id": 92227523, "state": 3, "round": -7, "fullRoundText": "Losers Round 4", "completedAt": 1754172804, "winnerId": 20490407, "slots": [{"id": "92227523-0", "entrant": {"id": 20867172, "name": "Trout~", "participants": [{"id": 19201389, "gamerTag": "Trout~", "prefix": "", "user": {"location": {"city": "Lawrenceville", "state": "GA", "country": "United States"}}, "player": {"id": 905410, "gamerTag": "Primary Trout~", "prefix": "", "user": {"location": {"city": "Lawrenceville", "state": "GA", "country": "United States"}}}}]}, "standing": {"placement": 2, "stats": {"score": {"value": 1}}}}, {"id": "92227523-1", "entrant": {"id": 20490407, "name": "TC | Mr.Speedman", "participants": [{"id": 18869131, "gamerTag": "Mr.Speedman", "prefix": "TC", "user": {"location": {"city": "Roswell", "state": "GA", "country": "United States"}}, "player": {"id": 36192, "gamerTag": "Mr.Speedman", "prefix": "TC", "user": {"location": {"city": "Roswell", "state": "GA", "country": "United States"}}}}]}, "standing": {"placement": 1, "stats": {"score": {"value": 2}}}}], "games": null}, {"id": 92227973, "state": 3, "round": -7, "fullRoundText": "Losers Round 4", "completedAt": 1754177952, "winnerId": 20497378, "slots": [{"id": "92227973-0", "entrant": {"id": 20487835, "name": "cO | Netherlord64", "participants": [{"id": 18867025, "gamerTag": "Netherlord64", "prefix": "cO", "user": {"location": {"city": "Roswell", "state": "GA", "country": "United States"}}, "player": {"id": 4586226, "gamerTag": "Netherlord64", "prefix": "", "user": {"location": {"city": "Roswell", "state": "GA", "country": "United States"}}}}]}, "standing": {"placement": 2, "stats": {"score": {"value": 1}}}}, {"id": "92227973-1", "entrant": {"id": 20497378, "name": "Dubz", "participants": [{"id": 18875528, "gamerTag": "Dubz", "prefix": "", "user": {"location": {"city": "Grayson", "state": "GA", "country": "United States"}}, "player": {"id": 22583, "gamerTag": "Dubz", "prefix": "", "user": {"location": {"city": "Grayson", "state": "GA", "country": "United States"}}}}]}, "standing": {"placement": 1, "stats": {"score": {"value": 2}}}}], "games": null}, {"id": 92227974, "state": 3, "round": -7, "fullRoundText": "Losers Round 4", "completedAt": 1754178413, "winnerId": 20566667, "slots": [{"id": "92227974-0", "entrant": {"id": 20783378, "name": "FreeDubs", "participants": [{"id": 19127053, "gamerTag": "FreeDubs", "prefix": "", "user": {"location": {"city": "Atlanta", "state": null, "country": "United States"}}, "player": {"id": 4888408, "gamerTag": "FreeDubs", "prefix": "", "user": {"location": {"city": "Atlanta", "state": null, "country": "United States"}}}}]}, "standing": {"placement": 2, "stats": {"score": {"value": 0}}}}, {"id": "92227974-1", "entrant": {"id": 20566667, "name": "UNCG | Chugs", "participants": [{"id": 18935801, "gamerTag": "Chugs", "prefix": "UNCG", "user": {"location": {"city": "Winston-Salem", "state": "NC", "country": "United States"}}, "player": {"id": 1820508, "gamerTag": "Chugs", "prefix": "UNCG", "user": {"location": {"city": "Winston-Salem", "state": "NC", "country": "United States"}}}}]}, "standing": {"placement": 1, "stats": {"score": {"value": 2}}}}], "games": null}]}}}