{"event": {"sets": {"pageInfo": {"totalPages": 1, "total": 8}, "nodes": [{"id": 93627587, "state": 3, "round": 4, "fullRoundText": "Grand Final", "completedAt": 1757280642, "winnerId": 21146033, "slots": [{"id": "93627587-0", "entrant": {"id": 21146033, "name": "mike | mike", "participants": [{"id": 19449988, "gamerTag": "mike", "prefix": "mike", "user": {"location": {"city": "Athens", "state": "GA", "country": "United States"}}, "player": {"id": 1821403, "gamerTag": "mike", "prefix": "mike", "user": {"location": {"city": "Athens", "state": "GA", "country": "United States"}}}}]}, "standing": {"placement": 1, "stats": {"score": {"value": 3}}}}, {"id": "93627587-1", "entrant": {"id": 21172200, "name": "bean", "participants": [{"id": 19472790, "gamerTag": "bean", "prefix": null, "user": {"location": {"city": "Athens", "state": "GA", "country": "United States"}}, "player": {"id": 3596462, "gamerTag": "bean", "prefix": null, "user": {"location": {"city": "Athens", "state": "GA", "country": "United States"}}}}]}, "standing": {"placement": 2, "stats": {"score": {"value": 0}}}}], "games": null}, {"id": 93627586, "state": 3, "round": 3, "fullRoundText": "Winners Final", "completedAt": 1757278950, "winnerId": 21146033, "slots": [{"id": "93627586-0", "entrant": {"id": 21146033, "name": "mike | mike", "participants": [{"id": 19449988, "gamerTag": "mike", "prefix": "mike", "user": {"location": {"city": "Athens", "state": "GA", "country": "United States"}}, "player": {"id": 1821403, "gamerTag": "mike", "prefix": "mike", "user": {"location": {"city": "Athens", "state": "GA", "country": "United States"}}}}]}, "standing": {"placement": 1, "stats": {"score": {"value": 3}}}}, {"id": "93627586-1", "entrant": {"id": 21172200, "name": "bean", "participants": [{"id": 19472790, "gamerTag": "bean", "prefix": null, "user": {"location": {"city": "Athens", "state": "GA", "country": "United States"}}, "player": {"id": 3596462, "gamerTag": "bean", "prefix": null, "user": {"location": {"city": "Athens", "state": "GA", "country": "United States"}}}}]}, "standing": {"placement": 2, "stats": {"score": {"value": 2}}}}], "games": null}, {"id": 93627602, "state": 3, "round": -6, "fullRoundText": "Losers Final", "completedAt": 1757279867, "winnerId": 21172200, "slots": [{"id": "93627602-0", "entrant": {"id": 21172200, "name": "bean", "participants": [{"id": 19472790, "gamerTag": "bean", "prefix": null, "user": {"location": {"city": "Athens", "state": "GA", "country": "United States"}}, "player": {"id": 3596462, "gamerTag": "bean", "prefix": null, "user": {"location": {"city": "Athens", "state": "GA", "country": "United States"}}}}]}, "standing": {"placement": 1, "stats": {"score": {"value": 3}}}}, {"id": "93627602-1", "entrant": {"id": 21185310, "name": "ClownDono (Ant)", "participants": [{"id": 19484101, "gamerTag": "ClownDono (Ant)", "prefix": null, "user": {"location": {"city": "Covington", "state": "GA", "country": "United States"}}, "player": {"id": 3545315, "gamerTag": "ClownDono (Ant)", "prefix": null, "user": {"location": {"city": "Covington", "state": "GA", "country": "United States"}}}}]}, "standing": {"placement": 2, "stats": {"score": {"value": 2}}}}], "games": null}, {"id": 93627601, "state": 3, "round": -5, "fullRoundText": "Losers Semi-Final", "completedAt": 1757278961, "winnerId": 21185310, "slots": [{"id": "93627601-0", "entrant": {"id": 21185310, "name": "ClownDono (Ant)", "participants": [{"id": 19484101, "gamerTag": "ClownDono (Ant)", "prefix": null, "user": {"location": {"city": "Covington", "state": "GA", "country": "United States"}}, "player": {"id": 3545315, "gamerTag": "ClownDono (Ant)", "prefix": null, "user": {"location": {"city": "Covington", "state": "GA", "country": "United States"}}}}]}, "standing": {"placement": 1, "stats": {"score": {"value": 3}}}}, {"id": "93627601-1", "entrant": {"id": 21191437, "name": "Gooey", "participants": [{"id": 19489115, "gamerTag": "Gooey", "prefix": "", "user": {"location": {"city": "Athens", "state": "GA", "country": "United States"}}, "player": {"id": 1071181, "gamerTag": "Gooey", "prefix": "GRW", "user": {"location": {"city": "Athens", "state": "GA", "country": "United States"}}}}]}, "standing": {"placement": 2, "stats": {"score": {"value": 0}}}}], "games": null}, {"id": 93627584, "state": 3, "round": 2, "fullRoundText": "Winners Semi-Final", "completedAt": 1757277176, "winnerId": 21146033, "slots": [{"id": "93627584-0", "entrant": {"id": 21191437, "name": "Gooey", "participants": [{"id": 19489115, "gamerTag": "Gooey", "prefix": "", "user": {"location": {"city": "Athens", "state": "GA", "country": "United States"}}, "player": {"id": 1071181, "gamerTag": "Gooey", "prefix": "GRW", "user": {"location": {"city": "Athens", "state": "GA", "country": "United States"}}}}]}, "standing": {"placement": 2, "stats": {"score": {"value": 0}}}}, {"id": "93627584-1", "entrant": {"id": 21146033, "name": "mike | mike", "participants": [{"id": 19449988, "gamerTag": "mike", "prefix": "mike", "user": {"location": {"city": "Athens", "state": "GA", "country": "United States"}}, "player": {"id": 1821403, "gamerTag": "mike", "prefix": "mike", "user": {"location": {"city": "Athens", "state": "GA", "country": "United States"}}}}]}, "standing": {"placement": 1, "stats": {"score": {"value": 3}}}}], "games": null}, {"id": 93627585, "state": 3, "round": 2, "fullRoundText": "Winners Semi-Final", "completedAt": 1757276232, "winnerId": 21172200, "slots": [{"id": "93627585-0", "entrant": {"id": 21172200, "name": "bean", "participants": [{"id": 19472790, "gamerTag": "bean", "prefix": null, "user": {"location": {"city": "Athens", "state": "GA", "country": "United States"}}, "player": {"id": 3596462, "gamerTag": "bean", "prefix": null, "user": {"location": {"city": "Athens", "state": "GA", "country": "United States"}}}}]}, "standing": {"placement": 1, "stats": {"score": {"value": 3}}}}, {"id": "93627585-1", "entrant": {"id": 21185310, "name": "ClownDono (Ant)", "participants": [{"id": 19484101, "gamerTag": "ClownDono (Ant)", "prefix": null, "user": {"location": {"city": "Covington", "state": "GA", "country": "United States"}}, "player": {"id": 3545315, "gamerTag": "ClownDono (Ant)", "prefix": null, "user": {"location": {"city": "Covington", "state": "GA", "country": "United States"}}}}]}, "standing": {"placement": 2, "stats": {"score": {"value": 0}}}}], "games": null}, {"id": 93627599, "state": 3, "round": -4, "fullRoundText": "Losers Quarter-Final", "completedAt": 1757276616, "winnerId": 21185310, "slots": [{"id": "93627599-0", "entrant": {"id": 21185310, "name": "ClownDono (Ant)", "participants": [{"id": 19484101, "gamerTag": "ClownDono (Ant)", "prefix": null, "user": {"location": {"city": "Covington", "state": "GA", "country": "United States"}}, "player": {"id": 3545315, "gamerTag": "ClownDono (Ant)", "prefix": null, "user": {"location": {"city": "Covington", "state": "GA", "country": "United States"}}}}]}, "standing": {"placement": 1, "stats": {"score": {"value": 3}}}}, {"id": "93627599-1", "entrant": {"id": 21162861, "name": "chr0matic", "participants": [{"id": 19464573, "gamerTag": "chr0matic", "prefix": "", "user": {"location": {"city": null, "state": null, "country": "United States"}}, "player": {"id": 4956519, "gamerTag": "chr0matic", "prefix": "", "user": {"location": {"city": null, "state": null, "country": "United States"}}}}]}, "standing": {"placement": 2, "stats": {"score": {"value": 0}}}}], "games": null}, {"id": 93627581, "state": 3, "round": 1, "fullRoundText": "Winners Quarter-Final", "completedAt": 1757276224, "winnerId": 21146033, "slots": [{"id": "93627581-0", "entrant": {"id": 21162861, "name": "chr0matic", "participants": [{"id": 19464573, "gamerTag": "chr0matic", "prefix": "", "user": {"location": {"city": null, "state": null, "country": "United States"}}, "player": {"id": 4956519, "gamerTag": "chr0matic", "prefix": "", "user": {"location": {"city": null, "state": null, "country": "United States"}}}}]}, "standing": {"placement": 2, "stats": {"score": {"value": 0}}}}, {"id": "93627581-1", "entrant": {"id": 21146033, "name": "mike | mike", "participants": [{"id": 19449988, "gamerTag": "mike", "prefix": "mike", "user": {"location": {"city": "Athens", "state": "GA", "country": "United States"}}, "player": {"id": 1821403, "gamerTag": "mike", "prefix": "mike", "user": {"location": {"city": "Athens", "state": "GA", "country": "United States"}}}}]}, "standing": {"placement": 1, "stats": {"score": {"value": 3}}}}], "games": null}]}}}