{"event": {"sets": {"pageInfo": {"totalPages": 4, "total": 56}, "nodes": [{"id": 91554402, "state": 3, "round": 3, "fullRoundText": "Grand Final", "completedAt": 1752896945, "winnerId": 20733429, "slots": [{"id": "91554402-0", "entrant": {"id": 20733429, "name": "RM | GUMP2 | Kr!stal:0", "participants": [{"id": 19080748, "gamerTag": "Kr!stal:0", "prefix": "RM | GUMP2", "user": {"location": {"city": "Lawrenceville", "state": "GA", "country": "United States"}}, "player": {"id": 2409815, "gamerTag": "AO ASHI SEASON 2 2026", "prefix": "RM | GUMP2", "user": {"location": {"city": "Lawrenceville", "state": "GA", "country": "United States"}}}}]}, "standing": {"placement": 1, "stats": {"score": {"value": 3}}}}, {"id": "91554402-1", "entrant": {"id": 20721837, "name": "Sacred", "participants": [{"id": 19070840, "gamerTag": "Sacred", "prefix": "", "user": {"location": {"city": null, "state": null, "country": "United States"}}, "player": {"id": 1007555, "gamerTag": "Sacred", "prefix": "", "user": {"location": {"city": null, "state": null, "country": "United States"}}}}]}, "standing": {"placement": 2, "stats": {"score": {"value": 0}}}}], "games": [{"id": 31360793, "orderNum": 1, "winnerId": 20733429, "entrant1Score": null, "entrant2Score": 0, "stage": null, "selections": [{"id": 46152981, "selectionType": "CHARACTER", "selectionValue": 1296, "entrant": {"id": 20721837}, "character": {"id": 1296, "name": "Link"}}, {"id": 46152982, "selectionType": "CHARACTER", "selectionValue": 1301, "entrant": {"id": 20733429}, "character": {"id": 1301, "name": "Luigi"}}]}, {"id": 31360794, "orderNum": 2, "winnerId": 20733429, "entrant1Score": null, "entrant2Score": 0, "stage": null, "selections": [{"id": 46152983, "selectionType": "CHARACTER", "selectionValue": 1296, "entrant": {"id": 20721837}, "character": {"id": 1296, "name": "Link"}}, {"id": 46152984, "selectionType": "CHARACTER", "selectionValue": 1301, "entrant": {"id": 20733429}, "character": {"id": 1301, "name": "Luigi"}}]}, {"id": 31360795, "orderNum": 3, "winnerId": 20733429, "entrant1Score": null, "entrant2Score": 0, "stage": null, "selections": [{"id": 46152985, "selectionType": "CHARACTER", "selectionValue": 1296, "entrant": {"id": 20721837}, "character": {"id": 1296, "name": "Link"}}, {"id": 46152986, "selectionType": "CHARACTER", "selectionValue": 1301, "entrant": {"id": 20733429}, "character": {"id": 1301, "name": "Luigi"}}]}]}, {"id": 91543675, "state": 3, "round": 3, "fullRoundText": "Winners Quarter-Final", "completedAt": 1752890242, "winnerId": 20733429, "slots": [{"id": "91543675-0", "entrant": {"id": 20733429, "name": "RM | GUMP2 | Kr!stal:0", "participants": [{"id": 19080748, "gamerTag": "Kr!stal:0", "prefix": "RM | GUMP2", "user": {"location": {"city": "Lawrenceville", "state": "GA", "country": "United States"}}, "player": {"id": 2409815, "gamerTag": "AO ASHI SEASON 2 2026", "prefix": "RM | GUMP2", "user": {"location": {"city": "Lawrenceville", "state": "GA", "country": "United States"}}}}]}, "standing": {"placement": 1, "stats": {"score": {"value": 2}}}}, {"id": "91543675-1", "entrant": {"id": 20688984, "name": "RAMS | Bragmuffin", "participants": [{"id": 19041998, "gamerTag": "Bragmuffin", "prefix": "RAMS", "user": {"location": {"city": "Alpharetta", "state": "GA", "country": "United States"}}, "player": {"id": 2354073, "gamerTag": "Bragmuffin", "prefix": "RAMS", "user": {"location": {"city": "Alpharetta", "state": "GA", "country": "United States"}}}}]}, "standing": {"placement": 2, "stats": {"score": {"value": 1}}}}], "games": [{"id": 31357396, "orderNum": 1, "winnerId": 20688984, "entrant1Score": 0, "entrant2Score": null, "stage": null, "selections": [{"id": 46146301, "selectionType": "CHARACTER", "selectionValue": 1285, "entrant": {"id": 20688984}, "character": {"id": 1285, "name": "Falco"}}, {"id": 46146302, "selectionType": "CHARACTER", "selectionValue": 1311, "entrant": {"id": 20733429}, "character": {"id": 1311, "name": "Mii Brawler"}}]}, {"id": 31357397, "orderNum": 2, "winnerId": 20733429, "entrant1Score": null, "entrant2Score": 0, "stage": null, "selections": [{"id": 46146303, "selectionType": "CHARACTER", "selectionValue": 1285, "entrant": {"id": 20688984}, "character": {"id": 1285, "name": "Falco"}}, {"id": 46146304, "selectionType": "CHARACTER", "selectionValue": 1766, "entrant": {"id": 20733429}, "character": {"id": 1766, "name": "Steve"}}]}, {"id": 31357398, "orderNum": 3, "winnerId": 20733429, "entrant1Score": null, "entrant2Score": 0, "stage": null, "selections": [{"id": 46146305, "selectionType": "CHARACTER", "selectionValue": 1285, "entrant": {"id": 20688984}, "character": {"id": 1285, "name": "Falco"}}, {"id": 46146306, "selectionType": "CHARACTER", "selectionValue": 1766, "entrant": {"id": 20733429}, "character": {"id": 1766, "name": "Steve"}}]}]}, {"id": 91543676, "state": 3, "round": 3, "fullRoundText": "Winners Quarter-Final", "completedAt": 1752890272, "winnerId": 20733135, "slots": [{"id": "91543676-0", "entrant": {"id": 20732053, "name": "WFF | Happy", "participants": [{"id": 19079565, "gamerTag": "Happy", "prefix": "WFF", "user": {"location": {"city": "Peachtree CIty", "state": "GA", "country": "United States"}}, "player": {"id": 1383907, "gamerTag": "Happy", "prefix": "WFF", "user": {"location": {"city": "Peachtree CIty", "state": "GA", "country": "United States"}}}}]}, "standing": {"placement": 2, "stats": {"score": {"value": 0}}}}, {"id": "91543676-1", "entrant": {"id": 20733135, "name": "Rain~", "participants": [{"id": 19080488, "gamerTag": "Rain~", "prefix": null, "user": {"location": {"city": "Atlanta", "state": "GA", "country": "United States"}}, "player": {"id": 4240164, "gamerTag": "Rain~", "prefix": null, "user": {"location": {"city": "Atlanta", "state": "GA", "country": "United States"}}}}]}, "standing": {"placement": 1, "stats": {"score": {"value": 2}}}}], "games": null}, {"id": 91543677, "state": 3, "round": 3, "fullRoundText": "Winners Quarter-Final", "completedAt": 1752889887, "winnerId": 20728825, "slots": [{"id": "91543677-0", "entrant": {"id": 20728825, "name": "Yummy", "participants": [{"id": 19076774, "gamerTag": "Yummy", "prefix": "", "user": {"location": {"city": "Atlanta", "state": "GA", "country": "United States"}}, "player": {"id": 1743866, "gamerTag": "Yummy", "prefix": "", "user": {"location": {"city": "Atlanta", "state": "GA", "country": "United States"}}}}]}, "standing": {"placement": 1, "stats": {"score": {"value": 2}}}}, {"id": "91543677-1", "entrant": {"id": 20729612, "name": "Whaley", "participants": [{"id": 19077429, "gamerTag": "Whaley", "prefix": "", "user": {"location": {"city": "Stone Mountain", "state": "GA", "country": "United States"}}, "player": {"id": 2016149, "gamerTag": "Whaley", "prefix": "KSU|UTO|BLZE", "user": {"location": {"city": "Stone Mountain", "state": "GA", "country": "United States"}}}}]}, "standing": {"placement": 2, "stats": {"score": {"value": 1}}}}], "games": null}, {"id": 91543678, "state": 3, "round": 3, "fullRoundText": "Winners Quarter-Final", "completedAt": 1752889231, "winnerId": 20721837, "slots": [{"id": "91543678-0", "entrant": {"id": 20721837, "name": "Sacred", "participants": [{"id": 19070840, "gamerTag": "Sacred", "prefix": "", "user": {"location": {"city": null, "state": null, "country": "United States"}}, "player": {"id": 1007555, "gamerTag": "Sacred", "prefix": "", "user": {"location": {"city": null, "state": null, "country": "United States"}}}}]}, "standing": {"placement": 1, "stats": {"score": {"value": 2}}}}, {"id": "91543678-1", "entrant": {"id": 20732595, "name": "MTM | Bob Weiner", "participants": [{"id": 19080024, "gamerTag": "Bob Weiner", "prefix": "MTM", "user": {"location": {"city": "Kennesaw", "state": "GA", "country": "United States"}}, "player": {"id": 2142601, "gamerTag": "Bob Weiner", "prefix": "MTM", "user": {"location": {"city": "Kennesaw", "state": "GA", "country": "United States"}}}}]}, "standing": {"placement": 2, "stats": {"score": {"value": 0}}}}], "games": null}, {"id": 91543736, "state": 3, "round": -6, "fullRoundText": "Losers Round 4", "completedAt": 1752891942, "winnerId": 20732053, "slots": [{"id": "91543736-0", "entrant": {"id": 20732053, "name": "WFF | Happy", "participants": [{"id": 19079565, "gamerTag": "Happy", "prefix": "WFF", "user": {"location": {"city": "Peachtree CIty", "state": "GA", "country": "United States"}}, "player": {"id": 1383907, "gamerTag": "Happy", "prefix": "WFF", "user": {"location": {"city": "Peachtree CIty", "state": "GA", "country": "United States"}}}}]}, "standing": {"placement": 1, "stats": {"score": {"value": 2}}}}, {"id": "91543736-1", "entrant": {"id": 20716455, "name": "Mrbray30", "participants": [{"id": 19066088, "gamerTag": "Mrbray30", "prefix": "", "user": {"location": {"city": "Atlanta", "state": "GA", "country": "United States"}}, "player": {"id": 4664413, "gamerTag": "Mrbray30", "prefix": "", "user": {"location": {"city": "Atlanta", "state": "GA", "country": "United States"}}}}]}, "standing": {"placement": 2, "stats": {"score": {"value": 1}}}}], "games": null}, {"id": 91543737, "state": 3, "round": -6, "fullRoundText": "Losers Round 4", "completedAt": 1752891120, "winnerId": 20688984, "slots": [{"id": "91543737-0", "entrant": {"id": 20688984, "name": "RAMS | Bragmuffin", "participants": [{"id": 19041998, "gamerTag": "Bragmuffin", "prefix": "RAMS", "user": {"location": {"city": "Alpharetta", "state": "GA", "country": "United States"}}, "player": {"id": 2354073, "gamerTag": "Bragmuffin", "prefix": "RAMS", "user": {"location": {"city": "Alpharetta", "state": "GA", "country": "United States"}}}}]}, "standing": {"placement": 1, "stats": {"score": {"value": 2}}}}, {"id": "91543737-1", "entrant": {"id": 20695679, "name": "Penguin", "participants": [{"id": 19047881, "gamerTag": "Penguin", "prefix": "", "user": {"location": {"city": "Atlanta", "state": "GA", "country": "United States"}}, "player": {"id": 4287822, "gamerTag": "Heart", "prefix": "", "user": {"location": {"city": "Atlanta", "state": "GA", "country": "United States"}}}}]}, "standing": {"placement": 2, "stats": {"score": {"value": 0}}}}], "games": null}, {"id": 91543738, "state": 3, "round": -6, "fullRoundText": "Losers Round 4", "completedAt": 1752890345, "winnerId": 20732595, "slots": [{"id": "91543738-0", "entrant": {"id": 20732595, "name": "MTM | Bob Weiner", "participants": [{"id": 19080024, "gamerTag": "Bob Weiner", "prefix": "MTM", "user": {"location": {"city": "Kennesaw", "state": "GA", "country": "United States"}}, "player": {"id": 2142601, "gamerTag": "Bob Weiner", "prefix": "MTM", "user": {"location": {"city": "Kennesaw", "state": "GA", "country": "United States"}}}}]}, "standing": {"placement": 1, "stats": {"score": {"value": 2}}}}, {"id": "91543738-1", "entrant": {"id": 20696152, "name": "RM | WFF | Sakruoi", "participants": [{"id": 19048279, "gamerTag": "Sakruoi", "prefix": "RM | WFF", "user": {"location": {"city": "atlanta", "state": "GA", "country": "United States"}}, "player": {"id": 1230555, "gamerTag": "Sakruoi", "prefix": "RM | WFF", "user": {"location": {"city": "atlanta", "state": "GA", "country": "United States"}}}}]}, "standing": {"placement": 2, "stats": {"score": {"value": 1}}}}], "games": null}, {"id": 91543739, "state": 3, "round": -6, "fullRoundText": "Losers Round 4", "completedAt": 1752890741, "winnerId": 20729612, "slots": [{"id": "91543739-0", "entrant": {"id": 20729612, "name": "Whaley", "participants": [{"id": 19077429, "gamerTag": "Whaley", "prefix": "", "user": {"location": {"city": "Stone Mountain", "state": "GA", "country": "United States"}}, "player": {"id": 2016149, "gamerTag": "Whaley", "prefix": "KSU|UTO|BLZE", "user": {"location": {"city": "Stone Mountain", "state": "GA", "country": "United States"}}}}]}, "standing": {"placement": 1, "stats": {"score": {"value": 2}}}}, {"id": "91543739-1", "entrant": {"id": 20731234, "name": "RAMS | XL Dukie AF", "participants": [{"id": 19078838, "gamerTag": "XL Dukie AF", "prefix": "RAMS", "user": {"location": {"city": "Peachtree Corners", "state": "GA", "country": "United States"}}, "player": {"id": 2374690, "gamerTag": "XL Dukie AF", "prefix": "RAMS", "user": {"location": {"city": "Peachtree Corners", "state": "GA", "country": "United States"}}}}]}, "standing": {"placement": 2, "stats": {"score": {"value": 0}}}}], "games": null}, {"id": 91543732, "state": 3, "round": -5, "fullRoundText": "Losers Round 3", "completedAt": 1752890828, "winnerId": 20716455, "slots": [{"id": "91543732-0", "entrant": {"id": 20688811, "name": "Doug | DougThePlug", "participants": [{"id": 19041837, "gamerTag": "DougThePlug", "prefix": "Doug", "user": {"location": {"city": "Atlanta", "state": "GA", "country": "United States"}}, "player": {"id": 3806745, "gamerTag": "DougThePlug", "prefix": "Doug", "user": {"location": {"city": "Atlanta", "state": "GA", "country": "United States"}}}}]}, "standing": {"placement": 2, "stats": {"score": {"value": 0}}}}, {"id": "91543732-1", "entrant": {"id": 20716455, "name": "Mrbray30", "participants": [{"id": 19066088, "gamerTag": "Mrbray30", "prefix": "", "user": {"location": {"city": "Atlanta", "state": "GA", "country": "United States"}}, "player": {"id": 4664413, "gamerTag": "Mrbray30", "prefix": "", "user": {"location": {"city": "Atlanta", "state": "GA", "country": "United States"}}}}]}, "standing": {"placement": 1, "stats": {"score": {"value": 2}}}}], "games": null}, {"id": 91543733, "state": 3, "round": -5, "fullRoundText": "Losers Round 3", "completedAt": 1752890261, "winnerId": 20695679, "slots": [{"id": "91543733-0", "entrant": {"id": 20695679, "name": "Penguin", "participants": [{"id": 19047881, "gamerTag": "Penguin", "prefix": "", "user": {"location": {"city": "Atlanta", "state": "GA", "country": "United States"}}, "player": {"id": 4287822, "gamerTag": "Heart", "prefix": "", "user": {"location": {"city": "Atlanta", "state": "GA", "country": "United States"}}}}]}, "standing": {"placement": 1, "stats": {"score": {"value": 2}}}}, {"id": "91543733-1", "entrant": {"id": 20732216, "name": "WDKL MTM | D*ron", "participants": [{"id": 19079699, "gamerTag": "D*ron", "prefix": "WDKL MTM", "user": {"location": {"city": "Smyrna", "state": "GA", "country": "United States"}}, "player": {"id": 516047, "gamerTag": "D*ron", "prefix": "WDKL MTM", "user": {"location": {"city": "Smyrna", "state": "GA", "country": "United States"}}}}]}, "standing": {"placement": 2, "stats": {"score": {"value": 0}}}}], "games": [{"id": 31357419, "orderNum": 1, "winnerId": 20695679, "entrant1Score": null, "entrant2Score": 0, "stage": null, "selections": [{"id": 46146353, "selectionType": "CHARACTER", "selectionValue": 1271, "entrant": {"id": 20695679}, "character": {"id": 1271, "name": "Bayonetta"}}, {"id": 46146354, "selectionType": "CHARACTER", "selectionValue": 1332, "entrant": {"id": 20732216}, "character": {"id": 1332, "name": "Sonic"}}]}, {"id": 31357420, "orderNum": 2, "winnerId": 20695679, "entrant1Score": null, "entrant2Score": 0, "stage": null, "selections": [{"id": 46146355, "selectionType": "CHARACTER", "selectionValue": 1271, "entrant": {"id": 20695679}, "character": {"id": 1271, "name": "Bayonetta"}}, {"id": 46146356, "selectionType": "CHARACTER", "selectionValue": 1332, "entrant": {"id": 20732216}, "character": {"id": 1332, "name": "Sonic"}}]}]}, {"id": 91543734, "state": 3, "round": -5, "fullRoundText": "Losers Round 3", "completedAt": 1752890336, "winnerId": 20696152, "slots": [{"id": "91543734-0", "entrant": {"id": 20696152, "name": "RM | WFF | Sakruoi", "participants": [{"id": 19048279, "gamerTag": "Sakruoi", "prefix": "RM | WFF", "user": {"location": {"city": "atlanta", "state": "GA", "country": "United States"}}, "player": {"id": 1230555, "gamerTag": "Sakruoi", "prefix": "RM | WFF", "user": {"location": {"city": "atlanta", "state": "GA", "country": "United States"}}}}]}, "standing": {"placement": 1, "stats": {"score": {"value": 2}}}}, {"id": "91543734-1", "entrant": {"id": 20733612, "name": "RAMS | Aloe", "participants": [{"id": 19080895, "gamerTag": "Aloe", "prefix": "RAMS", "user": {"location": {"city": "Marietta", "state": "GA", "country": "United States"}}, "player": {"id": 456565, "gamerTag": "Aloe", "prefix": "RAMS", "user": {"location": {"city": "Marietta", "state": "GA", "country": "United States"}}}}]}, "standing": {"placement": 2, "stats": {"score": {"value": 0}}}}], "games": null}, {"id": 91543735, "state": 3, "round": -5, "fullRoundText": "Losers Round 3", "completedAt": 1752889386, "winnerId": 20731234, "slots": [{"id": "91543735-0", "entrant": {"id": 20732552, "name": "Nurikami", "participants": [{"id": 19079981, "gamerTag": "Nurikami", "prefix": null, "user": {"location": {"city": "Sandy Springs", "state": "GA", "country": "United States"}}, "player": {"id": 2894467, "gamerTag": "Nurikami", "prefix": null, "user": {"location": {"city": "Sandy Springs", "state": "GA", "country": "United States"}}}}]}, "standing": {"placement": 2, "stats": {"score": {"value": 0}}}}, {"id": "91543735-1", "entrant": {"id": 20731234, "name": "RAMS | XL Dukie AF", "participants": [{"id": 19078838, "gamerTag": "XL Dukie AF", "prefix": "RAMS", "user": {"location": {"city": "Peachtree Corners", "state": "GA", "country": "United States"}}, "player": {"id": 2374690, "gamerTag": "XL Dukie AF", "prefix": "RAMS", "user": {"location": {"city": "Peachtree Corners", "state": "GA", "country": "United States"}}}}]}, "standing": {"placement": 1, "stats": {"score": {"value": 2}}}}], "games": null}, {"id": 91554401, "state": 3, "round": 2, "fullRoundText": "Winners Final", "completedAt": 1752893833, "winnerId": 20733429, "slots": [{"id": "91554401-0", "entrant": {"id": 20733429, "name": "RM | GUMP2 | Kr!stal:0", "participants": [{"id": 19080748, "gamerTag": "Kr!stal:0", "prefix": "RM | GUMP2", "user": {"location": {"city": "Lawrenceville", "state": "GA", "country": "United States"}}, "player": {"id": 2409815, "gamerTag": "AO ASHI SEASON 2 2026", "prefix": "RM | GUMP2", "user": {"location": {"city": "Lawrenceville", "state": "GA", "country": "United States"}}}}]}, "standing": {"placement": 1, "stats": {"score": {"value": 3}}}}, {"id": "91554401-1", "entrant": {"id": 20721837, "name": "Sacred", "participants": [{"id": 19070840, "gamerTag": "Sacred", "prefix": "", "user": {"location": {"city": null, "state": null, "country": "United States"}}, "player": {"id": 1007555, "gamerTag": "Sacred", "prefix": "", "user": {"location": {"city": null, "state": null, "country": "United States"}}}}]}, "standing": {"placement": 2, "stats": {"score": {"value": 1}}}}], "games": [{"id": 31359645, "orderNum": 1, "winnerId": 20733429, "entrant1Score": null, "entrant2Score": 0, "stage": null, "selections": [{"id": 46150695, "selectionType": "CHARACTER", "selectionValue": 1296, "entrant": {"id": 20721837}, "character": {"id": 1296, "name": "Link"}}, {"id": 46150696, "selectionType": "CHARACTER", "selectionValue": 1766, "entrant": {"id": 20733429}, "character": {"id": 1766, "name": "Steve"}}]}, {"id": 31359646, "orderNum": 2, "winnerId": 20721837, "entrant1Score": 0, "entrant2Score": null, "stage": null, "selections": [{"id": 46150697, "selectionType": "CHARACTER", "selectionValue": 1339, "entrant": {"id": 20721837}, "character": {"id": 1339, "name": "Young Link"}}, {"id": 46150698, "selectionType": "CHARACTER", "selectionValue": 1766, "entrant": {"id": 20733429}, "character": {"id": 1766, "name": "Steve"}}]}, {"id": 31359647, "orderNum": 3, "winnerId": 20733429, "entrant1Score": null, "entrant2Score": 0, "stage": null, "selections": [{"id": 46150699, "selectionType": "CHARACTER", "selectionValue": 1339, "entrant": {"id": 20721837}, "character": {"id": 1339, "name": "Young Link"}}, {"id": 46150700, "selectionType": "CHARACTER", "selectionValue": 1301, "entrant": {"id": 20733429}, "character": {"id": 1301, "name": "Luigi"}}]}, {"id": 31359648, "orderNum": 4, "winnerId": 20733429, "entrant1Score": null, "entrant2Score": 0, "stage": null, "selections": [{"id": 46150701, "selectionType": "CHARACTER", "selectionValue": 1296, "entrant": {"id": 20721837}, "character": {"id": 1296, "name": "Link"}}, {"id": 46150702, "selectionType": "CHARACTER", "selectionValue": 1301, "entrant": {"id": 20733429}, "character": {"id": 1301, "name": "Luigi"}}]}]}, {"id": 91543667, "state": 3, "round": 2, "fullRoundText": "Winners Round 2", "completedAt": 1752886948, "winnerId": 20733429, "slots": [{"id": "91543667-0", "entrant": {"id": 20733429, "name": "RM | GUMP2 | Kr!stal:0", "participants": [{"id": 19080748, "gamerTag": "Kr!stal:0", "prefix": "RM | GUMP2", "user": {"location": {"city": "Lawrenceville", "state": "GA", "country": "United States"}}, "player": {"id": 2409815, "gamerTag": "AO ASHI SEASON 2 2026", "prefix": "RM | GUMP2", "user": {"location": {"city": "Lawrenceville", "state": "GA", "country": "United States"}}}}]}, "standing": {"placement": 1, "stats": {"score": {"value": 2}}}}, {"id": "91543667-1", "entrant": {"id": 20731234, "name": "RAMS | XL Dukie AF", "participants": [{"id": 19078838, "gamerTag": "XL Dukie AF", "prefix": "RAMS", "user": {"location": {"city": "Peachtree Corners", "state": "GA", "country": "United States"}}, "player": {"id": 2374690, "gamerTag": "XL Dukie AF", "prefix": "RAMS", "user": {"location": {"city": "Peachtree Corners", "state": "GA", "country": "United States"}}}}]}, "standing": {"placement": 2, "stats": {"score": {"value": 0}}}}], "games": null}]}}}