{"phase": {"seeds": {"pageInfo": {"totalPages": 1, "total": 8}, "nodes": [{"id": 36023602, "seedNum": 1, "entrant": {"id": 20879570, "name": "Nut Esports | | Geemoney$", "participants": [{"id": 19212363, "gamerTag": "Geemoney$", "prefix": "Nut Esports |", "user": {"location": {"city": "Jacksonville", "state": "FL", "country": "United States"}}, "player": {"id": 252344, "gamerTag": "Geemoney$", "prefix": "", "user": {"location": {"city": "Jacksonville", "state": "FL", "country": "United States"}}}}]}}, {"id": 36028075, "seedNum": 2, "entrant": {"id": 20883289, "name": "Barbashop", "participants": [{"id": 19215777, "gamerTag": "Barbashop", "prefix": "", "user": {"location": {"city": null, "state": null, "country": null}}, "player": {"id": 2537853, "gamerTag": "Barbashop", "prefix": "", "user": {"location": {"city": null, "state": null, "country": null}}}}]}}, {"id": 36024172, "seedNum": 3, "entrant": {"id": 20880094, "name": "LBE | Savant", "participants": [{"id": 19212843, "gamerTag": "Savant", "prefix": "LBE", "user": {"location": {"city": "Athens", "state": "GA", "country": "United States"}}, "player": {"id": 1944044, "gamerTag": "Savant", "prefix": "LBE | CC", "user": {"location": {"city": "Athens", "state": "GA", "country": "United States"}}}}]}}, {"id": 36026671, "seedNum": 5, "entrant": {"id": 20882126, "name": "punk2 | tape", "participants": [{"id": 19214743, "gamerTag": "tape", "prefix": "punk2", "user": {"location": {"city": "Douglasville", "state": "GA", "country": "United States"}}, "player": {"id": 2493488, "gamerTag": "tape", "prefix": "punk2", "user": {"location": {"city": "Douglasville", "state": "GA", "country": "United States"}}}}]}}, {"id": 36023222, "seedNum": 4, "entrant": {"id": 20879263, "name": "ND1 | Kirino", "participants": [{"id": 19212096, "gamerTag": "Kirino", "prefix": "ND1", "user": {"location": {"city": "Paris", "state": null, "country": "France"}}, "player": {"id": 6134, "gamerTag": "Kirino", "prefix": "ND1", "user": {"location": {"city": "Paris", "state": null, "country": "France"}}}}]}}, {"id": 36024947, "seedNum": 7, "entrant": {"id": 20880738, "name": "Juniper", "participants": [{"id": 19199248, "gamerTag": "Juniper", "prefix": null, "user": {"location": {"city": "Morrow", "state": "GA", "country": "United States"}}, "player": {"id": 46895, "gamerTag": "Juniper", "prefix": "ZB", "user": {"location": {"city": "Morrow", "state": "GA", "country": "United States"}}}}]}}, {"id": 35996732, "seedNum": 6, "entrant": {"id": 20864548, "name": "ZB | Sanaito", "participants": [{"id": 19199254, "gamerTag": "Sanaito", "prefix": "ZB", "user": {"location": {"city": "Fayetteville", "state": "GA", "country": "United States"}}, "player": {"id": 12761, "gamerTag": "Sanaito", "prefix": "ZB", "user": {"location": {"city": "Fayetteville", "state": "GA", "country": "United States"}}}}]}}, {"id": 36028186, "seedNum": 8, "entrant": {"id": 20883329, "name": "Real | Division", "participants": [{"id": 19215815, "gamerTag": "Division", "prefix": "Real", "user": {"location": {"city": null, "state": null, "country": "United States"}}, "player": {"id": 4723636, "gamerTag": "Division", "prefix": "Real", "user": {"location": {"city": null, "state": null, "country": "United States"}}}}]}}]}}}