{"event": {"sets": {"pageInfo": {"totalPages": 6, "total": 76}, "nodes": [{"id": 93192732, "state": 3, "round": 1, "fullRoundText": "Winners Round 1", "completedAt": 1756428037, "winnerId": 21104559, "slots": [{"id": "93192732-0", "entrant": {"id": 21104559, "name": "UTO|WhaLey | Kingwifi", "participants": [{"id": 19412674, "gamerTag": "Kingwifi", "prefix": "UTO|WhaLey", "user": {"location": {"city": "Stone Mountain", "state": "GA", "country": "United States"}}, "player": {"id": 2016149, "gamerTag": "Whaley", "prefix": "KSU|UTO|BLZE", "user": {"location": {"city": "Stone Mountain", "state": "GA", "country": "United States"}}}}]}, "standing": {"placement": 1, "stats": {"score": {"value": 2}}}}, {"id": "93192732-1", "entrant": {"id": 21089320, "name": "Ghost", "participants": [{"id": 19398802, "gamerTag": "Ghost", "prefix": "", "user": {"location": {"city": "Atlanta", "state": "GA", "country": "United States"}}, "player": {"id": 1804488, "gamerTag": "Ghost", "prefix": "", "user": {"location": {"city": "Atlanta", "state": "GA", "country": "United States"}}}}]}, "standing": {"placement": 2, "stats": {"score": {"value": 0}}}}], "games": [{"id": 32208282, "orderNum": 1, "winnerId": 21104559, "entrant1Score": null, "entrant2Score": 0, "stage": null, "selections": [{"id": 47466593, "selectionType": "CHARACTER", "selectionValue": 1286, "entrant": {"id": 21089320}, "character": {"id": 1286, "name": "Fox"}}, {"id": 47466594, "selectionType": "CHARACTER", "selectionValue": 1777, "entrant": {"id": 21104559}, "character": {"id": 1777, "name": "Sephiroth"}}]}, {"id": 32208283, "orderNum": 2, "winnerId": 21104559, "entrant1Score": null, "entrant2Score": 0, "stage": null, "selections": [{"id": 47466595, "selectionType": "CHARACTER", "selectionValue": 1337, "entrant": {"id": 21089320}, "character": {"id": 1337, "name": "Wolf"}}, {"id": 47466596, "selectionType": "CHARACTER", "selectionValue": 1777, "entrant": {"id": 21104559}, "character": {"id": 1777, "name": "Sephiroth"}}]}]}]}}}