{"event": {"sets": {"pageInfo": {"totalPages": 6, "total": 78}, "nodes": [{"id": 92912629, "state": 3, "round": 2, "fullRoundText": "Winners Round 2", "completedAt": 1755823799, "winnerId": 21034772, "slots": [{"id": "92912629-0", "entrant": {"id": 21034772, "name": "MBS | Vivid", "participants": [{"id": 19349789, "gamerTag": "Vivid", "prefix": "MBS", "user": {"location": {"city": "Atl", "state": "GA", "country": "United States"}}, "player": {"id": 499333, "gamerTag": "Vivid", "prefix": "MBS", "user": {"location": {"city": "Atl", "state": "GA", "country": "United States"}}}}]}, "standing": {"placement": 1, "stats": {"score": {"value": 2}}}}, {"id": "92912629-1", "entrant": {"id": 21034148, "name": "carlop", "participants": [{"id": 19349209, "gamerTag": "carlop", "prefix": null, "user": {"location": {"city": "Johns Creek", "state": "GA", "country": "United States"}}, "player": {"id": 3431919, "gamerTag": "carlop", "prefix": null, "user": {"location": {"city": "Johns Creek", "state": "GA", "country": "United States"}}}}]}, "standing": {"placement": 2, "stats": {"score": {"value": 0}}}}], "games": null}, {"id": 92912630, "state": 3, "round": 2, "fullRoundText": "Winners Round 2", "completedAt": 1755823104, "winnerId": 21033631, "slots": [{"id": "92912630-0", "entrant": {"id": 21033631, "name": "GUMP2 | STiCK", "participants": [{"id": 19348707, "gamerTag": "STiCK", "prefix": "GUMP2", "user": {"location": {"city": "Woodstock", "state": "GA", "country": "United States"}}, "player": {"id": 282674, "gamerTag": "STiCK", "prefix": "GUMP2", "user": {"location": {"city": "Woodstock", "state": "GA", "country": "United States"}}}}]}, "standing": {"placement": 1, "stats": {"score": {"value": 2}}}}, {"id": "92912630-1", "entrant": {"id": 21032708, "name": "red dot", "participants": [{"id": 19347832, "gamerTag": "red dot", "prefix": "", "user": {"location": {"city": "Milton", "state": "GA", "country": "United States"}}, "player": {"id": 1812177, "gamerTag": "red dot", "prefix": "", "user": {"location": {"city": "Milton", "state": "GA", "country": "United States"}}}}]}, "standing": {"placement": 2, "stats": {"score": {"value": 1}}}}], "games": null}, {"id": 92912728, "state": 3, "round": -4, "fullRoundText": "Losers Round 1", "completedAt": 1755824481, "winnerId": 21032708, "slots": [{"id": "92912728-0", "entrant": {"id": 21032708, "name": "red dot", "participants": [{"id": 19347832, "gamerTag": "red dot", "prefix": "", "user": {"location": {"city": "Milton", "state": "GA", "country": "United States"}}, "player": {"id": 1812177, "gamerTag": "red dot", "prefix": "", "user": {"location": {"city": "Milton", "state": "GA", "country": "United States"}}}}]}, "standing": {"placement": 1, "stats": {"score": {"value": 2}}}}, {"id": "92912728-1", "entrant": {"id": 21034556, "name": "SIR | vivor", "participants": [{"id": 19349585, "gamerTag": "vivor", "prefix": "SIR", "user": {"location": {"city": "Atlanta", "state": "GA", "country": "United States"}}, "player": {"id": 3373990, "gamerTag": "vivor", "prefix": "SIR", "user": {"location": {"city": "Atlanta", "state": "GA", "country": "United States"}}}}]}, "standing": {"placement": 2, "stats": {"score": {"value": 1}}}}], "games": null}, {"id": 92912730, "state": 3, "round": -4, "fullRoundText": "Losers Round 1", "completedAt": 1755823862, "winnerId": 21033427, "slots": [{"id": "92912730-0", "entrant": {"id": 21033427, "name": "Typical!", "participants": [{"id": 19348513, "gamerTag": "Typical!", "prefix": "", "user": {"location": {"city": "Cumming", "state": "GA", "country": "United States"}}, "player": {"id": 1227171, "gamerTag": "Typical!", "prefix": "", "user": {"location": {"city": "Cumming", "state": "GA", "country": "United States"}}}}]}, "standing": {"placement": 1, "stats": {"score": {"value": null}}}}, {"id": "92912730-1", "entrant": {"id": 21029838, "name": "Heart", "participants": [{"id": 19345088, "gamerTag": "Heart", "prefix": "", "user": {"location": {"city": "Atlanta", "state": "GA", "country": "United States"}}, "player": {"id": 4287822, "gamerTag": "Heart", "prefix": "", "user": {"location": {"city": "Atlanta", "state": "GA", "country": "United States"}}}}]}, "standing": {"placement": 2, "stats": {"score": {"value": -1}}}}], "games": null}, {"id": 92912732, "state": 3, "round": -4, "fullRoundText": "Losers Round 1", "completedAt": 1755823409, "winnerId": 21034836, "slots": [{"id": "92912732-0", "entrant": {"id": 21034836, "name": "GUMP2 | RoKu", "participants": [{"id": 19349846, "gamerTag": "RoKu", "prefix": "GUMP2", "user": {"location": {"city": "Peachtree Corners", "state": "GA", "country": "United States"}}, "player": {"id": 1107285, "gamerTag": "RoKu", "prefix": "TFT", "user": {"location": {"city": "Peachtree Corners", "state": "GA", "country": "United States"}}}}]}, "standing": {"placement": 1, "stats": {"score": {"value": null}}}}, {"id": "92912732-1", "entrant": {"id": 21006761, "name": "FNG | BEANMAN", "participants": [{"id": 19324328, "gamerTag": "BEANMAN", "prefix": "FNG", "user": {"location": {"city": null, "state": null, "country": "United States"}}, "player": {"id": 3024601, "gamerTag": "BEANMAN", "prefix": "FNG", "user": {"location": {"city": null, "state": null, "country": "United States"}}}}]}, "standing": {"placement": 2, "stats": {"score": {"value": -1}}}}], "games": null}, {"id": 92912734, "state": 3, "round": -4, "fullRoundText": "Losers Round 1", "completedAt": 1755823953, "winnerId": 21034255, "slots": [{"id": "92912734-0", "entrant": {"id": 21034255, "name": "EVC | N8borsclub", "participants": [{"id": 19349313, "gamerTag": "N8borsclub", "prefix": "EVC", "user": {"location": {"city": "Smyrna", "state": "GA", "country": "United States"}}, "player": {"id": 1137803, "gamerTag": "N8borsclub", "prefix": "EVC", "user": {"location": {"city": "Smyrna", "state": "GA", "country": "United States"}}}}]}, "standing": {"placement": 1, "stats": {"score": {"value": 2}}}}, {"id": "92912734-1", "entrant": {"id": 21034046, "name": "Tilted", "participants": [{"id": 19349108, "gamerTag": "Tilted", "prefix": null, "user": {"location": {"city": "Norcross", "state": "GA", "country": "United States"}}, "player": {"id": 2377635, "gamerTag": "Tilted", "prefix": null, "user": {"location": {"city": "Norcross", "state": "GA", "country": "United States"}}}}]}, "standing": {"placement": 2, "stats": {"score": {"value": 0}}}}], "games": null}, {"id": 92912736, "state": 3, "round": -4, "fullRoundText": "Losers Round 1", "completedAt": 1755823632, "winnerId": 21029181, "slots": [{"id": "92912736-0", "entrant": {"id": 21029181, "name": "Dingr", "participants": [{"id": 19344485, "gamerTag": "Dingr", "prefix": "", "user": {"location": {"city": "Jacksonville", "state": "FL", "country": "United States"}}, "player": {"id": 2229568, "gamerTag": "Dingr", "prefix": "", "user": {"location": {"city": "Jacksonville", "state": "FL", "country": "United States"}}}}]}, "standing": {"placement": 1, "stats": {"score": {"value": 2}}}}, {"id": "92912736-1", "entrant": {"id": 21034048, "name": "Par-i-dot Alpha", "participants": [{"id": 19349110, "gamerTag": "Par-i-dot Alpha", "prefix": "", "user": {"location": {"city": "Lithoina", "state": "GA", "country": "United States"}}, "player": {"id": 36418, "gamerTag": "Avalon", "prefix": "", "user": {"location": {"city": "Lithoina", "state": "GA", "country": "United States"}}}}]}, "standing": {"placement": 2, "stats": {"score": {"value": 0}}}}], "games": null}, {"id": 92912738, "state": 3, "round": -4, "fullRoundText": "Losers Round 1", "completedAt": 1755823745, "winnerId": 21032810, "slots": [{"id": "92912738-0", "entrant": {"id": 21032810, "name": "Plaid", "participants": [{"id": 19347929, "gamerTag": "Plaid", "prefix": "", "user": {"location": {"city": null, "state": null, "country": null}}, "player": {"id": 1452882, "gamerTag": "Plaid", "prefix": "", "user": {"location": {"city": null, "state": null, "country": null}}}}]}, "standing": {"placement": 1, "stats": {"score": {"value": 2}}}}, {"id": "92912738-1", "entrant": {"id": 21034114, "name": "Carracoastal", "participants": [{"id": 19349182, "gamerTag": "Carracoastal", "prefix": "", "user": {"location": {"city": "Atlanta", "state": "GA", "country": "United States"}}, "player": {"id": 2957113, "gamerTag": "Carracoastal", "prefix": "", "user": {"location": {"city": "Atlanta", "state": "GA", "country": "United States"}}}}]}, "standing": {"placement": 2, "stats": {"score": {"value": 0}}}}], "games": null}, {"id": 92912740, "state": 3, "round": -4, "fullRoundText": "Losers Round 1", "completedAt": 1755824246, "winnerId": 21033630, "slots": [{"id": "92912740-0", "entrant": {"id": 21033630, "name": "iGreg!", "participants": [{"id": 19348706, "gamerTag": "iGreg!", "prefix": "", "user": {"location": {"city": "FLOWERY BR", "state": "GA", "country": "United States"}}, "player": {"id": 509710, "gamerTag": "iGreg!", "prefix": "", "user": {"location": {"city": "FLOWERY BR", "state": "GA", "country": "United States"}}}}]}, "standing": {"placement": 1, "stats": {"score": {"value": 2}}}}, {"id": "92912740-1", "entrant": {"id": 21034153, "name": "Pleeploploop", "participants": [{"id": 19349213, "gamerTag": "Pleeploploop", "prefix": "", "user": {"location": {"city": "Snellville", "state": null, "country": "United States"}}, "player": {"id": 1739676, "gamerTag": "Pleeploploop", "prefix": "", "user": {"location": {"city": "Snellville", "state": null, "country": "United States"}}}}]}, "standing": {"placement": 2, "stats": {"score": {"value": 0}}}}], "games": null}, {"id": 92912742, "state": 3, "round": -4, "fullRoundText": "Losers Round 1", "completedAt": 1755823277, "winnerId": 21032656, "slots": [{"id": "92912742-0", "entrant": {"id": 21032656, "name": "GUMP2 | Woz but evil", "participants": [{"id": 19347774, "gamerTag": "Woz but evil", "prefix": "GUMP2", "user": {"location": {"city": "Avondale Estates", "state": "GA", "country": "United States"}}, "player": {"id": 225744, "gamerTag": "Z I C O", "prefix": "GUMP2", "user": {"location": {"city": "Avondale Estates", "state": "GA", "country": "United States"}}}}]}, "standing": {"placement": 1, "stats": {"score": {"value": 2}}}}, {"id": "92912742-1", "entrant": {"id": 21032692, "name": "AP | EdiblePine", "participants": [{"id": 19347815, "gamerTag": "EdiblePine", "prefix": "AP", "user": {"location": {"city": "Atlanta", "state": "GA", "country": "United States"}}, "player": {"id": 1648278, "gamerTag": "EdiblePine", "prefix": "AP", "user": {"location": {"city": "Atlanta", "state": "GA", "country": "United States"}}}}]}, "standing": {"placement": 2, "stats": {"score": {"value": 0}}}}], "games": null}, {"id": 92912584, "state": 3, "round": 1, "fullRoundText": "Winners Round 1", "completedAt": 1755823001, "winnerId": 21033546, "slots": [{"id": "92912584-0", "entrant": {"id": 21033546, "name": "4o4 | Sh33rZ", "participants": [{"id": 19348622, "gamerTag": "Sh33rZ", "prefix": "4o4", "user": {"location": {"city": "alpharetta", "state": "GA", "country": "United States"}}, "player": {"id": 3640465, "gamerTag": "Sh33rZ", "prefix": "4o4", "user": {"location": {"city": "alpharetta", "state": "GA", "country": "United States"}}}}]}, "standing": {"placement": 1, "stats": {"score": {"value": 2}}}}, {"id": "92912584-1", "entrant": {"id": 21034556, "name": "SIR | vivor", "participants": [{"id": 19349585, "gamerTag": "vivor", "prefix": "SIR", "user": {"location": {"city": "Atlanta", "state": "GA", "country": "United States"}}, "player": {"id": 3373990, "gamerTag": "vivor", "prefix": "SIR", "user": {"location": {"city": "Atlanta", "state": "GA", "country": "United States"}}}}]}, "standing": {"placement": 2, "stats": {"score": {"value": 1}}}}], "games": null}, {"id": 92912588, "state": 3, "round": 1, "fullRoundText": "Winners Round 1", "completedAt": 1755822508, "winnerId": 21032900, "slots": [{"id": "92912588-0", "entrant": {"id": 21029838, "name": "Heart", "participants": [{"id": 19345088, "gamerTag": "Heart", "prefix": "", "user": {"location": {"city": "Atlanta", "state": "GA", "country": "United States"}}, "player": {"id": 4287822, "gamerTag": "Heart", "prefix": "", "user": {"location": {"city": "Atlanta", "state": "GA", "country": "United States"}}}}]}, "standing": {"placement": 2, "stats": {"score": {"value": -1}}}}, {"id": "92912588-1", "entrant": {"id": 21032900, "name": "3betFold", "participants": [{"id": 19348019, "gamerTag": "3betFold", "prefix": "", "user": {"location": {"city": null, "state": null, "country": "United States"}}, "player": {"id": 4933502, "gamerTag": "3betFold", "prefix": "", "user": {"location": {"city": null, "state": null, "country": "United States"}}}}]}, "standing": {"placement": 1, "stats": {"score": {"value": null}}}}], "games": null}, {"id": 92912592, "state": 3, "round": 1, "fullRoundText": "Winners Round 1", "completedAt": 1755822497, "winnerId": 21034100, "slots": [{"id": "92912592-0", "entrant": {"id": 21034100, "name": "Zarek", "participants": [{"id": 19349168, "gamerTag": "Zarek", "prefix": "", "user": {"location": {"city": "Atlanta", "state": "GA", "country": "United States"}}, "player": {"id": 405682, "gamerTag": "Zarek", "prefix": "", "user": {"location": {"city": "Atlanta", "state": "GA", "country": "United States"}}}}]}, "standing": {"placement": 1, "stats": {"score": {"value": null}}}}, {"id": "92912592-1", "entrant": {"id": 21006761, "name": "FNG | BEANMAN", "participants": [{"id": 19324328, "gamerTag": "BEANMAN", "prefix": "FNG", "user": {"location": {"city": null, "state": null, "country": "United States"}}, "player": {"id": 3024601, "gamerTag": "BEANMAN", "prefix": "FNG", "user": {"location": {"city": null, "state": null, "country": "United States"}}}}]}, "standing": {"placement": 2, "stats": {"score": {"value": -1}}}}], "games": null}, {"id": 92912596, "state": 3, "round": 1, "fullRoundText": "Winners Round 1", "completedAt": 1755823062, "winnerId": 21032658, "slots": [{"id": "92912596-0", "entrant": {"id": 21032658, "name": "KSU | Subzero", "participants": [{"id": 19347776, "gamerTag": "Subzero", "prefix": "KSU", "user": {"location": {"city": "Acworth", "state": "GA", "country": "United States"}}, "player": {"id": 1808159, "gamerTag": "Subzero", "prefix": "KSU", "user": {"location": {"city": "Acworth", "state": "GA", "country": "United States"}}}}]}, "standing": {"placement": 1, "stats": {"score": {"value": 2}}}}, {"id": "92912596-1", "entrant": {"id": 21034046, "name": "Tilted", "participants": [{"id": 19349108, "gamerTag": "Tilted", "prefix": null, "user": {"location": {"city": "Norcross", "state": "GA", "country": "United States"}}, "player": {"id": 2377635, "gamerTag": "Tilted", "prefix": null, "user": {"location": {"city": "Norcross", "state": "GA", "country": "United States"}}}}]}, "standing": {"placement": 2, "stats": {"score": {"value": 1}}}}], "games": null}, {"id": 92912600, "state": 3, "round": 1, "fullRoundText": "Winners Round 1", "completedAt": 1755822772, "winnerId": 21032999, "slots": [{"id": "92912600-0", "entrant": {"id": 21032999, "name": "promamamia", "participants": [{"id": 19348111, "gamerTag": "promamamia", "prefix": "", "user": {"location": {"city": "Alpharetta", "state": "GA", "country": "United States"}}, "player": {"id": 3548468, "gamerTag": "promamamia", "prefix": "", "user": {"location": {"city": "Alpharetta", "state": "GA", "country": "United States"}}}}]}, "standing": {"placement": 1, "stats": {"score": {"value": 2}}}}, {"id": "92912600-1", "entrant": {"id": 21034048, "name": "Par-i-dot Alpha", "participants": [{"id": 19349110, "gamerTag": "Par-i-dot Alpha", "prefix": "", "user": {"location": {"city": "Lithoina", "state": "GA", "country": "United States"}}, "player": {"id": 36418, "gamerTag": "Avalon", "prefix": "", "user": {"location": {"city": "Lithoina", "state": "GA", "country": "United States"}}}}]}, "standing": {"placement": 2, "stats": {"score": {"value": 0}}}}], "games": null}]}}}