{"event": {"sets": {"pageInfo": {"totalPages": 2, "total": 22}, "nodes": [{"id": 91550197, "state": 3, "round": -4, "fullRoundText": "Losers Round 1", "completedAt": 1752889360, "winnerId": 20731844, "slots": [{"id": "91550197-0", "entrant": {"id": 20731844, "name": "Mouse", "participants": [{"id": 19079387, "gamerTag": "Mouse", "prefix": "", "user": {"location": {"city": "Atlanta", "state": "GA", "country": "United States"}}, "player": {"id": 264732, "gamerTag": "Mouse", "prefix": "", "user": {"location": {"city": "Atlanta", "state": "GA", "country": "United States"}}}}]}, "standing": {"placement": 1, "stats": {"score": {"value": null}}}}, {"id": "91550197-1", "entrant": {"id": 20732679, "name": "Ronan", "participants": [{"id": 19080097, "gamerTag": "Ronan", "prefix": "", "user": {"location": {"city": "Atlanta", "state": "GA", "country": "United States"}}, "player": {"id": 147384, "gamerTag": "Ronan", "prefix": "", "user": {"location": {"city": "Atlanta", "state": "GA", "country": "United States"}}}}]}, "standing": {"placement": 2, "stats": {"score": {"value": -1}}}}], "games": null}, {"id": 91550198, "state": 3, "round": -4, "fullRoundText": "Losers Round 1", "completedAt": 1752890062, "winnerId": 20733757, "slots": [{"id": "91550198-0", "entrant": {"id": 20731712, "name": "TPS | cryptonic", "participants": [{"id": 19079269, "gamerTag": "cryptonic", "prefix": "TPS", "user": {"location": {"city": "Kennesaw", "state": "GA", "country": "United States"}}, "player": {"id": 3422494, "gamerTag": "$CAITLIN", "prefix": "TPS", "user": {"location": {"city": "Kennesaw", "state": "GA", "country": "United States"}}}}]}, "standing": {"placement": 2, "stats": {"score": {"value": 0}}}}, {"id": "91550198-1", "entrant": {"id": 20733757, "name": "MSU | transrights420", "participants": [{"id": 19081006, "gamerTag": "transrights420", "prefix": "MSU", "user": {"location": {"city": "Starkville", "state": "MS", "country": "United States"}}, "player": {"id": 1479899, "gamerTag": "transrights420", "prefix": "", "user": {"location": {"city": "Starkville", "state": "MS", "country": "United States"}}}}]}, "standing": {"placement": 1, "stats": {"score": {"value": 3}}}}], "games": null}, {"id": 91550199, "state": 3, "round": -4, "fullRoundText": "Losers Round 1", "completedAt": 1752889747, "winnerId": 20693247, "slots": [{"id": "91550199-0", "entrant": {"id": 20693247, "name": "noided", "participants": [{"id": 19045862, "gamerTag": "noided", "prefix": "", "user": {"location": {"city": "Atlanta", "state": "GA", "country": "United States"}}, "player": {"id": 2586521, "gamerTag": "noided", "prefix": "", "user": {"location": {"city": "Atlanta", "state": "GA", "country": "United States"}}}}]}, "standing": {"placement": 1, "stats": {"score": {"value": 3}}}}, {"id": "91550199-1", "entrant": {"id": 20731856, "name": "2BEERSANDIMTRON", "participants": [{"id": 19079397, "gamerTag": "2BEERSANDIMTRON", "prefix": null, "user": {"location": {"city": null, "state": "GA", "country": "United States"}}, "player": {"id": 3041721, "gamerTag": "2BEERSANDIMTRON", "prefix": null, "user": {"location": {"city": null, "state": "GA", "country": "United States"}}}}]}, "standing": {"placement": 2, "stats": {"score": {"value": 0}}}}], "games": null}, {"id": 91550160, "state": 3, "round": 1, "fullRoundText": "Winners Round 1", "completedAt": 1752888249, "winnerId": 20693247, "slots": [{"id": "91550160-0", "entrant": {"id": 20693247, "name": "noided", "participants": [{"id": 19045862, "gamerTag": "noided", "prefix": "", "user": {"location": {"city": "Atlanta", "state": "GA", "country": "United States"}}, "player": {"id": 2586521, "gamerTag": "noided", "prefix": "", "user": {"location": {"city": "Atlanta", "state": "GA", "country": "United States"}}}}]}, "standing": {"placement": 1, "stats": {"score": {"value": 3}}}}, {"id": "91550160-1", "entrant": {"id": 20734915, "name": "tommy samus", "participants": [{"id": 19081913, "gamerTag": "tommy samus", "prefix": "", "user": null, "player": {"id": 4873753, "gamerTag": "tommy samus", "prefix": "", "user": null}}]}, "standing": {"placement": 2, "stats": {"score": {"value": 1}}}}], "games": null}, {"id": 91550162, "state": 3, "round": 1, "fullRoundText": "Winners Round 1", "completedAt": 1752888394, "winnerId": 20731712, "slots": [{"id": "91550162-0", "entrant": {"id": 20732679, "name": "Ronan", "participants": [{"id": 19080097, "gamerTag": "Ronan", "prefix": "", "user": {"location": {"city": "Atlanta", "state": "GA", "country": "United States"}}, "player": {"id": 147384, "gamerTag": "Ronan", "prefix": "", "user": {"location": {"city": "Atlanta", "state": "GA", "country": "United States"}}}}]}, "standing": {"placement": 2, "stats": {"score": {"value": -1}}}}, {"id": "91550162-1", "entrant": {"id": 20731712, "name": "TPS | cryptonic", "participants": [{"id": 19079269, "gamerTag": "cryptonic", "prefix": "TPS", "user": {"location": {"city": "Kennesaw", "state": "GA", "country": "United States"}}, "player": {"id": 3422494, "gamerTag": "$CAITLIN", "prefix": "TPS", "user": {"location": {"city": "Kennesaw", "state": "GA", "country": "United States"}}}}]}, "standing": {"placement": 1, "stats": {"score": {"value": null}}}}], "games": null}, {"id": 91550164, "state": 3, "round": 1, "fullRoundText": "Winners Round 1", "completedAt": 1752887847, "winnerId": 20731844, "slots": [{"id": "91550164-0", "entrant": {"id": 20731844, "name": "Mouse", "participants": [{"id": 19079387, "gamerTag": "Mouse", "prefix": "", "user": {"location": {"city": "Atlanta", "state": "GA", "country": "United States"}}, "player": {"id": 264732, "gamerTag": "Mouse", "prefix": "", "user": {"location": {"city": "Atlanta", "state": "GA", "country": "United States"}}}}]}, "standing": {"placement": 1, "stats": {"score": {"value": 3}}}}, {"id": "91550164-1", "entrant": {"id": 20733757, "name": "MSU | transrights420", "participants": [{"id": 19081006, "gamerTag": "transrights420", "prefix": "MSU", "user": {"location": {"city": "Starkville", "state": "MS", "country": "United States"}}, "player": {"id": 1479899, "gamerTag": "transrights420", "prefix": "", "user": {"location": {"city": "Starkville", "state": "MS", "country": "United States"}}}}]}, "standing": {"placement": 2, "stats": {"score": {"value": 0}}}}], "games": null}, {"id": 91550166, "state": 3, "round": 1, "fullRoundText": "Winners Round 1", "completedAt": 1752888768, "winnerId": 20733161, "slots": [{"id": "91550166-0", "entrant": {"id": 20733161, "name": "citizendog", "participants": [{"id": 19080518, "gamerTag": "citizendog", "prefix": "", "user": {"location": {"city": "Monroe", "state": "GA", "country": "United States"}}, "player": {"id": 176325, "gamerTag": "citizendog", "prefix": "", "user": {"location": {"city": "Monroe", "state": "GA", "country": "United States"}}}}]}, "standing": {"placement": 1, "stats": {"score": {"value": 3}}}}, {"id": "91550166-1", "entrant": {"id": 20731856, "name": "2BEERSANDIMTRON", "participants": [{"id": 19079397, "gamerTag": "2BEERSANDIMTRON", "prefix": null, "user": {"location": {"city": null, "state": "GA", "country": "United States"}}, "player": {"id": 3041721, "gamerTag": "2BEERSANDIMTRON", "prefix": null, "user": {"location": {"city": null, "state": "GA", "country": "United States"}}}}]}, "standing": {"placement": 2, "stats": {"score": {"value": 0}}}}], "games": null}]}}}