{"phase": {"seeds": {"pageInfo": {"totalPages": 1, "total": 41}, "nodes": [{"id": 36679147, "seedNum": 1, "entrant": {"id": 21312865, "name": "omega", "participants": [{"id": 19593376, "gamerTag": "omega", "prefix": "", "user": {"location": {"city": "Suwanee", "state": "GA", "country": "United States"}}, "player": {"id": 24638, "gamerTag": "omega", "prefix": "", "user": {"location": {"city": "Suwanee", "state": "GA", "country": "United States"}}}}]}}, {"id": 36664115, "seedNum": 2, "entrant": {"id": 21301530, "name": "DGS | spickles", "participants": [{"id": 19583587, "gamerTag": "spickles", "prefix": "DGS", "user": {"location": {"city": null, "state": null, "country": "United States"}}, "player": {"id": 1154793, "gamerTag": "spickles", "prefix": "DGS", "user": {"location": {"city": null, "state": null, "country": "United States"}}}}]}}, {"id": 36629202, "seedNum": 4, "entrant": {"id": 21276297, "name": "Tobe", "participants": [{"id": 19563123, "gamerTag": "Tobe", "prefix": "", "user": {"location": {"city": "Buford", "state": "GA", "country": "United States"}}, "player": {"id": 1646132, "gamerTag": "Tobe", "prefix": "", "user": {"location": {"city": "Buford", "state": "GA", "country": "United States"}}}}]}}, {"id": 36678594, "seedNum": 6, "entrant": {"id": 21312371, "name": "everyone else", "participants": [{"id": 19592924, "gamerTag": "everyone else", "prefix": "", "user": {"location": {"city": "Alpharetta", "state": "GA", "country": "United States"}}, "player": {"id": 1253838, "gamerTag": "everyone else", "prefix": "", "user": {"location": {"city": "Alpharetta", "state": "GA", "country": "United States"}}}}]}}, {"id": 36679460, "seedNum": 10, "entrant": {"id": 21313092, "name": "GUMP2 | ToxiC", "participants": [{"id": 19593569, "gamerTag": "ToxiC", "prefix": "GUMP2", "user": {"location": {"city": "Marietta", "state": "GA", "country": "United States"}}, "player": {"id": 2585804, "gamerTag": "ToxiC", "prefix": "GUMP2", "user": {"location": {"city": "Marietta", "state": "GA", "country": "United States"}}}}]}}, {"id": 36673149, "seedNum": 13, "entrant": {"id": 21308001, "name": "RM | GUMP2 | Kr!stal:0", "participants": [{"id": 19589187, "gamerTag": "Kr!stal:0", "prefix": "RM | GUMP2", "user": {"location": {"city": "Lawrenceville", "state": "GA", "country": "United States"}}, "player": {"id": 2409815, "gamerTag": "AO ASHI SEASON 2 2026", "prefix": "RM | GUMP2", "user": {"location": {"city": "Lawrenceville", "state": "GA", "country": "United States"}}}}]}}, {"id": 36676622, "seedNum": 8, "entrant": {"id": 21310563, "name": "GUMP2 | Spider", "participants": [{"id": 19591391, "gamerTag": "Spider", "prefix": "GUMP2", "user": {"location": {"city": "Atlanta", "state": "GA", "country": "United States"}}, "player": {"id": 691176, "gamerTag": "Spider", "prefix": "GUMP2", "user": {"location": {"city": "Atlanta", "state": "GA", "country": "United States"}}}}]}}, {"id": 36673448, "seedNum": 20, "entrant": {"id": 21308247, "name": "GUMP2 | Woz but evil", "participants": [{"id": 19589414, "gamerTag": "Woz but evil", "prefix": "GUMP2", "user": {"location": {"city": "Avondale Estates", "state": "GA", "country": "United States"}}, "player": {"id": 225744, "gamerTag": "Z I C O", "prefix": "GUMP2", "user": {"location": {"city": "Avondale Estates", "state": "GA", "country": "United States"}}}}]}}, {"id": 36678098, "seedNum": 3, "entrant": {"id": 21311915, "name": "Ave~", "participants": [{"id": 19592493, "gamerTag": "Ave~", "prefix": "", "user": {"location": {"city": null, "state": null, "country": null}}, "player": {"id": 38830, "gamerTag": "Ave~", "prefix": "", "user": {"location": {"city": null, "state": null, "country": null}}}}]}}, {"id": 36673059, "seedNum": 7, "entrant": {"id": 21307959, "name": "FS | GUMP2 | Key", "participants": [{"id": 19589150, "gamerTag": "Key", "prefix": "FS | GUMP2", "user": {"location": {"city": "Atlanta", "state": "GA", "country": "United States"}}, "player": {"id": 327906, "gamerTag": "Key", "prefix": "FS | GUMP2", "user": {"location": {"city": "Atlanta", "state": "GA", "country": "United States"}}}}]}}, {"id": 36679446, "seedNum": 9, "entrant": {"id": 21313078, "name": "Grey", "participants": [{"id": 19593553, "gamerTag": "Grey", "prefix": null, "user": {"location": {"city": "mableton", "state": "GA", "country": "United States"}}, "player": {"id": 2634169, "gamerTag": "Grey", "prefix": null, "user": {"location": {"city": "mableton", "state": "GA", "country": "United States"}}}}]}}, {"id": 36679011, "seedNum": 12, "entrant": {"id": 21312759, "name": "Barbashop", "participants": [{"id": 19593289, "gamerTag": "Barbashop", "prefix": "", "user": {"location": {"city": null, "state": null, "country": null}}, "player": {"id": 2537853, "gamerTag": "Barbashop", "prefix": "", "user": {"location": {"city": null, "state": null, "country": null}}}}]}}, {"id": 36679581, "seedNum": 16, "entrant": {"id": 21313183, "name": "GUMP2 | JankTrees!", "participants": [{"id": 19593637, "gamerTag": "JankTrees!", "prefix": "GUMP2", "user": {"location": {"city": "Cartersville", "state": "GA", "country": "United States"}}, "player": {"id": 35695, "gamerTag": "JankTrees!", "prefix": "GUMP2", "user": {"location": {"city": "Cartersville", "state": "GA", "country": "United States"}}}}]}}, {"id": 36676337, "seedNum": 17, "entrant": {"id": 21310283, "name": "pristinetao", "participants": [{"id": 19591212, "gamerTag": "pristinetao", "prefix": "", "user": {"location": {"city": null, "state": null, "country": null}}, "player": {"id": 2721225, "gamerTag": "pristinetao", "prefix": "", "user": {"location": {"city": null, "state": null, "country": null}}}}]}}, {"id": 36678862, "seedNum": 21, "entrant": {"id": 21312623, "name": "RM | Twist!?", "participants": [{"id": 19593157, "gamerTag": "Twist!?", "prefix": "RM", "user": {"location": {"city": "Marietta", "state": "GA", "country": "United States"}}, "player": {"id": 1764076, "gamerTag": "Twist!?", "prefix": "RM", "user": {"location": {"city": "Marietta", "state": "GA", "country": "United States"}}}}]}}, {"id": 36678727, "seedNum": 27, "entrant": {"id": 21312486, "name": "Rain~", "participants": [{"id": 19593029, "gamerTag": "Rain~", "prefix": null, "user": {"location": {"city": "Atlanta", "state": "GA", "country": "United States"}}, "player": {"id": 4240164, "gamerTag": "Rain~", "prefix": null, "user": {"location": {"city": "Atlanta", "state": "GA", "country": "United States"}}}}]}}, {"id": 36679365, "seedNum": 11, "entrant": {"id": 21313046, "name": "iGreg!", "participants": [{"id": 19593521, "gamerTag": "iGreg!", "prefix": "", "user": {"location": {"city": "FLOWERY BR", "state": "GA", "country": "United States"}}, "player": {"id": 509710, "gamerTag": "iGreg!", "prefix": "", "user": {"location": {"city": "FLOWERY BR", "state": "GA", "country": "United States"}}}}]}}, {"id": 36679282, "seedNum": 14, "entrant": {"id": 21313008, "name": "MilesisBae", "participants": [{"id": 19593488, "gamerTag": "MilesisBae", "prefix": "", "user": {"location": {"city": "Richmond", "state": "VA", "country": "United States"}}, "player": {"id": 1218383, "gamerTag": "MilesisBae", "prefix": "", "user": {"location": {"city": "Richmond", "state": "VA", "country": "United States"}}}}]}}, {"id": 36678134, "seedNum": 15, "entrant": {"id": 21311951, "name": "KUMA| | Steamedklams", "participants": [{"id": 19592523, "gamerTag": "Steamedklams", "prefix": "KUMA|", "user": {"location": {"city": null, "state": null, "country": "United States"}}, "player": {"id": 997285, "gamerTag": "Steamedklams", "prefix": "KUMA|", "user": {"location": {"city": null, "state": null, "country": "United States"}}}}]}}, {"id": 36679748, "seedNum": 23, "entrant": {"id": 21313349, "name": "V2Kwame", "participants": [{"id": 19593786, "gamerTag": "V2Kwame", "prefix": "", "user": {"location": {"city": "Dallas", "state": "GA", "country": "United States"}}, "player": {"id": 2764337, "gamerTag": "V2Kwame", "prefix": "", "user": {"location": {"city": "Dallas", "state": "GA", "country": "United States"}}}}]}}, {"id": 36678701, "seedNum": 24, "entrant": {"id": 21312460, "name": "red dot", "participants": [{"id": 19593004, "gamerTag": "red dot", "prefix": "", "user": {"location": {"city": "Milton", "state": "GA", "country": "United States"}}, "player": {"id": 1812177, "gamerTag": "red dot", "prefix": "", "user": {"location": {"city": "Milton", "state": "GA", "country": "United States"}}}}]}}, {"id": 36680110, "seedNum": 28, "entrant": {"id": 21313584, "name": "UTO|WhaLey | Kingwifi", "participants": [{"id": 19593965, "gamerTag": "Kingwifi", "prefix": "UTO|WhaLey", "user": {"location": {"city": "Stone Mountain", "state": "GA", "country": "United States"}}, "player": {"id": 2016149, "gamerTag": "Whaley", "prefix": "KSU|UTO|BLZE", "user": {"location": {"city": "Stone Mountain", "state": "GA", "country": "United States"}}}}]}}, {"id": 36676181, "seedNum": 30, "entrant": {"id": 21310131, "name": "KSU | colorful\u029a\u025e", "participants": [{"id": 19591132, "gamerTag": "colorful\u029a\u025e", "prefix": "KSU", "user": {"location": {"city": "Kennesaw", "state": "GA", "country": "United States"}}, "player": {"id": 1783074, "gamerTag": "colorful\u029a\u025e", "prefix": "KSU | RM", "user": {"location": {"city": "Kennesaw", "state": "GA", "country": "United States"}}}}]}}, {"id": 36679660, "seedNum": 34, "entrant": {"id": 21313262, "name": "SaggyMilkJug", "participants": [{"id": 19593707, "gamerTag": "SaggyMilkJug", "prefix": "", "user": {"location": {"city": "Atlanta", "state": "GA", "country": "United States"}}, "player": {"id": 4651404, "gamerTag": "SaggyMilkJug", "prefix": "", "user": {"location": {"city": "Atlanta", "state": "GA", "country": "United States"}}}}]}}, {"id": 36679853, "seedNum": 5, "entrant": {"id": 21313442, "name": "KumaDusk", "participants": [{"id": 19593863, "gamerTag": "KumaDusk", "prefix": "", "user": {"location": {"city": "Lawrenceville", "state": "GA", "country": "United States"}}, "player": {"id": 253909, "gamerTag": "KumaDusk", "prefix": "", "user": {"location": {"city": "Lawrenceville", "state": "GA", "country": "United States"}}}}]}}, {"id": 36677532, "seedNum": 19, "entrant": {"id": 21311432, "name": "UGA | Akamos", "participants": [{"id": 19592066, "gamerTag": "Akamos", "prefix": "UGA", "user": {"location": {"city": "Kennesaw", "state": "GA", "country": "United States"}}, "player": {"id": 2233683, "gamerTag": "Akamos", "prefix": "UGA", "user": {"location": {"city": "Kennesaw", "state": "GA", "country": "United States"}}}}]}}, {"id": 36675097, "seedNum": 29, "entrant": {"id": 21309206, "name": "carlop", "participants": [{"id": 19590330, "gamerTag": "carlop", "prefix": null, "user": {"location": {"city": "Johns Creek", "state": "GA", "country": "United States"}}, "player": {"id": 3431919, "gamerTag": "carlop", "prefix": null, "user": {"location": {"city": "Johns Creek", "state": "GA", "country": "United States"}}}}]}}, {"id": 36676201, "seedNum": 32, "entrant": {"id": 21310150, "name": "KSU | Subzero", "participants": [{"id": 19591143, "gamerTag": "Subzero", "prefix": "KSU", "user": {"location": {"city": "Acworth", "state": "GA", "country": "United States"}}, "player": {"id": 1808159, "gamerTag": "Subzero", "prefix": "KSU", "user": {"location": {"city": "Acworth", "state": "GA", "country": "United States"}}}}]}}, {"id": 36676238, "seedNum": 33, "entrant": {"id": 21310171, "name": "RM | Prince Peach", "participants": [{"id": 19591154, "gamerTag": "Prince Peach", "prefix": "RM", "user": {"location": {"city": "Stone Mountain", "state": "GA", "country": "United States"}}, "player": {"id": 3003562, "gamerTag": "Prince Peach", "prefix": "RM", "user": {"location": {"city": "Stone Mountain", "state": "GA", "country": "United States"}}}}]}}, {"id": 36677098, "seedNum": 37, "entrant": {"id": 21311016, "name": "R0CK", "participants": [{"id": 19591732, "gamerTag": "R0CK", "prefix": "", "user": {"location": {"city": "Augusta", "state": "GA", "country": "United States"}}, "player": {"id": 1792035, "gamerTag": "R0CK", "prefix": "", "user": {"location": {"city": "Augusta", "state": "GA", "country": "United States"}}}}]}}, {"id": 36679049, "seedNum": 39, "entrant": {"id": 21312780, "name": "jack | jazzman", "participants": [{"id": 19593309, "gamerTag": "jazzman", "prefix": "jack", "user": {"location": {"city": "Athens", "state": "GA", "country": "United States"}}, "player": {"id": 3883272, "gamerTag": "jazzman", "prefix": "jack", "user": {"location": {"city": "Athens", "state": "GA", "country": "United States"}}}}]}}, {"id": 36677136, "seedNum": 40, "entrant": {"id": 21311055, "name": "AP | EdiblePine", "participants": [{"id": 19591761, "gamerTag": "EdiblePine", "prefix": "AP", "user": {"location": {"city": "Atlanta", "state": "GA", "country": "United States"}}, "player": {"id": 1648278, "gamerTag": "EdiblePine", "prefix": "AP", "user": {"location": {"city": "Atlanta", "state": "GA", "country": "United States"}}}}]}}, {"id": 36678988, "seedNum": 18, "entrant": {"id": 21312747, "name": "EVC | N8borsclub", "participants": [{"id": 19593278, "gamerTag": "N8borsclub", "prefix": "EVC", "user": {"location": {"city": "Smyrna", "state": "GA", "country": "United States"}}, "player": {"id": 1137803, "gamerTag": "N8borsclub", "prefix": "EVC", "user": {"location": {"city": "Smyrna", "state": "GA", "country": "United States"}}}}]}}, {"id": 36678486, "seedNum": 22, "entrant": {"id": 21312272, "name": "Typical!", "participants": [{"id": 19592813, "gamerTag": "Typical!", "prefix": "", "user": {"location": {"city": "Cumming", "state": "GA", "country": "United States"}}, "player": {"id": 1227171, "gamerTag": "Typical!", "prefix": "", "user": {"location": {"city": "Cumming", "state": "GA", "country": "United States"}}}}]}}, {"id": 36679181, "seedNum": 25, "entrant": {"id": 21312896, "name": "Mentayy", "participants": [{"id": 19593393, "gamerTag": "Mentayy", "prefix": "", "user": {"location": {"city": null, "state": "GA", "country": "United States"}}, "player": {"id": 2586911, "gamerTag": "Mentayy", "prefix": "", "user": {"location": {"city": null, "state": "GA", "country": "United States"}}}}]}}, {"id": 36671758, "seedNum": 26, "entrant": {"id": 21307019, "name": "SpicyFlour", "participants": [{"id": 19588359, "gamerTag": "SpicyFlour", "prefix": "", "user": {"location": {"city": null, "state": null, "country": "United States"}}, "player": {"id": 2864607, "gamerTag": "SpicyFlour", "prefix": "", "user": {"location": {"city": null, "state": null, "country": "United States"}}}}]}}, {"id": 36678084, "seedNum": 31, "entrant": {"id": 21311901, "name": "Bagel", "participants": [{"id": 19592480, "gamerTag": "Bagel", "prefix": "", "user": {"location": {"city": "Atlanta", "state": "GA", "country": "United States"}}, "player": {"id": 1794753, "gamerTag": "Bagel", "prefix": "", "user": {"location": {"city": "Atlanta", "state": "GA", "country": "United States"}}}}]}}, {"id": 36677207, "seedNum": 35, "entrant": {"id": 21311125, "name": "promamamia", "participants": [{"id": 19591813, "gamerTag": "promamamia", "prefix": "", "user": {"location": {"city": "Alpharetta", "state": "GA", "country": "United States"}}, "player": {"id": 3548468, "gamerTag": "promamamia", "prefix": "", "user": {"location": {"city": "Alpharetta", "state": "GA", "country": "United States"}}}}]}}, {"id": 36678750, "seedNum": 36, "entrant": {"id": 21312509, "name": "4o4 | Sh33rZ", "participants": [{"id": 19593053, "gamerTag": "Sh33rZ", "prefix": "4o4", "user": {"location": {"city": "alpharetta", "state": "GA", "country": "United States"}}, "player": {"id": 3640465, "gamerTag": "Sh33rZ", "prefix": "4o4", "user": {"location": {"city": "alpharetta", "state": "GA", "country": "United States"}}}}]}}, {"id": 36679046, "seedNum": 38, "entrant": {"id": 21312776, "name": "Avalon", "participants": [{"id": 19593304, "gamerTag": "Avalon", "prefix": "", "user": {"location": {"city": "Lithoina", "state": "GA", "country": "United States"}}, "player": {"id": 36418, "gamerTag": "Avalon", "prefix": "", "user": {"location": {"city": "Lithoina", "state": "GA", "country": "United States"}}}}]}}, {"id": 36679763, "seedNum": 41, "entrant": {"id": 21313364, "name": "Chudquest", "participants": [{"id": 19593794, "gamerTag": "Chudquest", "prefix": null, "user": {"location": {"city": "Dallas", "state": "GA", "country": "United States"}}, "player": {"id": 4764587, "gamerTag": "Chudquest", "prefix": null, "user": {"location": {"city": "Dallas", "state": "GA", "country": "United States"}}}}]}}]}}}