{"phase": {"seeds": {"pageInfo": {"totalPages": 1, "total": 25}, "nodes": [{"id": 36666171, "seedNum": 1, "entrant": {"id": 21303180, "name": "Ghost | NOMAR", "participants": [{"id": 19585076, "gamerTag": "NOMAR", "prefix": "Ghost", "user": {"location": {"city": "Jonesboro", "state": "GA", "country": "United States"}}, "player": {"id": 427989, "gamerTag": "NOMAR", "prefix": "Ghost", "user": {"location": {"city": "Jonesboro", "state": "GA", "country": "United States"}}}}]}}, {"id": 36666046, "seedNum": 4, "entrant": {"id": 21303127, "name": "JJBREEZE", "participants": [{"id": 19585033, "gamerTag": "JJBREEZE", "prefix": "", "user": {"location": {"city": "Atlanta", "state": "GA", "country": "United States"}}, "player": {"id": 688460, "gamerTag": "JJBREEZE", "prefix": "", "user": {"location": {"city": "Atlanta", "state": "GA", "country": "United States"}}}}]}}, {"id": 36658258, "seedNum": 7, "entrant": {"id": 21296830, "name": "BOLT | KhalRhaego", "participants": [{"id": 19579594, "gamerTag": "KhalRhaego", "prefix": "BOLT", "user": {"location": {"city": "Jonesboro", "state": "GA", "country": "United States"}}, "player": {"id": 4076327, "gamerTag": "KhalRhaego", "prefix": "BOLT", "user": {"location": {"city": "Jonesboro", "state": "GA", "country": "United States"}}}}]}}, {"id": 36664891, "seedNum": 6, "entrant": {"id": 21302185, "name": "O.N.2", "participants": [{"id": 19584200, "gamerTag": "O.N.2", "prefix": "", "user": {"location": {"city": "SNELLVILLE", "state": "GA", "country": "United States"}}, "player": {"id": 1042436, "gamerTag": "O.N.2", "prefix": "", "user": {"location": {"city": "SNELLVILLE", "state": "GA", "country": "United States"}}}}]}}, {"id": 36665045, "seedNum": 2, "entrant": {"id": 21302307, "name": "Pokchop", "participants": [{"id": 19584326, "gamerTag": "Pokchop", "prefix": "", "user": {"location": {"city": "Atlanta", "state": "GA", "country": "United States"}}, "player": {"id": 150402, "gamerTag": "Pokchop", "prefix": "", "user": {"location": {"city": "Atlanta", "state": "GA", "country": "United States"}}}}]}}, {"id": 36664289, "seedNum": 5, "entrant": {"id": 21301646, "name": "duetosideeffects", "participants": [{"id": 19583684, "gamerTag": "duetosideeffects", "prefix": "", "user": {"location": {"city": "Atlanta", "state": "GA", "country": "United States"}}, "player": {"id": 924041, "gamerTag": "duetosideeffects", "prefix": "", "user": {"location": {"city": "Atlanta", "state": "GA", "country": "United States"}}}}]}}, {"id": 36657630, "seedNum": 3, "entrant": {"id": 21296457, "name": "Sativicaa", "participants": [{"id": 19579214, "gamerTag": "Sativicaa", "prefix": "", "user": {"location": {"city": "Atlanta", "state": null, "country": "United States"}}, "player": {"id": 1706244, "gamerTag": "Sativicaa", "prefix": "", "user": {"location": {"city": "Atlanta", "state": null, "country": "United States"}}}}]}}, {"id": 36665788, "seedNum": 8, "entrant": {"id": 21302954, "name": "Iso.Dgaf", "participants": [{"id": 19584895, "gamerTag": "Iso.Dgaf", "prefix": null, "user": {"location": {"city": "Acworth", "state": "GA", "country": "United States"}}, "player": {"id": 4285541, "gamerTag": "Iso.Dgaf", "prefix": null, "user": {"location": {"city": "Acworth", "state": "GA", "country": "United States"}}}}]}}, {"id": 36653775, "seedNum": 9, "entrant": {"id": 21294323, "name": "Kuugo", "participants": [{"id": 19577186, "gamerTag": "Kuugo", "prefix": null, "user": {"location": {"city": "Charlotte", "state": null, "country": "United States"}}, "player": {"id": 1025486, "gamerTag": "Kuugo", "prefix": null, "user": {"location": {"city": "Charlotte", "state": null, "country": "United States"}}}}]}}, {"id": 36665880, "seedNum": 10, "entrant": {"id": 21303005, "name": "InIt2WynneIt", "participants": [{"id": 19584931, "gamerTag": "InIt2WynneIt", "prefix": "", "user": {"location": {"city": "LAWRENCEVILLE", "state": "GA", "country": "United States"}}, "player": {"id": 260407, "gamerTag": "InIt2WynneIt", "prefix": "", "user": {"location": {"city": "LAWRENCEVILLE", "state": "GA", "country": "United States"}}}}]}}, {"id": 36663317, "seedNum": 13, "entrant": {"id": 21300841, "name": "Greed", "participants": [{"id": 19583123, "gamerTag": "Greed", "prefix": "", "user": {"location": {"city": "Atlanta", "state": "GA", "country": "United States"}}, "player": {"id": 907329, "gamerTag": "Greed", "prefix": "", "user": {"location": {"city": "Atlanta", "state": "GA", "country": "United States"}}}}]}}, {"id": 36659095, "seedNum": 14, "entrant": {"id": 21297467, "name": "evosel", "participants": [{"id": 19580184, "gamerTag": "evosel", "prefix": "", "user": {"location": {"city": "Lithonia", "state": "GA", "country": "United States"}}, "player": {"id": 2926943, "gamerTag": "evosel", "prefix": "", "user": {"location": {"city": "Lithonia", "state": "GA", "country": "United States"}}}}]}}, {"id": 36666031, "seedNum": 11, "entrant": {"id": 21303112, "name": "StrataJay", "participants": [{"id": 19585020, "gamerTag": "StrataJay", "prefix": "", "user": {"location": {"city": "Grayson", "state": "GA", "country": "United States"}}, "player": {"id": 1112189, "gamerTag": "StrataJay", "prefix": "", "user": {"location": {"city": "Grayson", "state": "GA", "country": "United States"}}}}]}}, {"id": 36665291, "seedNum": 12, "entrant": {"id": 21302532, "name": "4o4 | ToastyATL", "participants": [{"id": 19584542, "gamerTag": "ToastyATL", "prefix": "4o4", "user": {"location": {"city": "Atlanta", "state": "GA", "country": "United States"}}, "player": {"id": 368352, "gamerTag": "ToastyATL", "prefix": "4o4", "user": {"location": {"city": "Atlanta", "state": "GA", "country": "United States"}}}}]}}, {"id": 36666173, "seedNum": 15, "entrant": {"id": 21303182, "name": "REHOO", "participants": [{"id": 19585077, "gamerTag": "REHOO", "prefix": null, "user": {"location": {"city": "jonesboro", "state": "GA", "country": "United States"}}, "player": {"id": 427983, "gamerTag": "REHOO", "prefix": null, "user": {"location": {"city": "jonesboro", "state": "GA", "country": "United States"}}}}]}}, {"id": 36663694, "seedNum": 17, "entrant": {"id": 21301128, "name": "Bronzjo", "participants": [{"id": 19583320, "gamerTag": "Bronzjo", "prefix": null, "user": {"location": {"city": "Lula", "state": "GA", "country": "United States"}}, "player": {"id": 4622459, "gamerTag": "Bronzjo", "prefix": null, "user": {"location": {"city": "Lula", "state": "GA", "country": "United States"}}}}]}}, {"id": 36664950, "seedNum": 16, "entrant": {"id": 21302249, "name": "PrimeStone", "participants": [{"id": 19584272, "gamerTag": "PrimeStone", "prefix": null, "user": {"location": {"city": "Loganville", "state": "GA", "country": "United States"}}, "player": {"id": 1130909, "gamerTag": "PrimeStone", "prefix": null, "user": {"location": {"city": "Loganville", "state": "GA", "country": "United States"}}}}]}}, {"id": 36663401, "seedNum": 18, "entrant": {"id": 21300909, "name": "Macho_Franchise", "participants": [{"id": 19583188, "gamerTag": "Macho_Franchise", "prefix": null, "user": {"location": {"city": "Marietta", "state": "GA", "country": "United States"}}, "player": {"id": 874463, "gamerTag": "Macho_Franchise", "prefix": null, "user": {"location": {"city": "Marietta", "state": "GA", "country": "United States"}}}}]}}, {"id": 36665187, "seedNum": 19, "entrant": {"id": 21302435, "name": "Hipster Lion", "participants": [{"id": 19584431, "gamerTag": "Hipster Lion", "prefix": "", "user": {"location": {"city": "College Park", "state": "GA", "country": "United States"}}, "player": {"id": 897409, "gamerTag": "Hipster Lion", "prefix": "", "user": {"location": {"city": "College Park", "state": "GA", "country": "United States"}}}}]}}, {"id": 36665326, "seedNum": 20, "entrant": {"id": 21302568, "name": "SubtleFraudulence", "participants": [{"id": 19584570, "gamerTag": "SubtleFraudulence", "prefix": null, "user": {"location": {"city": "Lawrenceville", "state": "GA", "country": "United States"}}, "player": {"id": 172838, "gamerTag": "SubtleFraudulence", "prefix": null, "user": {"location": {"city": "Lawrenceville", "state": "GA", "country": "United States"}}}}]}}, {"id": 36662970, "seedNum": 21, "entrant": {"id": 21300512, "name": "TTMG | IlloriVice", "participants": [{"id": 19582898, "gamerTag": "IlloriVice", "prefix": "TTMG", "user": {"location": {"city": "Atlanta", "state": "GA", "country": "United States"}}, "player": {"id": 4981273, "gamerTag": "IlloriVice", "prefix": "TTMG", "user": {"location": {"city": "Atlanta", "state": "GA", "country": "United States"}}}}]}}, {"id": 36664904, "seedNum": 22, "entrant": {"id": 21302198, "name": "Amareonthebeat", "participants": [{"id": 19584212, "gamerTag": "Amareonthebeat", "prefix": "", "user": {"location": {"city": null, "state": null, "country": "United States"}}, "player": {"id": 4981446, "gamerTag": "Amareonthebeat", "prefix": "", "user": {"location": {"city": null, "state": null, "country": "United States"}}}}]}}, {"id": 36665692, "seedNum": 23, "entrant": {"id": 21302879, "name": "88thSpade", "participants": [{"id": 19584834, "gamerTag": "88thSpade", "prefix": "", "user": {"location": {"city": null, "state": null, "country": "United States"}}, "player": {"id": 4981523, "gamerTag": "88thSpade", "prefix": "", "user": {"location": {"city": null, "state": null, "country": "United States"}}}}]}}, {"id": 36666236, "seedNum": 25, "entrant": {"id": 21303254, "name": "PAR | Romanova", "participants": [{"id": 19585134, "gamerTag": "Romanova", "prefix": "PAR", "user": {"location": {"city": "Atlanta", "state": "GA", "country": "United States"}}, "player": {"id": 228245, "gamerTag": "Romanova", "prefix": "PAR", "user": {"location": {"city": "Atlanta", "state": "GA", "country": "United States"}}}}]}}, {"id": 36665815, "seedNum": 24, "entrant": {"id": 21302949, "name": "HokutoNoCrawfish", "participants": [{"id": 19584892, "gamerTag": "HokutoNoCrawfish", "prefix": "", "user": {"location": {"city": null, "state": "GA", "country": "United States"}}, "player": {"id": 4196044, "gamerTag": "HokutoNoCrawfish", "prefix": "", "user": {"location": {"city": null, "state": "GA", "country": "United States"}}}}]}}]}}}