{"phase": {"seeds": {"pageInfo": {"totalPages": 1, "total": 5}, "nodes": [{"id": 36114109, "seedNum": 1, "entrant": {"id": 20938958, "name": "TRAIN", "participants": [{"id": 19264759, "gamerTag": "TRAIN", "prefix": "", "user": {"location": {"city": "Fort Erie", "state": "ON", "country": "Canada"}}, "player": {"id": 160326, "gamerTag": "TRAIN", "prefix": "", "user": {"location": {"city": "Fort Erie", "state": "ON", "country": "Canada"}}}}]}}, {"id": 36119002, "seedNum": 3, "entrant": {"id": 20942520, "name": "LVL? | VaR", "participants": [{"id": 19267999, "gamerTag": "VaR", "prefix": "LVL?", "user": {"location": {"city": "Atlanta", "state": "GA", "country": "United States"}}, "player": {"id": 329546, "gamerTag": "VaR", "prefix": "GG", "user": {"location": {"city": "Atlanta", "state": "GA", "country": "United States"}}}}]}}, {"id": 36121428, "seedNum": 2, "entrant": {"id": 20944352, "name": "ZB | Juniper", "participants": [{"id": 19256840, "gamerTag": "Juniper", "prefix": "ZB", "user": {"location": {"city": "Morrow", "state": "GA", "country": "United States"}}, "player": {"id": 46895, "gamerTag": "Juniper", "prefix": "ZB", "user": {"location": {"city": "Morrow", "state": "GA", "country": "United States"}}}}]}}, {"id": 36121593, "seedNum": 5, "entrant": {"id": 20944421, "name": "ZB | Gerard", "participants": [{"id": 19262397, "gamerTag": "Gerard", "prefix": "ZB", "user": {"location": {"city": "Atlanta", "state": "GA", "country": "United States"}}, "player": {"id": 325542, "gamerTag": "Gerard", "prefix": "ZB", "user": {"location": {"city": "Atlanta", "state": "GA", "country": "United States"}}}}]}}, {"id": 36100953, "seedNum": 4, "entrant": {"id": 20930330, "name": "ZB | Sanaito", "participants": [{"id": 19256819, "gamerTag": "Sanaito", "prefix": "ZB", "user": {"location": {"city": "Fayetteville", "state": "GA", "country": "United States"}}, "player": {"id": 12761, "gamerTag": "Sanaito", "prefix": "ZB", "user": {"location": {"city": "Fayetteville", "state": "GA", "country": "United States"}}}}]}}]}}}