{"event": {"sets": {"pageInfo": {"totalPages": 5, "total": 72}, "nodes": [{"id": 91865459, "state": 3, "round": -5, "fullRoundText": "Losers Round 2", "completedAt": 1753550894, "winnerId": 20798323, "slots": [{"id": "91865459-0", "entrant": {"id": 20806496, "name": "Rem", "participants": [{"id": 19147934, "gamerTag": "Rem", "prefix": "", "user": {"location": {"city": "Rome", "state": "GA", "country": "United States"}}, "player": {"id": 3634027, "gamerTag": "Rem", "prefix": "", "user": {"location": {"city": "Rome", "state": "GA", "country": "United States"}}}}]}, "standing": {"placement": 2, "stats": {"score": {"value": -1}}}}, {"id": "91865459-1", "entrant": {"id": 20798323, "name": "BOB", "participants": [{"id": 19141183, "gamerTag": "BOB", "prefix": null, "user": {"location": {"city": "Rome", "state": "GA", "country": "United States"}}, "player": {"id": 4892409, "gamerTag": "BOB", "prefix": null, "user": {"location": {"city": "Rome", "state": "GA", "country": "United States"}}}}]}, "standing": {"placement": 1, "stats": {"score": {"value": null}}}}], "games": null}, {"id": 91865323, "state": 3, "round": 2, "fullRoundText": "Winners Round 2", "completedAt": 1753549704, "winnerId": 20630720, "slots": [{"id": "91865323-0", "entrant": {"id": 20630720, "name": "Ave~", "participants": [{"id": 18991803, "gamerTag": "Ave~", "prefix": "", "user": {"location": {"city": null, "state": null, "country": null}}, "player": {"id": 38830, "gamerTag": "Ave~", "prefix": "", "user": {"location": {"city": null, "state": null, "country": null}}}}]}, "standing": {"placement": 1, "stats": {"score": {"value": 2}}}}, {"id": "91865323-1", "entrant": {"id": 20798323, "name": "BOB", "participants": [{"id": 19141183, "gamerTag": "BOB", "prefix": null, "user": {"location": {"city": "Rome", "state": "GA", "country": "United States"}}, "player": {"id": 4892409, "gamerTag": "BOB", "prefix": null, "user": {"location": {"city": "Rome", "state": "GA", "country": "United States"}}}}]}, "standing": {"placement": 2, "stats": {"score": {"value": 0}}}}], "games": null}, {"id": 91865324, "state": 3, "round": 2, "fullRoundText": "Winners Round 2", "completedAt": 1753549592, "winnerId": 20656095, "slots": [{"id": "91865324-0", "entrant": {"id": 20806496, "name": "Rem", "participants": [{"id": 19147934, "gamerTag": "Rem", "prefix": "", "user": {"location": {"city": "Rome", "state": "GA", "country": "United States"}}, "player": {"id": 3634027, "gamerTag": "Rem", "prefix": "", "user": {"location": {"city": "Rome", "state": "GA", "country": "United States"}}}}]}, "standing": {"placement": 2, "stats": {"score": {"value": 0}}}}, {"id": "91865324-1", "entrant": {"id": 20656095, "name": "Crusher", "participants": [{"id": 19013681, "gamerTag": "Crusher", "prefix": "", "user": {"location": {"city": "Rome", "state": "GA", "country": "United States"}}, "player": {"id": 34737, "gamerTag": "Crusher", "prefix": "", "user": {"location": {"city": "Rome", "state": "GA", "country": "United States"}}}}]}, "standing": {"placement": 1, "stats": {"score": {"value": 2}}}}], "games": null}, {"id": 91865325, "state": 3, "round": 2, "fullRoundText": "Winners Round 2", "completedAt": 1753547642, "winnerId": 20798193, "slots": [{"id": "91865325-0", "entrant": {"id": 20798193, "name": "Jebus", "participants": [{"id": 19141065, "gamerTag": "Jebus", "prefix": null, "user": {"location": {"city": "Chattanooga", "state": "TN", "country": "United States"}}, "player": {"id": 127867, "gamerTag": "Jebus", "prefix": null, "user": {"location": {"city": "Chattanooga", "state": "TN", "country": "United States"}}}}]}, "standing": {"placement": 1, "stats": {"score": {"value": 2}}}}, {"id": "91865325-1", "entrant": {"id": 20800903, "name": "Luke", "participants": [{"id": 19143615, "gamerTag": "Luke", "prefix": "", "user": {"location": {"city": null, "state": null, "country": "United States"}}, "player": {"id": 4892970, "gamerTag": "Luke", "prefix": "", "user": {"location": {"city": null, "state": null, "country": "United States"}}}}]}, "standing": {"placement": 2, "stats": {"score": {"value": 0}}}}], "games": null}, {"id": 91865326, "state": 3, "round": 2, "fullRoundText": "Winners Round 2", "completedAt": 1753549745, "winnerId": 20801107, "slots": [{"id": "91865326-0", "entrant": {"id": 20801107, "name": "Kaizo", "participants": [{"id": 19143795, "gamerTag": "Kaizo", "prefix": null, "user": {"location": {"city": "Cartersville", "state": "GA", "country": "United States"}}, "player": {"id": 3446529, "gamerTag": "Kaizo", "prefix": null, "user": {"location": {"city": "Cartersville", "state": "GA", "country": "United States"}}}}]}, "standing": {"placement": 1, "stats": {"score": {"value": 2}}}}, {"id": "91865326-1", "entrant": {"id": 20797564, "name": "Skepio", "participants": [{"id": 19140494, "gamerTag": "Skepio", "prefix": "", "user": {"location": {"city": null, "state": null, "country": "United States"}}, "player": {"id": 4892141, "gamerTag": "Skepio", "prefix": "", "user": {"location": {"city": null, "state": null, "country": "United States"}}}}]}, "standing": {"placement": 2, "stats": {"score": {"value": 0}}}}], "games": null}, {"id": 91865327, "state": 3, "round": 2, "fullRoundText": "Winners Round 2", "completedAt": 1753549252, "winnerId": 20805549, "slots": [{"id": "91865327-0", "entrant": {"id": 20672487, "name": "Tadeo", "participants": [{"id": 19027745, "gamerTag": "Tadeo", "prefix": "", "user": {"location": {"city": "Chattanooga", "state": "TN", "country": "United States"}}, "player": {"id": 36745, "gamerTag": "Tadeo", "prefix": "", "user": {"location": {"city": "Chattanooga", "state": "TN", "country": "United States"}}}}]}, "standing": {"placement": 2, "stats": {"score": {"value": -1}}}}, {"id": "91865327-1", "entrant": {"id": 20805549, "name": "U Mad?", "participants": [{"id": 19147137, "gamerTag": "U Mad?", "prefix": "", "user": {"location": {"city": null, "state": null, "country": "United States"}}, "player": {"id": 4893714, "gamerTag": "U Mad?", "prefix": "", "user": {"location": {"city": null, "state": null, "country": "United States"}}}}]}, "standing": {"placement": 1, "stats": {"score": {"value": null}}}}], "games": null}, {"id": 91865328, "state": 3, "round": 2, "fullRoundText": "Winners Round 2", "completedAt": 1753550173, "winnerId": 20750166, "slots": [{"id": "91865328-0", "entrant": {"id": 20750166, "name": "LARK | Nintendom7", "participants": [{"id": 19095701, "gamerTag": "Nintendom7", "prefix": "LARK", "user": {"location": {"city": "Adairsville", "state": "GA", "country": "United States"}}, "player": {"id": 3623160, "gamerTag": "Nintendom7", "prefix": "LARK", "user": {"location": {"city": "Adairsville", "state": "GA", "country": "United States"}}}}]}, "standing": {"placement": 1, "stats": {"score": {"value": 2}}}}, {"id": "91865328-1", "entrant": {"id": 20806568, "name": "HSG Shiro", "participants": [{"id": 19147964, "gamerTag": "HSG Shiro", "prefix": null, "user": null, "player": {"id": 4893972, "gamerTag": "HSG Shiro", "prefix": null, "user": null}}]}, "standing": {"placement": 2, "stats": {"score": {"value": 0}}}}], "games": null}, {"id": 91865329, "state": 3, "round": 2, "fullRoundText": "Winners Round 2", "completedAt": 1753550523, "winnerId": 20785123, "slots": [{"id": "91865329-0", "entrant": {"id": 20785123, "name": "no", "participants": [{"id": 19128676, "gamerTag": "no", "prefix": "", "user": {"location": {"city": "Silver Creek", "state": null, "country": "Georgia"}}, "player": {"id": 135724, "gamerTag": "no", "prefix": "", "user": {"location": {"city": "Silver Creek", "state": null, "country": "Georgia"}}}}]}, "standing": {"placement": 1, "stats": {"score": {"value": 2}}}}, {"id": "91865329-1", "entrant": {"id": 20805697, "name": "Littleblindgirl", "participants": [{"id": 19147251, "gamerTag": "Littleblindgirl", "prefix": "", "user": {"location": {"city": null, "state": null, "country": "United States"}}, "player": {"id": 4893738, "gamerTag": "Littleblindgirl", "prefix": "", "user": {"location": {"city": null, "state": null, "country": "United States"}}}}]}, "standing": {"placement": 2, "stats": {"score": {"value": 0}}}}], "games": null}, {"id": 91865330, "state": 3, "round": 2, "fullRoundText": "Winners Round 2", "completedAt": 1753547502, "winnerId": 20769911, "slots": [{"id": "91865330-0", "entrant": {"id": 20769911, "name": "meen", "participants": [{"id": 19114815, "gamerTag": "meen", "prefix": null, "user": {"location": {"city": null, "state": "GA", "country": "United States"}}, "player": {"id": 3023788, "gamerTag": "meen", "prefix": null, "user": {"location": {"city": null, "state": "GA", "country": "United States"}}}}]}, "standing": {"placement": 1, "stats": {"score": {"value": null}}}}, {"id": "91865330-1", "entrant": {"id": 20806448, "name": "Legacy", "participants": [{"id": 19147891, "gamerTag": "Legacy", "prefix": null, "user": {"location": {"city": null, "state": null, "country": null}}, "player": {"id": 3631793, "gamerTag": "Legacy", "prefix": null, "user": {"location": {"city": null, "state": null, "country": null}}}}]}, "standing": {"placement": 2, "stats": {"score": {"value": -1}}}}], "games": null}, {"id": 91865331, "state": 3, "round": 2, "fullRoundText": "Winners Round 2", "completedAt": 1753549066, "winnerId": 20803933, "slots": [{"id": "91865331-0", "entrant": {"id": 20803933, "name": "VA | StreetDzine", "participants": [{"id": 19145964, "gamerTag": "StreetDzine", "prefix": "VA", "user": {"location": {"city": null, "state": null, "country": "United States"}}, "player": {"id": 989587, "gamerTag": "StreetDzine", "prefix": "VA", "user": {"location": {"city": null, "state": null, "country": "United States"}}}}]}, "standing": {"placement": 1, "stats": {"score": {"value": 2}}}}, {"id": "91865331-1", "entrant": {"id": 20799095, "name": "jimbus", "participants": [{"id": 19141930, "gamerTag": "jimbus", "prefix": "", "user": {"location": {"city": null, "state": null, "country": "United States"}}, "player": {"id": 4892602, "gamerTag": "jimbus", "prefix": "", "user": {"location": {"city": null, "state": null, "country": "United States"}}}}]}, "standing": {"placement": 2, "stats": {"score": {"value": 1}}}}], "games": null}, {"id": 91865332, "state": 3, "round": 2, "fullRoundText": "Winners Round 2", "completedAt": 1753547986, "winnerId": 20752790, "slots": [{"id": "91865332-0", "entrant": {"id": 20752790, "name": "KingKirb", "participants": [{"id": 19098292, "gamerTag": "KingKirb", "prefix": "", "user": {"location": {"city": "Adairsville", "state": "GA", "country": "United States"}}, "player": {"id": 4038816, "gamerTag": "KingKirb", "prefix": "", "user": {"location": {"city": "Adairsville", "state": "GA", "country": "United States"}}}}]}, "standing": {"placement": 1, "stats": {"score": {"value": 2}}}}, {"id": "91865332-1", "entrant": {"id": 20764639, "name": "Y0ungApprentice", "participants": [{"id": 19109819, "gamerTag": "Y0ungApprentice", "prefix": null, "user": {"location": {"city": "Rome", "state": "GA", "country": "United States"}}, "player": {"id": 2729718, "gamerTag": "Y0ungApprentice", "prefix": null, "user": {"location": {"city": "Rome", "state": "GA", "country": "United States"}}}}]}, "standing": {"placement": 2, "stats": {"score": {"value": 0}}}}], "games": null}, {"id": 91865333, "state": 3, "round": 2, "fullRoundText": "Winners Round 2", "completedAt": 1753549543, "winnerId": 20752816, "slots": [{"id": "91865333-0", "entrant": {"id": 20752816, "name": "FearMNdash", "participants": [{"id": 19098320, "gamerTag": "FearMNdash", "prefix": "", "user": {"location": {"city": null, "state": null, "country": "United States"}}, "player": {"id": 2117137, "gamerTag": "FearMNdash", "prefix": "", "user": {"location": {"city": null, "state": null, "country": "United States"}}}}]}, "standing": {"placement": 1, "stats": {"score": {"value": 2}}}}, {"id": "91865333-1", "entrant": {"id": 20740709, "name": "Noah", "participants": [{"id": 19086702, "gamerTag": "Noah", "prefix": "", "user": {"location": {"city": null, "state": null, "country": "United States"}}, "player": {"id": 4875372, "gamerTag": "Noah", "prefix": "", "user": {"location": {"city": null, "state": null, "country": "United States"}}}}]}, "standing": {"placement": 2, "stats": {"score": {"value": 0}}}}], "games": null}, {"id": 91865334, "state": 3, "round": 2, "fullRoundText": "Winners Round 2", "completedAt": 1753548989, "winnerId": 20803949, "slots": [{"id": "91865334-0", "entrant": {"id": 20803949, "name": "FoxyGrandpa", "participants": [{"id": 19145977, "gamerTag": "FoxyGrandpa", "prefix": "", "user": {"location": {"city": null, "state": null, "country": "United States"}}, "player": {"id": 4893425, "gamerTag": "FoxyGrandpa", "prefix": "", "user": {"location": {"city": null, "state": null, "country": "United States"}}}}]}, "standing": {"placement": 1, "stats": {"score": {"value": 2}}}}, {"id": "91865334-1", "entrant": {"id": 20741991, "name": "Mr. Chez", "participants": [{"id": 19087980, "gamerTag": "Mr. Chez", "prefix": null, "user": {"location": {"city": "Calhoun", "state": "GA", "country": "United States"}}, "player": {"id": 4875879, "gamerTag": "Mr. Chez", "prefix": null, "user": {"location": {"city": "Calhoun", "state": "GA", "country": "United States"}}}}]}, "standing": {"placement": 2, "stats": {"score": {"value": 0}}}}], "games": null}, {"id": 91865335, "state": 3, "round": 2, "fullRoundText": "Winners Round 2", "completedAt": 1753549185, "winnerId": 20793972, "slots": [{"id": "91865335-0", "entrant": {"id": 20793972, "name": "Deanosaurus Rex", "participants": [{"id": 19136979, "gamerTag": "Deanosaurus Rex", "prefix": "", "user": {"location": {"city": "Calhoun", "state": "GA", "country": "United States"}}, "player": {"id": 19555, "gamerTag": "Deanosaurus Rex", "prefix": "", "user": {"location": {"city": "Calhoun", "state": "GA", "country": "United States"}}}}]}, "standing": {"placement": 1, "stats": {"score": {"value": 2}}}}, {"id": "91865335-1", "entrant": {"id": 20805519, "name": "Mr Wibbles", "participants": [{"id": 19147113, "gamerTag": "Mr Wibbles", "prefix": "", "user": {"location": {"city": null, "state": null, "country": "United States"}}, "player": {"id": 4893706, "gamerTag": "Mr Wibbles", "prefix": "", "user": {"location": {"city": null, "state": null, "country": "United States"}}}}]}, "standing": {"placement": 2, "stats": {"score": {"value": 0}}}}], "games": null}, {"id": 91865336, "state": 3, "round": 2, "fullRoundText": "Winners Round 2", "completedAt": 1753549050, "winnerId": 20806377, "slots": [{"id": "91865336-0", "entrant": {"id": 20806377, "name": "RR | GingerSNAP", "participants": [{"id": 19147824, "gamerTag": "GingerSNAP", "prefix": "RR", "user": {"location": {"city": "Calhoun", "state": "GA", "country": "United States"}}, "player": {"id": 1875386, "gamerTag": "GingerSNAP", "prefix": "RR", "user": {"location": {"city": "Calhoun", "state": "GA", "country": "United States"}}}}]}, "standing": {"placement": 1, "stats": {"score": {"value": 2}}}}, {"id": "91865336-1", "entrant": {"id": 20769965, "name": "bittersweettrip", "participants": [{"id": 19114867, "gamerTag": "bittersweettrip", "prefix": null, "user": {"location": {"city": "", "state": "GA", "country": "United States"}}, "player": {"id": 3952364, "gamerTag": "bittersweettrip", "prefix": null, "user": {"location": {"city": "", "state": "GA", "country": "United States"}}}}]}, "standing": {"placement": 2, "stats": {"score": {"value": 1}}}}], "games": null}]}}}