{"event": {"sets": {"pageInfo": {"totalPages": 6, "total": 85}, "nodes": [{"id": 92668395, "state": 3, "round": -8, "fullRoundText": "Losers Round 5", "completedAt": 1755223867, "winnerId": 20971182, "slots": [{"id": "92668395-0", "entrant": {"id": 20971182, "name": "GUMP2 | JankTrees!", "participants": [{"id": 19292780, "gamerTag": "JankTrees!", "prefix": "GUMP2", "user": {"location": {"city": "Cartersville", "state": "GA", "country": "United States"}}, "player": {"id": 35695, "gamerTag": "JankTrees!", "prefix": "GUMP2", "user": {"location": {"city": "Cartersville", "state": "GA", "country": "United States"}}}}]}, "standing": {"placement": 1, "stats": {"score": {"value": 2}}}}, {"id": "92668395-1", "entrant": {"id": 20951790, "name": "EVC | N8borsclub", "participants": [{"id": 19276081, "gamerTag": "N8borsclub", "prefix": "EVC", "user": {"location": {"city": "Smyrna", "state": "GA", "country": "United States"}}, "player": {"id": 1137803, "gamerTag": "N8borsclub", "prefix": "EVC", "user": {"location": {"city": "Smyrna", "state": "GA", "country": "United States"}}}}]}, "standing": {"placement": 2, "stats": {"score": {"value": 0}}}}], "games": null}, {"id": 92668396, "state": 3, "round": -8, "fullRoundText": "Losers Round 5", "completedAt": 1755224385, "winnerId": 20952845, "slots": [{"id": "92668396-0", "entrant": {"id": 20952845, "name": "GUMP2 | $Mark$", "participants": [{"id": 19276986, "gamerTag": "$Mark$", "prefix": "GUMP2", "user": {"location": {"city": null, "state": "GA", "country": "United States"}}, "player": {"id": 1850701, "gamerTag": "$Mark$", "prefix": "GUMP2", "user": {"location": {"city": null, "state": "GA", "country": "United States"}}}}]}, "standing": {"placement": 1, "stats": {"score": {"value": 2}}}}, {"id": "92668396-1", "entrant": {"id": 20970555, "name": "Barbashop", "participants": [{"id": 19292216, "gamerTag": "Barbashop", "prefix": "", "user": {"location": {"city": null, "state": null, "country": null}}, "player": {"id": 2537853, "gamerTag": "Barbashop", "prefix": "", "user": {"location": {"city": null, "state": null, "country": null}}}}]}, "standing": {"placement": 2, "stats": {"score": {"value": 1}}}}], "games": null}, {"id": 92668397, "state": 3, "round": -8, "fullRoundText": "Losers Round 5", "completedAt": 1755223637, "winnerId": 20965429, "slots": [{"id": "92668397-0", "entrant": {"id": 20971946, "name": "RM | GUMP2 | Kr!stal:0", "participants": [{"id": 19293481, "gamerTag": "Kr!stal:0", "prefix": "RM | GUMP2", "user": {"location": {"city": "Lawrenceville", "state": "GA", "country": "United States"}}, "player": {"id": 2409815, "gamerTag": "AO ASHI SEASON 2 2026", "prefix": "RM | GUMP2", "user": {"location": {"city": "Lawrenceville", "state": "GA", "country": "United States"}}}}]}, "standing": {"placement": 2, "stats": {"score": {"value": 0}}}}, {"id": "92668397-1", "entrant": {"id": 20965429, "name": "GUMP2 | ToxiC", "participants": [{"id": 19287515, "gamerTag": "ToxiC", "prefix": "GUMP2", "user": {"location": {"city": "Marietta", "state": "GA", "country": "United States"}}, "player": {"id": 2585804, "gamerTag": "ToxiC", "prefix": "GUMP2", "user": {"location": {"city": "Marietta", "state": "GA", "country": "United States"}}}}]}, "standing": {"placement": 1, "stats": {"score": {"value": 2}}}}], "games": null}, {"id": 92668398, "state": 3, "round": -8, "fullRoundText": "Losers Round 5", "completedAt": 1755223210, "winnerId": 20950270, "slots": [{"id": "92668398-0", "entrant": {"id": 20950270, "name": "Tobe", "participants": [{"id": 19274700, "gamerTag": "Tobe", "prefix": "", "user": {"location": {"city": "Buford", "state": "GA", "country": "United States"}}, "player": {"id": 1646132, "gamerTag": "Tobe", "prefix": "", "user": {"location": {"city": "Buford", "state": "GA", "country": "United States"}}}}]}, "standing": {"placement": 1, "stats": {"score": {"value": 2}}}}, {"id": "92668398-1", "entrant": {"id": 20971592, "name": "GUMP2 | Spider", "participants": [{"id": 19293156, "gamerTag": "Spider", "prefix": "GUMP2", "user": {"location": {"city": "Atlanta", "state": "GA", "country": "United States"}}, "player": {"id": 691176, "gamerTag": "Spider", "prefix": "GUMP2", "user": {"location": {"city": "Atlanta", "state": "GA", "country": "United States"}}}}]}, "standing": {"placement": 2, "stats": {"score": {"value": 0}}}}], "games": null}, {"id": 92668391, "state": 3, "round": -7, "fullRoundText": "Losers Round 4", "completedAt": 1755223279, "winnerId": 20951790, "slots": [{"id": "92668391-0", "entrant": {"id": 20971632, "name": "MilesisBae", "participants": [{"id": 19293194, "gamerTag": "MilesisBae", "prefix": "", "user": {"location": {"city": "Richmond", "state": "VA", "country": "United States"}}, "player": {"id": 1218383, "gamerTag": "MilesisBae", "prefix": "", "user": {"location": {"city": "Richmond", "state": "VA", "country": "United States"}}}}]}, "standing": {"placement": 2, "stats": {"score": {"value": 1}}}}, {"id": "92668391-1", "entrant": {"id": 20951790, "name": "EVC | N8borsclub", "participants": [{"id": 19276081, "gamerTag": "N8borsclub", "prefix": "EVC", "user": {"location": {"city": "Smyrna", "state": "GA", "country": "United States"}}, "player": {"id": 1137803, "gamerTag": "N8borsclub", "prefix": "EVC", "user": {"location": {"city": "Smyrna", "state": "GA", "country": "United States"}}}}]}, "standing": {"placement": 1, "stats": {"score": {"value": 2}}}}], "games": null}, {"id": 92668392, "state": 3, "round": -7, "fullRoundText": "Losers Round 4", "completedAt": 1755223506, "winnerId": 20970555, "slots": [{"id": "92668392-0", "entrant": {"id": 20970555, "name": "Barbashop", "participants": [{"id": 19292216, "gamerTag": "Barbashop", "prefix": "", "user": {"location": {"city": null, "state": null, "country": null}}, "player": {"id": 2537853, "gamerTag": "Barbashop", "prefix": "", "user": {"location": {"city": null, "state": null, "country": null}}}}]}, "standing": {"placement": 1, "stats": {"score": {"value": 2}}}}, {"id": "92668392-1", "entrant": {"id": 20968107, "name": "Plaid", "participants": [{"id": 19289960, "gamerTag": "Plaid", "prefix": "", "user": {"location": {"city": null, "state": null, "country": null}}, "player": {"id": 1452882, "gamerTag": "Plaid", "prefix": "", "user": {"location": {"city": null, "state": null, "country": null}}}}]}, "standing": {"placement": 2, "stats": {"score": {"value": 0}}}}], "games": null}, {"id": 92668393, "state": 3, "round": -7, "fullRoundText": "Losers Round 4", "completedAt": 1755223143, "winnerId": 20965429, "slots": [{"id": "92668393-0", "entrant": {"id": 20965429, "name": "GUMP2 | ToxiC", "participants": [{"id": 19287515, "gamerTag": "ToxiC", "prefix": "GUMP2", "user": {"location": {"city": "Marietta", "state": "GA", "country": "United States"}}, "player": {"id": 2585804, "gamerTag": "ToxiC", "prefix": "GUMP2", "user": {"location": {"city": "Marietta", "state": "GA", "country": "United States"}}}}]}, "standing": {"placement": 1, "stats": {"score": {"value": 2}}}}, {"id": "92668393-1", "entrant": {"id": 20968359, "name": "Rain~", "participants": [{"id": 19290206, "gamerTag": "Rain~", "prefix": null, "user": {"location": {"city": "Atlanta", "state": "GA", "country": "United States"}}, "player": {"id": 4240164, "gamerTag": "Rain~", "prefix": null, "user": {"location": {"city": "Atlanta", "state": "GA", "country": "United States"}}}}]}, "standing": {"placement": 2, "stats": {"score": {"value": 0}}}}], "games": null}, {"id": 92668394, "state": 3, "round": -7, "fullRoundText": "Losers Round 4", "completedAt": 1755222569, "winnerId": 20971592, "slots": [{"id": "92668394-0", "entrant": {"id": 20971592, "name": "GUMP2 | Spider", "participants": [{"id": 19293156, "gamerTag": "Spider", "prefix": "GUMP2", "user": {"location": {"city": "Atlanta", "state": "GA", "country": "United States"}}, "player": {"id": 691176, "gamerTag": "Spider", "prefix": "GUMP2", "user": {"location": {"city": "Atlanta", "state": "GA", "country": "United States"}}}}]}, "standing": {"placement": 1, "stats": {"score": {"value": 2}}}}, {"id": "92668394-1", "entrant": {"id": 20966590, "name": "Tohsaka", "participants": [{"id": 19288577, "gamerTag": "Tohsaka", "prefix": null, "user": {"location": {"city": null, "state": null, "country": null}}, "player": {"id": 2933372, "gamerTag": "Tohsaka", "prefix": null, "user": {"location": {"city": null, "state": null, "country": null}}}}]}, "standing": {"placement": 2, "stats": {"score": {"value": 0}}}}], "games": null}, {"id": 92668262, "state": 3, "round": 3, "fullRoundText": "Winners Round 3", "completedAt": 1755220737, "winnerId": 20971354, "slots": [{"id": "92668262-0", "entrant": {"id": 20971354, "name": "omega", "participants": [{"id": 19292936, "gamerTag": "omega", "prefix": "", "user": {"location": {"city": "Suwanee", "state": "GA", "country": "United States"}}, "player": {"id": 24638, "gamerTag": "omega", "prefix": "", "user": {"location": {"city": "Suwanee", "state": "GA", "country": "United States"}}}}]}, "standing": {"placement": 1, "stats": {"score": {"value": 2}}}}, {"id": "92668262-1", "entrant": {"id": 20970651, "name": "red dot", "participants": [{"id": 19292301, "gamerTag": "red dot", "prefix": "", "user": {"location": {"city": "Milton", "state": "GA", "country": "United States"}}, "player": {"id": 1812177, "gamerTag": "red dot", "prefix": "", "user": {"location": {"city": "Milton", "state": "GA", "country": "United States"}}}}]}, "standing": {"placement": 2, "stats": {"score": {"value": 0}}}}], "games": null}, {"id": 92668263, "state": 3, "round": 3, "fullRoundText": "Winners Round 3", "completedAt": 1755220530, "winnerId": 20971946, "slots": [{"id": "92668263-0", "entrant": {"id": 20971946, "name": "RM | GUMP2 | Kr!stal:0", "participants": [{"id": 19293481, "gamerTag": "Kr!stal:0", "prefix": "RM | GUMP2", "user": {"location": {"city": "Lawrenceville", "state": "GA", "country": "United States"}}, "player": {"id": 2409815, "gamerTag": "AO ASHI SEASON 2 2026", "prefix": "RM | GUMP2", "user": {"location": {"city": "Lawrenceville", "state": "GA", "country": "United States"}}}}]}, "standing": {"placement": 1, "stats": {"score": {"value": 2}}}}, {"id": "92668263-1", "entrant": {"id": 20970555, "name": "Barbashop", "participants": [{"id": 19292216, "gamerTag": "Barbashop", "prefix": "", "user": {"location": {"city": null, "state": null, "country": null}}, "player": {"id": 2537853, "gamerTag": "Barbashop", "prefix": "", "user": {"location": {"city": null, "state": null, "country": null}}}}]}, "standing": {"placement": 2, "stats": {"score": {"value": 1}}}}], "games": null}, {"id": 92668264, "state": 3, "round": 3, "fullRoundText": "Winners Round 3", "completedAt": 1755220681, "winnerId": 20971739, "slots": [{"id": "92668264-0", "entrant": {"id": 20971739, "name": "GUMP2 | Eleven", "participants": [{"id": 19293287, "gamerTag": "Eleven", "prefix": "GUMP2", "user": {"location": {"city": null, "state": null, "country": null}}, "player": {"id": 2348605, "gamerTag": "Ryu from Streets", "prefix": "GUMP2", "user": {"location": {"city": null, "state": null, "country": null}}}}]}, "standing": {"placement": 1, "stats": {"score": {"value": 2}}}}, {"id": "92668264-1", "entrant": {"id": 20951790, "name": "EVC | N8borsclub", "participants": [{"id": 19276081, "gamerTag": "N8borsclub", "prefix": "EVC", "user": {"location": {"city": "Smyrna", "state": "GA", "country": "United States"}}, "player": {"id": 1137803, "gamerTag": "N8borsclub", "prefix": "EVC", "user": {"location": {"city": "Smyrna", "state": "GA", "country": "United States"}}}}]}, "standing": {"placement": 2, "stats": {"score": {"value": 0}}}}], "games": null}, {"id": 92668265, "state": 3, "round": 3, "fullRoundText": "Winners Round 3", "completedAt": 1755221035, "winnerId": 20950270, "slots": [{"id": "92668265-0", "entrant": {"id": 20950270, "name": "Tobe", "participants": [{"id": 19274700, "gamerTag": "Tobe", "prefix": "", "user": {"location": {"city": "Buford", "state": "GA", "country": "United States"}}, "player": {"id": 1646132, "gamerTag": "Tobe", "prefix": "", "user": {"location": {"city": "Buford", "state": "GA", "country": "United States"}}}}]}, "standing": {"placement": 1, "stats": {"score": {"value": 2}}}}, {"id": "92668265-1", "entrant": {"id": 20971632, "name": "MilesisBae", "participants": [{"id": 19293194, "gamerTag": "MilesisBae", "prefix": "", "user": {"location": {"city": "Richmond", "state": "VA", "country": "United States"}}, "player": {"id": 1218383, "gamerTag": "MilesisBae", "prefix": "", "user": {"location": {"city": "Richmond", "state": "VA", "country": "United States"}}}}]}, "standing": {"placement": 2, "stats": {"score": {"value": 1}}}}], "games": null}, {"id": 92668266, "state": 3, "round": 3, "fullRoundText": "Winners Round 3", "completedAt": 1755220914, "winnerId": 20971432, "slots": [{"id": "92668266-0", "entrant": {"id": 20971432, "name": "DTN | Jahzz0", "participants": [{"id": 19293010, "gamerTag": "Jahzz0", "prefix": "DTN", "user": {"location": {"city": null, "state": null, "country": "United States"}}, "player": {"id": 946548, "gamerTag": "Jahzz0", "prefix": "DTN", "user": {"location": {"city": null, "state": null, "country": "United States"}}}}]}, "standing": {"placement": 1, "stats": {"score": {"value": 2}}}}, {"id": "92668266-1", "entrant": {"id": 20966590, "name": "Tohsaka", "participants": [{"id": 19288577, "gamerTag": "Tohsaka", "prefix": null, "user": {"location": {"city": null, "state": null, "country": null}}, "player": {"id": 2933372, "gamerTag": "Tohsaka", "prefix": null, "user": {"location": {"city": null, "state": null, "country": null}}}}]}, "standing": {"placement": 2, "stats": {"score": {"value": 0}}}}], "games": null}, {"id": 92668267, "state": 3, "round": 3, "fullRoundText": "Winners Round 3", "completedAt": 1755221477, "winnerId": 20971182, "slots": [{"id": "92668267-0", "entrant": {"id": 20971592, "name": "GUMP2 | Spider", "participants": [{"id": 19293156, "gamerTag": "Spider", "prefix": "GUMP2", "user": {"location": {"city": "Atlanta", "state": "GA", "country": "United States"}}, "player": {"id": 691176, "gamerTag": "Spider", "prefix": "GUMP2", "user": {"location": {"city": "Atlanta", "state": "GA", "country": "United States"}}}}]}, "standing": {"placement": 2, "stats": {"score": {"value": 1}}}}, {"id": "92668267-1", "entrant": {"id": 20971182, "name": "GUMP2 | JankTrees!", "participants": [{"id": 19292780, "gamerTag": "JankTrees!", "prefix": "GUMP2", "user": {"location": {"city": "Cartersville", "state": "GA", "country": "United States"}}, "player": {"id": 35695, "gamerTag": "JankTrees!", "prefix": "GUMP2", "user": {"location": {"city": "Cartersville", "state": "GA", "country": "United States"}}}}]}, "standing": {"placement": 1, "stats": {"score": {"value": 2}}}}], "games": null}, {"id": 92668268, "state": 3, "round": 3, "fullRoundText": "Winners Round 3", "completedAt": 1755220634, "winnerId": 20971654, "slots": [{"id": "92668268-0", "entrant": {"id": 20971654, "name": "DGS | spickles", "participants": [{"id": 19293214, "gamerTag": "spickles", "prefix": "DGS", "user": {"location": {"city": null, "state": null, "country": "United States"}}, "player": {"id": 1154793, "gamerTag": "spickles", "prefix": "DGS", "user": {"location": {"city": null, "state": null, "country": "United States"}}}}]}, "standing": {"placement": 1, "stats": {"score": {"value": 2}}}}, {"id": "92668268-1", "entrant": {"id": 20970683, "name": "Nhiem", "participants": [{"id": 19292333, "gamerTag": "Nhiem", "prefix": "", "user": {"location": {"city": "Atlanta", "state": "GA", "country": "United States"}}, "player": {"id": 1429448, "gamerTag": "Nhiem", "prefix": "", "user": {"location": {"city": "Atlanta", "state": "GA", "country": "United States"}}}}]}, "standing": {"placement": 2, "stats": {"score": {"value": 0}}}}], "games": null}]}}}