{"event": {"sets": {"pageInfo": {"totalPages": 2, "total": 23}, "nodes": [{"id": 92744025, "state": 3, "round": 5, "fullRoundText": "Grand Final", "completedAt": 1755381162, "winnerId": 20944181, "slots": [{"id": "92744025-0", "entrant": {"id": 20942795, "name": "SE UNI | Shuri", "participants": [{"id": 19268251, "gamerTag": "Shuri", "prefix": "SE UNI", "user": {"location": {"city": "Bonaire", "state": "GA", "country": "United States"}}, "player": {"id": 183894, "gamerTag": "Shuri", "prefix": "SE UNI", "user": {"location": {"city": "Bonaire", "state": "GA", "country": "United States"}}}}]}, "standing": {"placement": 2, "stats": {"score": {"value": 2}}}}, {"id": "92744025-1", "entrant": {"id": 20944181, "name": "Gorduri Cap", "participants": [{"id": 19269483, "gamerTag": "Gorduri Cap", "prefix": "", "user": {"location": {"city": "", "state": "AK", "country": "United States"}}, "player": {"id": 2068683, "gamerTag": "Spauldo", "prefix": "", "user": {"location": {"city": "", "state": "AK", "country": "United States"}}}}]}, "standing": {"placement": 1, "stats": {"score": {"value": 3}}}}], "games": null}, {"id": 92744026, "state": 3, "round": 5, "fullRoundText": "Grand Final Reset", "completedAt": 1755449924, "winnerId": 20944181, "slots": [{"id": "92744026-0", "entrant": {"id": 20944181, "name": "Gorduri Cap", "participants": [{"id": 19269483, "gamerTag": "Gorduri Cap", "prefix": "", "user": {"location": {"city": "", "state": "AK", "country": "United States"}}, "player": {"id": 2068683, "gamerTag": "Spauldo", "prefix": "", "user": {"location": {"city": "", "state": "AK", "country": "United States"}}}}]}, "standing": {"placement": 1, "stats": {"score": {"value": 3}}}}, {"id": "92744026-1", "entrant": {"id": 20942795, "name": "SE UNI | Shuri", "participants": [{"id": 19268251, "gamerTag": "Shuri", "prefix": "SE UNI", "user": {"location": {"city": "Bonaire", "state": "GA", "country": "United States"}}, "player": {"id": 183894, "gamerTag": "Shuri", "prefix": "SE UNI", "user": {"location": {"city": "Bonaire", "state": "GA", "country": "United States"}}}}]}, "standing": {"placement": 2, "stats": {"score": {"value": 0}}}}], "games": null}, {"id": 92744024, "state": 3, "round": 4, "fullRoundText": "Winners Final", "completedAt": 1755381141, "winnerId": 20942795, "slots": [{"id": "92744024-0", "entrant": {"id": 20944181, "name": "Gorduri Cap", "participants": [{"id": 19269483, "gamerTag": "Gorduri Cap", "prefix": "", "user": {"location": {"city": "", "state": "AK", "country": "United States"}}, "player": {"id": 2068683, "gamerTag": "Spauldo", "prefix": "", "user": {"location": {"city": "", "state": "AK", "country": "United States"}}}}]}, "standing": {"placement": 2, "stats": {"score": {"value": 1}}}}, {"id": "92744024-1", "entrant": {"id": 20942795, "name": "SE UNI | Shuri", "participants": [{"id": 19268251, "gamerTag": "Shuri", "prefix": "SE UNI", "user": {"location": {"city": "Bonaire", "state": "GA", "country": "United States"}}, "player": {"id": 183894, "gamerTag": "Shuri", "prefix": "SE UNI", "user": {"location": {"city": "Bonaire", "state": "GA", "country": "United States"}}}}]}, "standing": {"placement": 1, "stats": {"score": {"value": 3}}}}], "games": null}, {"id": 92744056, "state": 3, "round": -8, "fullRoundText": "Losers Final", "completedAt": 1755381151, "winnerId": 20944181, "slots": [{"id": "92744056-0", "entrant": {"id": 20944181, "name": "Gorduri Cap", "participants": [{"id": 19269483, "gamerTag": "Gorduri Cap", "prefix": "", "user": {"location": {"city": "", "state": "AK", "country": "United States"}}, "player": {"id": 2068683, "gamerTag": "Spauldo", "prefix": "", "user": {"location": {"city": "", "state": "AK", "country": "United States"}}}}]}, "standing": {"placement": 1, "stats": {"score": {"value": 3}}}}, {"id": "92744056-1", "entrant": {"id": 20943954, "name": "ATLRiot", "participants": [{"id": 19269312, "gamerTag": "ATLRiot", "prefix": "", "user": {"location": {"city": "Augusta", "state": "GA", "country": "United States"}}, "player": {"id": 2057913, "gamerTag": "ATLRiot", "prefix": "", "user": {"location": {"city": "Augusta", "state": "GA", "country": "United States"}}}}]}, "standing": {"placement": 2, "stats": {"score": {"value": 0}}}}], "games": null}, {"id": 92744055, "state": 3, "round": -7, "fullRoundText": "Losers Semi-Final", "completedAt": 1755379639, "winnerId": 20943954, "slots": [{"id": "92744055-0", "entrant": {"id": 20987360, "name": "Chato", "participants": [{"id": 19306623, "gamerTag": "Chato", "prefix": null, "user": {"location": {"city": null, "state": null, "country": null}}, "player": {"id": 657291, "gamerTag": "Chato", "prefix": null, "user": {"location": {"city": null, "state": null, "country": null}}}}]}, "standing": {"placement": 2, "stats": {"score": {"value": 0}}}}, {"id": "92744055-1", "entrant": {"id": 20943954, "name": "ATLRiot", "participants": [{"id": 19269312, "gamerTag": "ATLRiot", "prefix": "", "user": {"location": {"city": "Augusta", "state": "GA", "country": "United States"}}, "player": {"id": 2057913, "gamerTag": "ATLRiot", "prefix": "", "user": {"location": {"city": "Augusta", "state": "GA", "country": "United States"}}}}]}, "standing": {"placement": 1, "stats": {"score": {"value": 2}}}}], "games": null}, {"id": 92744022, "state": 3, "round": 3, "fullRoundText": "Winners Semi-Final", "completedAt": 1755378413, "winnerId": 20944181, "slots": [{"id": "92744022-0", "entrant": {"id": 20944181, "name": "Gorduri Cap", "participants": [{"id": 19269483, "gamerTag": "Gorduri Cap", "prefix": "", "user": {"location": {"city": "", "state": "AK", "country": "United States"}}, "player": {"id": 2068683, "gamerTag": "Spauldo", "prefix": "", "user": {"location": {"city": "", "state": "AK", "country": "United States"}}}}]}, "standing": {"placement": 1, "stats": {"score": {"value": 2}}}}, {"id": "92744022-1", "entrant": {"id": 20982016, "name": "MrMixtape", "participants": [{"id": 19302404, "gamerTag": "MrMixtape", "prefix": null, "user": {"location": {"city": null, "state": null, "country": null}}, "player": {"id": 3930310, "gamerTag": "MrMixtape", "prefix": null, "user": {"location": {"city": null, "state": null, "country": null}}}}]}, "standing": {"placement": 2, "stats": {"score": {"value": 1}}}}], "games": null}, {"id": 92744023, "state": 3, "round": 3, "fullRoundText": "Winners Semi-Final", "completedAt": 1755377710, "winnerId": 20942795, "slots": [{"id": "92744023-0", "entrant": {"id": 20942795, "name": "SE UNI | Shuri", "participants": [{"id": 19268251, "gamerTag": "Shuri", "prefix": "SE UNI", "user": {"location": {"city": "Bonaire", "state": "GA", "country": "United States"}}, "player": {"id": 183894, "gamerTag": "Shuri", "prefix": "SE UNI", "user": {"location": {"city": "Bonaire", "state": "GA", "country": "United States"}}}}]}, "standing": {"placement": 1, "stats": {"score": {"value": 2}}}}, {"id": "92744023-1", "entrant": {"id": 20943954, "name": "ATLRiot", "participants": [{"id": 19269312, "gamerTag": "ATLRiot", "prefix": "", "user": {"location": {"city": "Augusta", "state": "GA", "country": "United States"}}, "player": {"id": 2057913, "gamerTag": "ATLRiot", "prefix": "", "user": {"location": {"city": "Augusta", "state": "GA", "country": "United States"}}}}]}, "standing": {"placement": 2, "stats": {"score": {"value": 0}}}}], "games": null}, {"id": 92744053, "state": 3, "round": -6, "fullRoundText": "Losers Quarter-Final", "completedAt": 1755379080, "winnerId": 20987360, "slots": [{"id": "92744053-0", "entrant": {"id": 20982016, "name": "MrMixtape", "participants": [{"id": 19302404, "gamerTag": "MrMixtape", "prefix": null, "user": {"location": {"city": null, "state": null, "country": null}}, "player": {"id": 3930310, "gamerTag": "MrMixtape", "prefix": null, "user": {"location": {"city": null, "state": null, "country": null}}}}]}, "standing": {"placement": 2, "stats": {"score": {"value": 0}}}}, {"id": "92744053-1", "entrant": {"id": 20987360, "name": "Chato", "participants": [{"id": 19306623, "gamerTag": "Chato", "prefix": null, "user": {"location": {"city": null, "state": null, "country": null}}, "player": {"id": 657291, "gamerTag": "Chato", "prefix": null, "user": {"location": {"city": null, "state": null, "country": null}}}}]}, "standing": {"placement": 1, "stats": {"score": {"value": 2}}}}], "games": null}, {"id": 92744054, "state": 3, "round": -6, "fullRoundText": "Losers Quarter-Final", "completedAt": 1755379028, "winnerId": 20943954, "slots": [{"id": "92744054-0", "entrant": {"id": 20943954, "name": "ATLRiot", "participants": [{"id": 19269312, "gamerTag": "ATLRiot", "prefix": "", "user": {"location": {"city": "Augusta", "state": "GA", "country": "United States"}}, "player": {"id": 2057913, "gamerTag": "ATLRiot", "prefix": "", "user": {"location": {"city": "Augusta", "state": "GA", "country": "United States"}}}}]}, "standing": {"placement": 1, "stats": {"score": {"value": 2}}}}, {"id": "92744054-1", "entrant": {"id": 20947551, "name": "Foam Root", "participants": [{"id": 19272375, "gamerTag": "Foam Root", "prefix": "", "user": {"location": {"city": "Covington", "state": "GA", "country": "United States"}}, "player": {"id": 541222, "gamerTag": "Foam Root", "prefix": "", "user": {"location": {"city": "Covington", "state": "GA", "country": "United States"}}}}]}, "standing": {"placement": 2, "stats": {"score": {"value": 1}}}}], "games": null}, {"id": 92744051, "state": 3, "round": -5, "fullRoundText": "Losers Round 2", "completedAt": 1755377729, "winnerId": 20987360, "slots": [{"id": "92744051-0", "entrant": {"id": 20988633, "name": "Luff", "participants": [{"id": 19288626, "gamerTag": "Luff", "prefix": null, "user": {"location": {"city": "Savannah", "state": "GA", "country": "United States"}}, "player": {"id": 4102348, "gamerTag": "Luff", "prefix": "SQ1", "user": {"location": {"city": "Savannah", "state": "GA", "country": "United States"}}}}]}, "standing": {"placement": 2, "stats": {"score": {"value": 0}}}}, {"id": "92744051-1", "entrant": {"id": 20987360, "name": "Chato", "participants": [{"id": 19306623, "gamerTag": "Chato", "prefix": null, "user": {"location": {"city": null, "state": null, "country": null}}, "player": {"id": 657291, "gamerTag": "Chato", "prefix": null, "user": {"location": {"city": null, "state": null, "country": null}}}}]}, "standing": {"placement": 1, "stats": {"score": {"value": 2}}}}], "games": null}, {"id": 92744052, "state": 3, "round": -5, "fullRoundText": "Losers Round 2", "completedAt": 1755378385, "winnerId": 20947551, "slots": [{"id": "92744052-0", "entrant": {"id": 20947551, "name": "Foam Root", "participants": [{"id": 19272375, "gamerTag": "Foam Root", "prefix": "", "user": {"location": {"city": "Covington", "state": "GA", "country": "United States"}}, "player": {"id": 541222, "gamerTag": "Foam Root", "prefix": "", "user": {"location": {"city": "Covington", "state": "GA", "country": "United States"}}}}]}, "standing": {"placement": 1, "stats": {"score": {"value": 2}}}}, {"id": "92744052-1", "entrant": {"id": 20958471, "name": "DuckiePlz", "participants": [{"id": 19281681, "gamerTag": "DuckiePlz", "prefix": null, "user": {"location": {"city": "Macon", "state": "GA", "country": "United States"}}, "player": {"id": 1236717, "gamerTag": "DuckiePlz", "prefix": null, "user": {"location": {"city": "Macon", "state": "GA", "country": "United States"}}}}]}, "standing": {"placement": 2, "stats": {"score": {"value": 0}}}}], "games": null}, {"id": 92744018, "state": 3, "round": 2, "fullRoundText": "Winners Quarter-Final", "completedAt": 1755375805, "winnerId": 20944181, "slots": [{"id": "92744018-0", "entrant": {"id": 20944181, "name": "Gorduri Cap", "participants": [{"id": 19269483, "gamerTag": "Gorduri Cap", "prefix": "", "user": {"location": {"city": "", "state": "AK", "country": "United States"}}, "player": {"id": 2068683, "gamerTag": "Spauldo", "prefix": "", "user": {"location": {"city": "", "state": "AK", "country": "United States"}}}}]}, "standing": {"placement": 1, "stats": {"score": {"value": 2}}}}, {"id": "92744018-1", "entrant": {"id": 20958471, "name": "DuckiePlz", "participants": [{"id": 19281681, "gamerTag": "DuckiePlz", "prefix": null, "user": {"location": {"city": "Macon", "state": "GA", "country": "United States"}}, "player": {"id": 1236717, "gamerTag": "DuckiePlz", "prefix": null, "user": {"location": {"city": "Macon", "state": "GA", "country": "United States"}}}}]}, "standing": {"placement": 2, "stats": {"score": {"value": 0}}}}], "games": null}, {"id": 92744019, "state": 3, "round": 2, "fullRoundText": "Winners Quarter-Final", "completedAt": 1755377394, "winnerId": 20982016, "slots": [{"id": "92744019-0", "entrant": {"id": 20982016, "name": "MrMixtape", "participants": [{"id": 19302404, "gamerTag": "MrMixtape", "prefix": null, "user": {"location": {"city": null, "state": null, "country": null}}, "player": {"id": 3930310, "gamerTag": "MrMixtape", "prefix": null, "user": {"location": {"city": null, "state": null, "country": null}}}}]}, "standing": {"placement": 1, "stats": {"score": {"value": 2}}}}, {"id": "92744019-1", "entrant": {"id": 20947551, "name": "Foam Root", "participants": [{"id": 19272375, "gamerTag": "Foam Root", "prefix": "", "user": {"location": {"city": "Covington", "state": "GA", "country": "United States"}}, "player": {"id": 541222, "gamerTag": "Foam Root", "prefix": "", "user": {"location": {"city": "Covington", "state": "GA", "country": "United States"}}}}]}, "standing": {"placement": 2, "stats": {"score": {"value": 1}}}}], "games": null}, {"id": 92744020, "state": 3, "round": 2, "fullRoundText": "Winners Quarter-Final", "completedAt": 1755376131, "winnerId": 20942795, "slots": [{"id": "92744020-0", "entrant": {"id": 20942795, "name": "SE UNI | Shuri", "participants": [{"id": 19268251, "gamerTag": "Shuri", "prefix": "SE UNI", "user": {"location": {"city": "Bonaire", "state": "GA", "country": "United States"}}, "player": {"id": 183894, "gamerTag": "Shuri", "prefix": "SE UNI", "user": {"location": {"city": "Bonaire", "state": "GA", "country": "United States"}}}}]}, "standing": {"placement": 1, "stats": {"score": {"value": 2}}}}, {"id": "92744020-1", "entrant": {"id": 20987360, "name": "Chato", "participants": [{"id": 19306623, "gamerTag": "Chato", "prefix": null, "user": {"location": {"city": null, "state": null, "country": null}}, "player": {"id": 657291, "gamerTag": "Chato", "prefix": null, "user": {"location": {"city": null, "state": null, "country": null}}}}]}, "standing": {"placement": 2, "stats": {"score": {"value": 0}}}}], "games": null}, {"id": 92744021, "state": 3, "round": 2, "fullRoundText": "Winners Quarter-Final", "completedAt": 1755376676, "winnerId": 20943954, "slots": [{"id": "92744021-0", "entrant": {"id": 20943954, "name": "ATLRiot", "participants": [{"id": 19269312, "gamerTag": "ATLRiot", "prefix": "", "user": {"location": {"city": "Augusta", "state": "GA", "country": "United States"}}, "player": {"id": 2057913, "gamerTag": "ATLRiot", "prefix": "", "user": {"location": {"city": "Augusta", "state": "GA", "country": "United States"}}}}]}, "standing": {"placement": 1, "stats": {"score": {"value": 2}}}}, {"id": "92744021-1", "entrant": {"id": 20988633, "name": "Luff", "participants": [{"id": 19288626, "gamerTag": "Luff", "prefix": null, "user": {"location": {"city": "Savannah", "state": "GA", "country": "United States"}}, "player": {"id": 4102348, "gamerTag": "Luff", "prefix": "SQ1", "user": {"location": {"city": "Savannah", "state": "GA", "country": "United States"}}}}]}, "standing": {"placement": 2, "stats": {"score": {"value": 1}}}}], "games": null}]}}}