{"phase": {"seeds": {"pageInfo": {"totalPages": 1, "total": 6}, "nodes": [{"id": 36118978, "seedNum": 1, "entrant": {"id": 20942504, "name": "Noodle", "participants": [{"id": 19267986, "gamerTag": "Noodle", "prefix": null, "user": {"location": {"city": "McDonough", "state": "GA", "country": "United States"}}, "player": {"id": 3029288, "gamerTag": "Noodle", "prefix": "", "user": {"location": {"city": "McDonough", "state": "GA", "country": "United States"}}}}]}}, {"id": 36110340, "seedNum": 2, "entrant": {"id": 20936439, "name": "ZB | Gerard", "participants": [{"id": 19262397, "gamerTag": "Gerard", "prefix": "ZB", "user": {"location": {"city": "Atlanta", "state": "GA", "country": "United States"}}, "player": {"id": 325542, "gamerTag": "Gerard", "prefix": "ZB", "user": {"location": {"city": "Atlanta", "state": "GA", "country": "United States"}}}}]}}, {"id": 36100958, "seedNum": 3, "entrant": {"id": 20930333, "name": "Skate", "participants": [{"id": 19256820, "gamerTag": "Skate", "prefix": null, "user": {"location": {"city": null, "state": null, "country": "United States"}}, "player": {"id": 4045198, "gamerTag": "Skate", "prefix": null, "user": {"location": {"city": null, "state": null, "country": "United States"}}}}]}}, {"id": 36116887, "seedNum": 4, "entrant": {"id": 20940645, "name": "ZB | Sanaito", "participants": [{"id": 19256819, "gamerTag": "Sanaito", "prefix": "ZB", "user": {"location": {"city": "Fayetteville", "state": "GA", "country": "United States"}}, "player": {"id": 12761, "gamerTag": "Sanaito", "prefix": "ZB", "user": {"location": {"city": "Fayetteville", "state": "GA", "country": "United States"}}}}]}}, {"id": 36103818, "seedNum": 5, "entrant": {"id": 20932091, "name": "ZB | lupeslounge", "participants": [{"id": 19258448, "gamerTag": "lupeslounge", "prefix": "ZB", "user": {"location": {"city": "Morrow", "state": "GA", "country": "United States"}}, "player": {"id": 303516, "gamerTag": "lupeslounge", "prefix": "ZB", "user": {"location": {"city": "Morrow", "state": "GA", "country": "United States"}}}}]}}, {"id": 36112184, "seedNum": 6, "entrant": {"id": 20937719, "name": "Stachington", "participants": [{"id": 19263577, "gamerTag": "Stachington", "prefix": null, "user": {"location": {"city": "Columbus", "state": "GA", "country": "United States"}}, "player": {"id": 138010, "gamerTag": "Stachington", "prefix": null, "user": {"location": {"city": "Columbus", "state": "GA", "country": "United States"}}}}]}}]}}}