{"event": {"sets": {"pageInfo": {"totalPages": 4, "total": 46}, "nodes": [{"id": 93409937, "state": 3, "round": -4, "fullRoundText": "Losers Round 1", "completedAt": 1756860791, "winnerId": 21152262, "slots": [{"id": "93409937-0", "entrant": {"id": 21152262, "name": "Brennan", "participants": [{"id": 19455385, "gamerTag": "Brennan", "prefix": "", "user": {"location": {"city": "Atlanta", "state": "GA", "country": "United States"}}, "player": {"id": 1856111, "gamerTag": "Brennan", "prefix": "", "user": {"location": {"city": "Atlanta", "state": "GA", "country": "United States"}}}}]}, "standing": {"placement": 1, "stats": {"score": {"value": 3}}}}, {"id": "93409937-1", "entrant": {"id": 21152320, "name": "TF | Cy", "participants": [{"id": 19455437, "gamerTag": "Cy", "prefix": "TF", "user": {"location": {"city": "", "state": "GA", "country": "United States"}}, "player": {"id": 1832834, "gamerTag": "Cy", "prefix": "TF", "user": {"location": {"city": "", "state": "GA", "country": "United States"}}}}]}, "standing": {"placement": 2, "stats": {"score": {"value": 0}}}}], "games": null}, {"id": 93409938, "state": 3, "round": -4, "fullRoundText": "Losers Round 1", "completedAt": 1756860049, "winnerId": 21150693, "slots": [{"id": "93409938-0", "entrant": {"id": 21150693, "name": "4o4 | byronic zero", "participants": [{"id": 19454001, "gamerTag": "byronic zero", "prefix": "4o4", "user": {"location": {"city": "Atlanta", "state": "GA", "country": "United States"}}, "player": {"id": 3577590, "gamerTag": "byronic zero", "prefix": "4o4", "user": {"location": {"city": "Atlanta", "state": "GA", "country": "United States"}}}}]}, "standing": {"placement": 1, "stats": {"score": {"value": 3}}}}, {"id": "93409938-1", "entrant": {"id": 21151361, "name": "C$", "participants": [{"id": 19454599, "gamerTag": "C$", "prefix": "", "user": {"location": {"city": "Stone mountain", "state": "GA", "country": "United States"}}, "player": {"id": 1532681, "gamerTag": "C$", "prefix": "", "user": {"location": {"city": "Stone mountain", "state": "GA", "country": "United States"}}}}]}, "standing": {"placement": 2, "stats": {"score": {"value": 0}}}}], "games": null}, {"id": 93409939, "state": 3, "round": -4, "fullRoundText": "Losers Round 1", "completedAt": 1756860318, "winnerId": 21150974, "slots": [{"id": "93409939-0", "entrant": {"id": 21150974, "name": "Nightjar Ninja", "participants": [{"id": 19454257, "gamerTag": "Nightjar Ninja", "prefix": null, "user": {"location": {"city": "Atlanta", "state": "GA", "country": "United States"}}, "player": {"id": 3694663, "gamerTag": "Nightjar Ninja", "prefix": null, "user": {"location": {"city": "Atlanta", "state": "GA", "country": "United States"}}}}]}, "standing": {"placement": 1, "stats": {"score": {"value": 3}}}}, {"id": "93409939-1", "entrant": {"id": 21143838, "name": "KSU | Subzero", "participants": [{"id": 19447988, "gamerTag": "Subzero", "prefix": "KSU", "user": {"location": {"city": "Acworth", "state": "GA", "country": "United States"}}, "player": {"id": 1808159, "gamerTag": "Subzero", "prefix": "KSU", "user": {"location": {"city": "Acworth", "state": "GA", "country": "United States"}}}}]}, "standing": {"placement": 2, "stats": {"score": {"value": 1}}}}], "games": null}, {"id": 93409940, "state": 3, "round": -4, "fullRoundText": "Losers Round 1", "completedAt": 1756860401, "winnerId": 21151358, "slots": [{"id": "93409940-0", "entrant": {"id": 21152223, "name": "LukeWarm", "participants": [{"id": 19455358, "gamerTag": "LukeWarm", "prefix": "", "user": {"location": {"city": "Alpharetta", "state": "GA", "country": "United States"}}, "player": {"id": 1348903, "gamerTag": "LukeWarm", "prefix": "", "user": {"location": {"city": "Alpharetta", "state": "GA", "country": "United States"}}}}]}, "standing": {"placement": 2, "stats": {"score": {"value": 2}}}}, {"id": "93409940-1", "entrant": {"id": 21151358, "name": "Xangief", "participants": [{"id": 19454596, "gamerTag": "Xangief", "prefix": null, "user": {"location": {"city": "Atlanta", "state": "GA", "country": "United States"}}, "player": {"id": 135082, "gamerTag": "Xangief", "prefix": null, "user": {"location": {"city": "Atlanta", "state": "GA", "country": "United States"}}}}]}, "standing": {"placement": 1, "stats": {"score": {"value": 3}}}}], "games": null}, {"id": 93409941, "state": 3, "round": -4, "fullRoundText": "Losers Round 1", "completedAt": 1756860366, "winnerId": 21142223, "slots": [{"id": "93409941-0", "entrant": {"id": 21142223, "name": "CptSilverRaider", "participants": [{"id": 19446692, "gamerTag": "CptSilverRaider", "prefix": "", "user": {"location": {"city": "Atlanta", "state": "GA", "country": "United States"}}, "player": {"id": 4931134, "gamerTag": "CptSilverRaider", "prefix": "", "user": {"location": {"city": "Atlanta", "state": "GA", "country": "United States"}}}}]}, "standing": {"placement": 1, "stats": {"score": {"value": 3}}}}, {"id": "93409941-1", "entrant": {"id": 21144080, "name": "red dot", "participants": [{"id": 19448182, "gamerTag": "red dot", "prefix": "", "user": {"location": {"city": "Milton", "state": "GA", "country": "United States"}}, "player": {"id": 1812177, "gamerTag": "red dot", "prefix": "", "user": {"location": {"city": "Milton", "state": "GA", "country": "United States"}}}}]}, "standing": {"placement": 2, "stats": {"score": {"value": 1}}}}], "games": null}, {"id": 93409942, "state": 3, "round": -4, "fullRoundText": "Losers Round 1", "completedAt": 1756860445, "winnerId": 21150417, "slots": [{"id": "93409942-0", "entrant": {"id": 21150417, "name": "4o4 | Yugo", "participants": [{"id": 19453758, "gamerTag": "Yugo", "prefix": "4o4", "user": {"location": {"city": "Sandy springs", "state": "GA", "country": "United States"}}, "player": {"id": 338020, "gamerTag": "Yugo", "prefix": "4o4", "user": {"location": {"city": "Sandy springs", "state": "GA", "country": "United States"}}}}]}, "standing": {"placement": 1, "stats": {"score": {"value": 3}}}}, {"id": "93409942-1", "entrant": {"id": 21151262, "name": "stylesK", "participants": [{"id": 19454509, "gamerTag": "stylesK", "prefix": "", "user": {"location": {"city": "Sandy Springs", "state": "GA", "country": "United States"}}, "player": {"id": 3475419, "gamerTag": "stylesK", "prefix": "", "user": {"location": {"city": "Sandy Springs", "state": "GA", "country": "United States"}}}}]}, "standing": {"placement": 2, "stats": {"score": {"value": 0}}}}], "games": null}, {"id": 93409943, "state": 3, "round": -4, "fullRoundText": "Losers Round 1", "completedAt": 1756860003, "winnerId": 21152163, "slots": [{"id": "93409943-0", "entrant": {"id": 21152163, "name": "Leon Nights", "participants": [{"id": 19455304, "gamerTag": "Leon Nights", "prefix": null, "user": {"location": {"city": "Atlanta", "state": "GA", "country": "United States"}}, "player": {"id": 4752335, "gamerTag": "Leon Nights", "prefix": null, "user": {"location": {"city": "Atlanta", "state": "GA", "country": "United States"}}}}]}, "standing": {"placement": 1, "stats": {"score": {"value": 3}}}}, {"id": "93409943-1", "entrant": {"id": 21147042, "name": "Pazure", "participants": [{"id": 19450805, "gamerTag": "Pazure", "prefix": null, "user": {"location": {"city": null, "state": null, "country": "United States"}}, "player": {"id": 72218, "gamerTag": "Pazure", "prefix": null, "user": {"location": {"city": null, "state": null, "country": "United States"}}}}]}, "standing": {"placement": 2, "stats": {"score": {"value": 1}}}}], "games": null}, {"id": 93409936, "state": 3, "round": -4, "fullRoundText": "Losers Round 1", "completedAt": 1756860339, "winnerId": 21152213, "slots": [{"id": "93409936-0", "entrant": {"id": 21152213, "name": "MBossProductions", "participants": [{"id": 19455350, "gamerTag": "MBossProductions", "prefix": "", "user": {"location": {"city": "Norcross", "state": "GA", "country": "United States"}}, "player": {"id": 1997490, "gamerTag": "MBossProductions", "prefix": "", "user": {"location": {"city": "Norcross", "state": "GA", "country": "United States"}}}}]}, "standing": {"placement": 1, "stats": {"score": {"value": 3}}}}, {"id": "93409936-1", "entrant": {"id": 21150917, "name": "4o4 | CoNavySeal", "participants": [{"id": 19454205, "gamerTag": "CoNavySeal", "prefix": "4o4", "user": {"location": {"city": "Alpharetta", "state": "GA", "country": "United States"}}, "player": {"id": 3818891, "gamerTag": "CoNavySeal", "prefix": "4o4", "user": {"location": {"city": "Alpharetta", "state": "GA", "country": "United States"}}}}]}, "standing": {"placement": 2, "stats": {"score": {"value": 1}}}}], "games": null}, {"id": 93409864, "state": 3, "round": 1, "fullRoundText": "Winners Round 1", "completedAt": 1756858861, "winnerId": 21152163, "slots": [{"id": "93409864-0", "entrant": {"id": 21152163, "name": "Leon Nights", "participants": [{"id": 19455304, "gamerTag": "Leon Nights", "prefix": null, "user": {"location": {"city": "Atlanta", "state": "GA", "country": "United States"}}, "player": {"id": 4752335, "gamerTag": "Leon Nights", "prefix": null, "user": {"location": {"city": "Atlanta", "state": "GA", "country": "United States"}}}}]}, "standing": {"placement": 1, "stats": {"score": {"value": 3}}}}, {"id": "93409864-1", "entrant": {"id": 21150917, "name": "4o4 | CoNavySeal", "participants": [{"id": 19454205, "gamerTag": "CoNavySeal", "prefix": "4o4", "user": {"location": {"city": "Alpharetta", "state": "GA", "country": "United States"}}, "player": {"id": 3818891, "gamerTag": "CoNavySeal", "prefix": "4o4", "user": {"location": {"city": "Alpharetta", "state": "GA", "country": "United States"}}}}]}, "standing": {"placement": 2, "stats": {"score": {"value": 2}}}}], "games": null}, {"id": 93409866, "state": 3, "round": 1, "fullRoundText": "Winners Round 1", "completedAt": 1756858545, "winnerId": 21150699, "slots": [{"id": "93409866-0", "entrant": {"id": 21150699, "name": "4o4 | Noodle", "participants": [{"id": 19454006, "gamerTag": "Noodle", "prefix": "4o4", "user": {"location": {"city": "McDonough", "state": "GA", "country": "United States"}}, "player": {"id": 3029288, "gamerTag": "Noodle", "prefix": "", "user": {"location": {"city": "McDonough", "state": "GA", "country": "United States"}}}}]}, "standing": {"placement": 1, "stats": {"score": {"value": 3}}}}, {"id": "93409866-1", "entrant": {"id": 21152320, "name": "TF | Cy", "participants": [{"id": 19455437, "gamerTag": "Cy", "prefix": "TF", "user": {"location": {"city": "", "state": "GA", "country": "United States"}}, "player": {"id": 1832834, "gamerTag": "Cy", "prefix": "TF", "user": {"location": {"city": "", "state": "GA", "country": "United States"}}}}]}, "standing": {"placement": 2, "stats": {"score": {"value": 0}}}}], "games": null}, {"id": 93409868, "state": 3, "round": 1, "fullRoundText": "Winners Round 1", "completedAt": 1756858997, "winnerId": 21142223, "slots": [{"id": "93409868-0", "entrant": {"id": 21151361, "name": "C$", "participants": [{"id": 19454599, "gamerTag": "C$", "prefix": "", "user": {"location": {"city": "Stone mountain", "state": "GA", "country": "United States"}}, "player": {"id": 1532681, "gamerTag": "C$", "prefix": "", "user": {"location": {"city": "Stone mountain", "state": "GA", "country": "United States"}}}}]}, "standing": {"placement": 2, "stats": {"score": {"value": 2}}}}, {"id": "93409868-1", "entrant": {"id": 21142223, "name": "CptSilverRaider", "participants": [{"id": 19446692, "gamerTag": "CptSilverRaider", "prefix": "", "user": {"location": {"city": "Atlanta", "state": "GA", "country": "United States"}}, "player": {"id": 4931134, "gamerTag": "CptSilverRaider", "prefix": "", "user": {"location": {"city": "Atlanta", "state": "GA", "country": "United States"}}}}]}, "standing": {"placement": 1, "stats": {"score": {"value": 3}}}}], "games": null}, {"id": 93409870, "state": 3, "round": 1, "fullRoundText": "Winners Round 1", "completedAt": 1756858612, "winnerId": 21152223, "slots": [{"id": "93409870-0", "entrant": {"id": 21152223, "name": "LukeWarm", "participants": [{"id": 19455358, "gamerTag": "LukeWarm", "prefix": "", "user": {"location": {"city": "Alpharetta", "state": "GA", "country": "United States"}}, "player": {"id": 1348903, "gamerTag": "LukeWarm", "prefix": "", "user": {"location": {"city": "Alpharetta", "state": "GA", "country": "United States"}}}}]}, "standing": {"placement": 1, "stats": {"score": {"value": 3}}}}, {"id": "93409870-1", "entrant": {"id": 21143838, "name": "KSU | Subzero", "participants": [{"id": 19447988, "gamerTag": "Subzero", "prefix": "KSU", "user": {"location": {"city": "Acworth", "state": "GA", "country": "United States"}}, "player": {"id": 1808159, "gamerTag": "Subzero", "prefix": "KSU", "user": {"location": {"city": "Acworth", "state": "GA", "country": "United States"}}}}]}, "standing": {"placement": 2, "stats": {"score": {"value": 0}}}}], "games": null}, {"id": 93409872, "state": 3, "round": 1, "fullRoundText": "Winners Round 1", "completedAt": 1756858858, "winnerId": 21150974, "slots": [{"id": "93409872-0", "entrant": {"id": 21151358, "name": "Xangief", "participants": [{"id": 19454596, "gamerTag": "Xangief", "prefix": null, "user": {"location": {"city": "Atlanta", "state": "GA", "country": "United States"}}, "player": {"id": 135082, "gamerTag": "Xangief", "prefix": null, "user": {"location": {"city": "Atlanta", "state": "GA", "country": "United States"}}}}]}, "standing": {"placement": 2, "stats": {"score": {"value": 1}}}}, {"id": "93409872-1", "entrant": {"id": 21150974, "name": "Nightjar Ninja", "participants": [{"id": 19454257, "gamerTag": "Nightjar Ninja", "prefix": null, "user": {"location": {"city": "Atlanta", "state": "GA", "country": "United States"}}, "player": {"id": 3694663, "gamerTag": "Nightjar Ninja", "prefix": null, "user": {"location": {"city": "Atlanta", "state": "GA", "country": "United States"}}}}]}, "standing": {"placement": 1, "stats": {"score": {"value": 3}}}}], "games": null}, {"id": 93409874, "state": 3, "round": 1, "fullRoundText": "Winners Round 1", "completedAt": 1756858825, "winnerId": 21152191, "slots": [{"id": "93409874-0", "entrant": {"id": 21152191, "name": "Archway", "participants": [{"id": 19455331, "gamerTag": "Archway", "prefix": "", "user": {"location": {"city": "Sandy Springs", "state": "GA", "country": "United States"}}, "player": {"id": 1435251, "gamerTag": "Archway", "prefix": "", "user": {"location": {"city": "Sandy Springs", "state": "GA", "country": "United States"}}}}]}, "standing": {"placement": 1, "stats": {"score": {"value": 3}}}}, {"id": "93409874-1", "entrant": {"id": 21144080, "name": "red dot", "participants": [{"id": 19448182, "gamerTag": "red dot", "prefix": "", "user": {"location": {"city": "Milton", "state": "GA", "country": "United States"}}, "player": {"id": 1812177, "gamerTag": "red dot", "prefix": "", "user": {"location": {"city": "Milton", "state": "GA", "country": "United States"}}}}]}, "standing": {"placement": 2, "stats": {"score": {"value": 0}}}}], "games": null}, {"id": 93409876, "state": 3, "round": 1, "fullRoundText": "Winners Round 1", "completedAt": 1756858754, "winnerId": 21152262, "slots": [{"id": "93409876-0", "entrant": {"id": 21151262, "name": "stylesK", "participants": [{"id": 19454509, "gamerTag": "stylesK", "prefix": "", "user": {"location": {"city": "Sandy Springs", "state": "GA", "country": "United States"}}, "player": {"id": 3475419, "gamerTag": "stylesK", "prefix": "", "user": {"location": {"city": "Sandy Springs", "state": "GA", "country": "United States"}}}}]}, "standing": {"placement": 2, "stats": {"score": {"value": 0}}}}, {"id": "93409876-1", "entrant": {"id": 21152262, "name": "Brennan", "participants": [{"id": 19455385, "gamerTag": "Brennan", "prefix": "", "user": {"location": {"city": "Atlanta", "state": "GA", "country": "United States"}}, "player": {"id": 1856111, "gamerTag": "Brennan", "prefix": "", "user": {"location": {"city": "Atlanta", "state": "GA", "country": "United States"}}}}]}, "standing": {"placement": 1, "stats": {"score": {"value": 3}}}}], "games": null}]}}}