{"phase": {"seeds": {"pageInfo": {"totalPages": 1, "total": 22}, "nodes": [{"id": 36145074, "seedNum": 1, "entrant": {"id": 20960362, "name": "JJBREEZE", "participants": [{"id": 19283290, "gamerTag": "JJBREEZE", "prefix": "", "user": {"location": {"city": "Atlanta", "state": "GA", "country": "United States"}}, "player": {"id": 688460, "gamerTag": "JJBREEZE", "prefix": "", "user": {"location": {"city": "Atlanta", "state": "GA", "country": "United States"}}}}]}}, {"id": 36198167, "seedNum": 3, "entrant": {"id": 20987064, "name": "duetosideeffects", "participants": [{"id": 19306376, "gamerTag": "duetosideeffects", "prefix": "", "user": {"location": {"city": "Atlanta", "state": "GA", "country": "United States"}}, "player": {"id": 924041, "gamerTag": "duetosideeffects", "prefix": "", "user": {"location": {"city": "Atlanta", "state": "GA", "country": "United States"}}}}]}}, {"id": 36133321, "seedNum": 7, "entrant": {"id": 20951379, "name": "ofito95", "participants": [{"id": 19275720, "gamerTag": "ofito95", "prefix": null, "user": {"location": {"city": "Atlanta", "state": "NJ", "country": "United States"}}, "player": {"id": 490676, "gamerTag": "ofito95", "prefix": null, "user": {"location": {"city": "Atlanta", "state": "NJ", "country": "United States"}}}}]}}, {"id": 36198562, "seedNum": 20, "entrant": {"id": 20987306, "name": "LogieBear", "participants": [{"id": 19306588, "gamerTag": "LogieBear", "prefix": "", "user": {"location": {"city": "Snellville", "state": "GA", "country": "United States"}}, "player": {"id": 3809706, "gamerTag": "LogieBear", "prefix": "", "user": {"location": {"city": "Snellville", "state": "GA", "country": "United States"}}}}]}}, {"id": 36197548, "seedNum": 2, "entrant": {"id": 20986712, "name": "Rel", "participants": [{"id": 19306076, "gamerTag": "Rel", "prefix": "", "user": {"location": {"city": "Atlanta", "state": null, "country": "United States"}}, "player": {"id": 2774889, "gamerTag": "Rel", "prefix": "", "user": {"location": {"city": "Atlanta", "state": null, "country": "United States"}}}}]}}, {"id": 36188493, "seedNum": 6, "entrant": {"id": 20981135, "name": "4o4 | KhalRhaego", "participants": [{"id": 19301704, "gamerTag": "KhalRhaego", "prefix": "4o4", "user": {"location": {"city": "Jonesboro", "state": "GA", "country": "United States"}}, "player": {"id": 4076327, "gamerTag": "KhalRhaego", "prefix": "BOLT", "user": {"location": {"city": "Jonesboro", "state": "GA", "country": "United States"}}}}]}}, {"id": 36199853, "seedNum": 4, "entrant": {"id": 20988346, "name": "Armanisaint", "participants": [{"id": 19307430, "gamerTag": "Armanisaint", "prefix": null, "user": {"location": {"city": "Roswell", "state": "GA", "country": "United States"}}, "player": {"id": 3943806, "gamerTag": "Armanisaint", "prefix": null, "user": {"location": {"city": "Roswell", "state": "GA", "country": "United States"}}}}]}}, {"id": 36148530, "seedNum": 9, "entrant": {"id": 20962906, "name": "GCH | slaughterwall", "participants": [{"id": 19285495, "gamerTag": "slaughterwall", "prefix": "GCH", "user": {"location": {"city": "Atlanta", "state": "GA", "country": "United States"}}, "player": {"id": 1104452, "gamerTag": "slaughterwall", "prefix": "GCH", "user": {"location": {"city": "Atlanta", "state": "GA", "country": "United States"}}}}]}}, {"id": 36202141, "seedNum": 5, "entrant": {"id": 20989920, "name": "Iso.Dgaf", "participants": [{"id": 19308827, "gamerTag": "Iso.Dgaf", "prefix": null, "user": {"location": {"city": "Acworth", "state": "GA", "country": "United States"}}, "player": {"id": 4285541, "gamerTag": "Iso.Dgaf", "prefix": null, "user": {"location": {"city": "Acworth", "state": "GA", "country": "United States"}}}}]}}, {"id": 36143115, "seedNum": 8, "entrant": {"id": 20959008, "name": "InIt2WynneIt", "participants": [{"id": 19282159, "gamerTag": "InIt2WynneIt", "prefix": "", "user": {"location": {"city": "LAWRENCEVILLE", "state": "GA", "country": "United States"}}, "player": {"id": 260407, "gamerTag": "InIt2WynneIt", "prefix": "", "user": {"location": {"city": "LAWRENCEVILLE", "state": "GA", "country": "United States"}}}}]}}, {"id": 36197347, "seedNum": 11, "entrant": {"id": 20986580, "name": "JFCA | Abstract", "participants": [{"id": 19305947, "gamerTag": "Abstract", "prefix": "JFCA", "user": {"location": {"city": "Atlanta", "state": "GA", "country": "United States"}}, "player": {"id": 36643, "gamerTag": "Abstract", "prefix": "JFCA", "user": {"location": {"city": "Atlanta", "state": "GA", "country": "United States"}}}}]}}, {"id": 36199459, "seedNum": 15, "entrant": {"id": 20987994, "name": "ToBeFrank | FF | SLAYlor Moon", "participants": [{"id": 19307159, "gamerTag": "SLAYlor Moon", "prefix": "ToBeFrank | FF", "user": {"location": {"city": "Atlanta", "state": "GA", "country": "United States"}}, "player": {"id": 267007, "gamerTag": "SLAYlor Moon", "prefix": "ToBeFrank | FF", "user": {"location": {"city": "Atlanta", "state": "GA", "country": "United States"}}}}]}}, {"id": 36187956, "seedNum": 10, "entrant": {"id": 20980819, "name": "Eternia Corp. | HBKdoza", "participants": [{"id": 19301417, "gamerTag": "HBKdoza", "prefix": "Eternia Corp.", "user": {"location": {"city": "Decatur", "state": "GA", "country": "United States"}}, "player": {"id": 3426567, "gamerTag": "HBKdoza", "prefix": "Eternia Corp.", "user": {"location": {"city": "Decatur", "state": "GA", "country": "United States"}}}}]}}, {"id": 36201883, "seedNum": 14, "entrant": {"id": 20989714, "name": "HEAVANER", "participants": [{"id": 19308638, "gamerTag": "HEAVANER", "prefix": "", "user": null, "player": {"id": 4912576, "gamerTag": "HEAVANER", "prefix": "", "user": null}}]}}, {"id": 36197101, "seedNum": 17, "entrant": {"id": 20986409, "name": "Azarlith", "participants": [{"id": 19305810, "gamerTag": "Azarlith", "prefix": "", "user": {"location": {"city": "Lawrenceville", "state": null, "country": "United States"}}, "player": {"id": 3444743, "gamerTag": "Azarlith", "prefix": "", "user": {"location": {"city": "Lawrenceville", "state": null, "country": "United States"}}}}]}}, {"id": 36199209, "seedNum": 21, "entrant": {"id": 20987784, "name": "HtK | toties", "participants": [{"id": 19306993, "gamerTag": "toties", "prefix": "HtK", "user": {"location": {"city": "Atlanta", "state": "GA", "country": "United States"}}, "player": {"id": 3927021, "gamerTag": "toties", "prefix": "HtK", "user": {"location": {"city": "Atlanta", "state": "GA", "country": "United States"}}}}]}}, {"id": 36198088, "seedNum": 12, "entrant": {"id": 20986999, "name": "C-2", "participants": [{"id": 19306328, "gamerTag": "C-2", "prefix": "", "user": {"location": {"city": "Atlanta", "state": "GA", "country": "United States"}}, "player": {"id": 1228856, "gamerTag": "C-2", "prefix": "", "user": {"location": {"city": "Atlanta", "state": "GA", "country": "United States"}}}}]}}, {"id": 36146539, "seedNum": 13, "entrant": {"id": 20961404, "name": "PAR | Romanova", "participants": [{"id": 19284180, "gamerTag": "Romanova", "prefix": "PAR", "user": {"location": {"city": "Atlanta", "state": "GA", "country": "United States"}}, "player": {"id": 228245, "gamerTag": "Romanova", "prefix": "PAR", "user": {"location": {"city": "Atlanta", "state": "GA", "country": "United States"}}}}]}}, {"id": 36150729, "seedNum": 16, "entrant": {"id": 20964162, "name": "Momokins", "participants": [{"id": 19286442, "gamerTag": "Momokins", "prefix": "", "user": {"location": {"city": "Atlanta", "state": "GA", "country": "United States"}}, "player": {"id": 612216, "gamerTag": "Momokins", "prefix": "", "user": {"location": {"city": "Atlanta", "state": "GA", "country": "United States"}}}}]}}, {"id": 36197283, "seedNum": 18, "entrant": {"id": 20986543, "name": "YoshiAteMyPizza", "participants": [{"id": 19305915, "gamerTag": "YoshiAteMyPizza", "prefix": "", "user": {"location": {"city": "Norcross", "state": "GA", "country": "United States"}}, "player": {"id": 2364649, "gamerTag": "YoshiAteMyPizza", "prefix": "", "user": {"location": {"city": "Norcross", "state": "GA", "country": "United States"}}}}]}}, {"id": 36201343, "seedNum": 19, "entrant": {"id": 20989383, "name": "Fiji | 100 Latinas", "participants": [{"id": 19308327, "gamerTag": "100 Latinas", "prefix": "Fiji", "user": {"location": {"city": "Lithonia", "state": "GA", "country": "United States"}}, "player": {"id": 1890427, "gamerTag": "100 Latinas", "prefix": "Fiji", "user": {"location": {"city": "Lithonia", "state": "GA", "country": "United States"}}}}]}}, {"id": 36200617, "seedNum": 22, "entrant": {"id": 20988879, "name": "girlfeet", "participants": [{"id": 19307895, "gamerTag": "girlfeet", "prefix": null, "user": {"location": {"city": "Atlanta", "state": "GA", "country": "United States"}}, "player": {"id": 3327119, "gamerTag": "girlfeet", "prefix": null, "user": {"location": {"city": "Atlanta", "state": "GA", "country": "United States"}}}}]}}]}}}