{"phase": {"seeds": {"pageInfo": {"totalPages": 1, "total": 16}, "nodes": [{"id": 35786677, "seedNum": 4, "entrant": {"id": 20740851, "name": "duetosideeffects", "participants": [{"id": 19086845, "gamerTag": "duetosideeffects", "prefix": "", "user": {"location": {"city": "Atlanta", "state": "GA", "country": "United States"}}, "player": {"id": 924041, "gamerTag": "duetosideeffects", "prefix": "", "user": {"location": {"city": "Atlanta", "state": "GA", "country": "United States"}}}}]}}, {"id": 35785841, "seedNum": 1, "entrant": {"id": 20740092, "name": "Pokchop", "participants": [{"id": 19086126, "gamerTag": "Pokchop", "prefix": "", "user": {"location": {"city": "Atlanta", "state": "GA", "country": "United States"}}, "player": {"id": 150402, "gamerTag": "Pokchop", "prefix": "", "user": {"location": {"city": "Atlanta", "state": "GA", "country": "United States"}}}}]}}, {"id": 35776308, "seedNum": 3, "entrant": {"id": 20732989, "name": "O.N.2", "participants": [{"id": 19080366, "gamerTag": "O.N.2", "prefix": "", "user": {"location": {"city": "SNELLVILLE", "state": "GA", "country": "United States"}}, "player": {"id": 1042436, "gamerTag": "O.N.2", "prefix": "", "user": {"location": {"city": "SNELLVILLE", "state": "GA", "country": "United States"}}}}]}}, {"id": 35789015, "seedNum": 10, "entrant": {"id": 20742929, "name": "juice", "participants": [{"id": 19088814, "gamerTag": "juice", "prefix": "", "user": {"location": {"city": "atlanta", "state": "GA", "country": "United States"}}, "player": {"id": 146905, "gamerTag": "juice", "prefix": "100%", "user": {"location": {"city": "atlanta", "state": "GA", "country": "United States"}}}}]}}, {"id": 35788399, "seedNum": 2, "entrant": {"id": 20742407, "name": "JJBREEZE", "participants": [{"id": 19088328, "gamerTag": "JJBREEZE", "prefix": "", "user": {"location": {"city": "Atlanta", "state": "GA", "country": "United States"}}, "player": {"id": 688460, "gamerTag": "JJBREEZE", "prefix": "", "user": {"location": {"city": "Atlanta", "state": "GA", "country": "United States"}}}}]}}, {"id": 35756913, "seedNum": 7, "entrant": {"id": 20720200, "name": "GCH | slaughterwall", "participants": [{"id": 19069358, "gamerTag": "slaughterwall", "prefix": "GCH", "user": {"location": {"city": "Atlanta", "state": "GA", "country": "United States"}}, "player": {"id": 1104452, "gamerTag": "slaughterwall", "prefix": "GCH", "user": {"location": {"city": "Atlanta", "state": "GA", "country": "United States"}}}}]}}, {"id": 35788802, "seedNum": 8, "entrant": {"id": 20742742, "name": "Iso.Dgaf", "participants": [{"id": 19088630, "gamerTag": "Iso.Dgaf", "prefix": null, "user": {"location": {"city": "Acworth", "state": "GA", "country": "United States"}}, "player": {"id": 4285541, "gamerTag": "Iso.Dgaf", "prefix": null, "user": {"location": {"city": "Acworth", "state": "GA", "country": "United States"}}}}]}}, {"id": 35786622, "seedNum": 9, "entrant": {"id": 20740800, "name": "InIt2WynneIt", "participants": [{"id": 19086800, "gamerTag": "InIt2WynneIt", "prefix": "", "user": {"location": {"city": "LAWRENCEVILLE", "state": "GA", "country": "United States"}}, "player": {"id": 260407, "gamerTag": "InIt2WynneIt", "prefix": "", "user": {"location": {"city": "LAWRENCEVILLE", "state": "GA", "country": "United States"}}}}]}}, {"id": 35780243, "seedNum": 5, "entrant": {"id": 20735956, "name": "4o4 | KhalRhaego", "participants": [{"id": 19082751, "gamerTag": "KhalRhaego", "prefix": "4o4", "user": {"location": {"city": "Jonesboro", "state": "GA", "country": "United States"}}, "player": {"id": 4076327, "gamerTag": "KhalRhaego", "prefix": "BOLT", "user": {"location": {"city": "Jonesboro", "state": "GA", "country": "United States"}}}}]}}, {"id": 35751319, "seedNum": 6, "entrant": {"id": 20716573, "name": "ofito95", "participants": [{"id": 19066179, "gamerTag": "ofito95", "prefix": null, "user": {"location": {"city": "Atlanta", "state": "NJ", "country": "United States"}}, "player": {"id": 490676, "gamerTag": "ofito95", "prefix": null, "user": {"location": {"city": "Atlanta", "state": "NJ", "country": "United States"}}}}]}}, {"id": 35787438, "seedNum": 11, "entrant": {"id": 20741493, "name": "TS | Static", "participants": [{"id": 19087466, "gamerTag": "Static", "prefix": "TS", "user": {"location": {"city": null, "state": null, "country": "United States"}}, "player": {"id": 298731, "gamerTag": "Static", "prefix": "TS", "user": {"location": {"city": null, "state": null, "country": "United States"}}}}]}}, {"id": 35786400, "seedNum": 13, "entrant": {"id": 20740586, "name": "4o4 | Yugo", "participants": [{"id": 19086573, "gamerTag": "Yugo", "prefix": "4o4", "user": {"location": {"city": "Sandy springs", "state": "GA", "country": "United States"}}, "player": {"id": 338020, "gamerTag": "Yugo", "prefix": "4o4", "user": {"location": {"city": "Sandy springs", "state": "GA", "country": "United States"}}}}]}}, {"id": 35751037, "seedNum": 12, "entrant": {"id": 20716302, "name": "XEON", "participants": [{"id": 19065982, "gamerTag": "XEON", "prefix": "", "user": {"location": {"city": "Greer", "state": "SC", "country": "United States"}}, "player": {"id": 2626711, "gamerTag": "XEON", "prefix": "", "user": {"location": {"city": "Greer", "state": "SC", "country": "United States"}}}}]}}, {"id": 35787615, "seedNum": 14, "entrant": {"id": 20741655, "name": "Azarlith", "participants": [{"id": 19087626, "gamerTag": "Azarlith", "prefix": "", "user": {"location": {"city": "Lawrenceville", "state": null, "country": "United States"}}, "player": {"id": 3444743, "gamerTag": "Azarlith", "prefix": "", "user": {"location": {"city": "Lawrenceville", "state": null, "country": "United States"}}}}]}}, {"id": 35788397, "seedNum": 15, "entrant": {"id": 20742406, "name": "ZanyZeta", "participants": [{"id": 19088327, "gamerTag": "ZanyZeta", "prefix": null, "user": {"location": {"city": null, "state": null, "country": null}}, "player": {"id": 4500557, "gamerTag": "ZanyZeta", "prefix": null, "user": {"location": {"city": null, "state": null, "country": null}}}}]}}, {"id": 35754556, "seedNum": 16, "entrant": {"id": 20718885, "name": "4o4 | AShavers21", "participants": [{"id": 19068156, "gamerTag": "AShavers21", "prefix": "4o4", "user": {"location": {"city": "Atlanta", "state": "GA", "country": "United States"}}, "player": {"id": 437583, "gamerTag": "AShavers21", "prefix": "4o4", "user": {"location": {"city": "Atlanta", "state": "GA", "country": "United States"}}}}]}}]}}}