{"event": {"sets": {"pageInfo": {"totalPages": 2, "total": 21}, "nodes": [{"id": 91955986, "state": 3, "round": 2, "fullRoundText": "Round 2", "completedAt": 1753639683, "winnerId": 20632465, "slots": [{"id": "91955986-0", "entrant": {"id": 20632465, "name": "Gambill", "participants": [{"id": 18993396, "gamerTag": "Gambill", "prefix": null, "user": {"location": {"city": "Aiken", "state": "SC", "country": "United States"}}, "player": {"id": 669261, "gamerTag": "Gambill", "prefix": null, "user": {"location": {"city": "Aiken", "state": "SC", "country": "United States"}}}}]}, "standing": {"placement": 1, "stats": {"score": {"value": 3}}}}, {"id": "91955986-1", "entrant": {"id": 20816665, "name": "PCV305", "participants": [{"id": 19026984, "gamerTag": "PCV305", "prefix": null, "user": {"location": {"city": "Augusta", "state": "GA", "country": "United States"}}, "player": {"id": 4327979, "gamerTag": "PCV305", "prefix": null, "user": {"location": {"city": "Augusta", "state": "GA", "country": "United States"}}}}]}, "standing": {"placement": 2, "stats": {"score": {"value": 0}}}}], "games": null}, {"id": 91955987, "state": 3, "round": 2, "fullRoundText": "Round 2", "completedAt": 1753639721, "winnerId": 20815450, "slots": [{"id": "91955987-0", "entrant": {"id": 20666090, "name": "CV | NiNE", "participants": [{"id": 19022574, "gamerTag": "NiNE", "prefix": "CV", "user": {"location": {"city": "Augusta", "state": "GA", "country": "United States"}}, "player": {"id": 25337, "gamerTag": "NiNE", "prefix": "CV", "user": {"location": {"city": "Augusta", "state": "GA", "country": "United States"}}}}]}, "standing": {"placement": 2, "stats": {"score": {"value": 1}}}}, {"id": "91955987-1", "entrant": {"id": 20815450, "name": "Foam Root", "participants": [{"id": 19155291, "gamerTag": "Foam Root", "prefix": "", "user": {"location": {"city": "Covington", "state": "GA", "country": "United States"}}, "player": {"id": 541222, "gamerTag": "Foam Root", "prefix": "", "user": {"location": {"city": "Covington", "state": "GA", "country": "United States"}}}}]}, "standing": {"placement": 1, "stats": {"score": {"value": 3}}}}], "games": null}, {"id": 91955988, "state": 3, "round": 2, "fullRoundText": "Round 2", "completedAt": 1753637988, "winnerId": 20748167, "slots": [{"id": "91955988-0", "entrant": {"id": 20702517, "name": "Alia", "participants": [{"id": 19053761, "gamerTag": "Alia", "prefix": "", "user": {"location": {"city": "Columbia", "state": "SC", "country": "United States"}}, "player": {"id": 3619482, "gamerTag": "Alia", "prefix": "", "user": {"location": {"city": "Columbia", "state": "SC", "country": "United States"}}}}]}, "standing": {"placement": 2, "stats": {"score": {"value": -1}}}}, {"id": "91955988-1", "entrant": {"id": 20748167, "name": "Shifty", "participants": [{"id": 19093740, "gamerTag": "Shifty", "prefix": "", "user": {"location": {"city": "Evans", "state": "GA", "country": "United States"}}, "player": {"id": 4387897, "gamerTag": "Shifty", "prefix": "", "user": {"location": {"city": "Evans", "state": "GA", "country": "United States"}}}}]}, "standing": {"placement": 1, "stats": {"score": {"value": null}}}}], "games": null}, {"id": 91955983, "state": 3, "round": 1, "fullRoundText": "Round 1", "completedAt": 1753642755, "winnerId": 20666090, "slots": [{"id": "91955983-0", "entrant": {"id": 20666090, "name": "CV | NiNE", "participants": [{"id": 19022574, "gamerTag": "NiNE", "prefix": "CV", "user": {"location": {"city": "Augusta", "state": "GA", "country": "United States"}}, "player": {"id": 25337, "gamerTag": "NiNE", "prefix": "CV", "user": {"location": {"city": "Augusta", "state": "GA", "country": "United States"}}}}]}, "standing": {"placement": 1, "stats": {"score": {"value": 3}}}}, {"id": "91955983-1", "entrant": {"id": 20816665, "name": "PCV305", "participants": [{"id": 19026984, "gamerTag": "PCV305", "prefix": null, "user": {"location": {"city": "Augusta", "state": "GA", "country": "United States"}}, "player": {"id": 4327979, "gamerTag": "PCV305", "prefix": null, "user": {"location": {"city": "Augusta", "state": "GA", "country": "United States"}}}}]}, "standing": {"placement": 2, "stats": {"score": {"value": 0}}}}], "games": null}, {"id": 91955984, "state": 3, "round": 1, "fullRoundText": "Round 1", "completedAt": 1753637996, "winnerId": 20816571, "slots": [{"id": "91955984-0", "entrant": {"id": 20702517, "name": "Alia", "participants": [{"id": 19053761, "gamerTag": "Alia", "prefix": "", "user": {"location": {"city": "Columbia", "state": "SC", "country": "United States"}}, "player": {"id": 3619482, "gamerTag": "Alia", "prefix": "", "user": {"location": {"city": "Columbia", "state": "SC", "country": "United States"}}}}]}, "standing": {"placement": 2, "stats": {"score": {"value": -1}}}}, {"id": "91955984-1", "entrant": {"id": 20816571, "name": "Whack", "participants": [{"id": 19156273, "gamerTag": "Whack", "prefix": null, "user": {"location": {"city": null, "state": null, "country": null}}, "player": {"id": 68999, "gamerTag": "Whack", "prefix": null, "user": {"location": {"city": null, "state": null, "country": null}}}}]}, "standing": {"placement": 1, "stats": {"score": {"value": null}}}}], "games": null}, {"id": 91955985, "state": 3, "round": 1, "fullRoundText": "Round 1", "completedAt": 1753644234, "winnerId": 20748167, "slots": [{"id": "91955985-0", "entrant": {"id": 20748167, "name": "Shifty", "participants": [{"id": 19093740, "gamerTag": "Shifty", "prefix": "", "user": {"location": {"city": "Evans", "state": "GA", "country": "United States"}}, "player": {"id": 4387897, "gamerTag": "Shifty", "prefix": "", "user": {"location": {"city": "Evans", "state": "GA", "country": "United States"}}}}]}, "standing": {"placement": 1, "stats": {"score": {"value": 3}}}}, {"id": "91955985-1", "entrant": {"id": 20815450, "name": "Foam Root", "participants": [{"id": 19155291, "gamerTag": "Foam Root", "prefix": "", "user": {"location": {"city": "Covington", "state": "GA", "country": "United States"}}, "player": {"id": 541222, "gamerTag": "Foam Root", "prefix": "", "user": {"location": {"city": "Covington", "state": "GA", "country": "United States"}}}}]}, "standing": {"placement": 2, "stats": {"score": {"value": 0}}}}], "games": null}]}}}