{"phase": {"seeds": {"pageInfo": {"totalPages": 1, "total": 6}, "nodes": [{"id": 35711157, "seedNum": 1, "entrant": {"id": 20686986, "name": "Erika Bonchiko", "participants": [{"id": 19040098, "gamerTag": "Erika Bonchiko", "prefix": null, "user": {"location": {"city": "Atlanta", "state": "GA", "country": "United States"}}, "player": {"id": 16360, "gamerTag": "Erika Bonchiko", "prefix": null, "user": {"location": {"city": "Atlanta", "state": "GA", "country": "United States"}}}}]}}, {"id": 35716586, "seedNum": 4, "entrant": {"id": 20691055, "name": "KHW | Frumps", "participants": [{"id": 19043955, "gamerTag": "Frumps", "prefix": "KHW", "user": {"location": {"city": "Greenville", "state": "SC", "country": "United States"}}, "player": {"id": 2844590, "gamerTag": "Frumps", "prefix": "KHW", "user": {"location": {"city": "Greenville", "state": "SC", "country": "United States"}}}}]}}, {"id": 35715104, "seedNum": 3, "entrant": {"id": 20689807, "name": "cheeks", "participants": [{"id": 19042784, "gamerTag": "cheeks", "prefix": "", "user": {"location": {"city": "Greenville", "state": "SC", "country": "United States"}}, "player": {"id": 2168044, "gamerTag": "cheeks", "prefix": "", "user": {"location": {"city": "Greenville", "state": "SC", "country": "United States"}}}}]}}, {"id": 35709618, "seedNum": 2, "entrant": {"id": 20685919, "name": "WUPA-CW69 | JustX", "participants": [{"id": 19039102, "gamerTag": "JustX", "prefix": "WUPA-CW69", "user": {"location": {"city": "Greenville", "state": "SC", "country": "United States"}}, "player": {"id": 437360, "gamerTag": "JustX", "prefix": "WUPA-CW69", "user": {"location": {"city": "Greenville", "state": "SC", "country": "United States"}}}}]}}, {"id": 35715393, "seedNum": 5, "entrant": {"id": 20689980, "name": "Shiro", "participants": [{"id": 19042926, "gamerTag": "Shiro", "prefix": "", "user": {"location": {"city": "Atlanta", "state": null, "country": "United States"}}, "player": {"id": 584397, "gamerTag": "Shiro", "prefix": "", "user": {"location": {"city": "Atlanta", "state": null, "country": "United States"}}}}]}}, {"id": 35715603, "seedNum": 6, "entrant": {"id": 20690156, "name": "Permafrost", "participants": [{"id": 19043091, "gamerTag": "Permafrost", "prefix": "", "user": {"location": {"city": "Atlanta", "state": "GA", "country": "United States"}}, "player": {"id": 1256898, "gamerTag": "Permafrost", "prefix": "", "user": {"location": {"city": "Atlanta", "state": "GA", "country": "United States"}}}}]}}]}}}