{"event": {"sets": {"pageInfo": {"totalPages": 4, "total": 55}, "nodes": [{"id": 93154422, "state": 3, "round": 2, "fullRoundText": "Winners Round 2", "completedAt": 1756341690, "winnerId": 21089852, "slots": [{"id": "93154422-0", "entrant": {"id": 21089852, "name": "StrataJay", "participants": [{"id": 19399299, "gamerTag": "StrataJay", "prefix": "", "user": {"location": {"city": "Grayson", "state": "GA", "country": "United States"}}, "player": {"id": 1112189, "gamerTag": "StrataJay", "prefix": "", "user": {"location": {"city": "Grayson", "state": "GA", "country": "United States"}}}}]}, "standing": {"placement": 1, "stats": {"score": {"value": 2}}}}, {"id": "93154422-1", "entrant": {"id": 21049969, "name": "Bronzjo", "participants": [{"id": 19363380, "gamerTag": "Bronzjo", "prefix": null, "user": {"location": {"city": "Lula", "state": "GA", "country": "United States"}}, "player": {"id": 4622459, "gamerTag": "Bronzjo", "prefix": null, "user": {"location": {"city": "Lula", "state": "GA", "country": "United States"}}}}]}, "standing": {"placement": 2, "stats": {"score": {"value": 1}}}}], "games": null}, {"id": 93154472, "state": 3, "round": -4, "fullRoundText": "Losers Round 2", "completedAt": 1756342390, "winnerId": 21094864, "slots": [{"id": "93154472-0", "entrant": {"id": 21049969, "name": "Bronzjo", "participants": [{"id": 19363380, "gamerTag": "Bronzjo", "prefix": null, "user": {"location": {"city": "Lula", "state": "GA", "country": "United States"}}, "player": {"id": 4622459, "gamerTag": "Bronzjo", "prefix": null, "user": {"location": {"city": "Lula", "state": "GA", "country": "United States"}}}}]}, "standing": {"placement": 2, "stats": {"score": {"value": 0}}}}, {"id": "93154472-1", "entrant": {"id": 21094864, "name": "SatsuiNoGoku", "participants": [{"id": 19403883, "gamerTag": "SatsuiNoGoku", "prefix": null, "user": {"location": {"city": "Lawrenceville", "state": "GA", "country": "United States"}}, "player": {"id": 3449672, "gamerTag": "SatsuiNoGoku", "prefix": null, "user": {"location": {"city": "Lawrenceville", "state": "GA", "country": "United States"}}}}]}, "standing": {"placement": 1, "stats": {"score": {"value": 2}}}}], "games": null}, {"id": 93154473, "state": 3, "round": -4, "fullRoundText": "Losers Round 2", "completedAt": 1756342817, "winnerId": 21089715, "slots": [{"id": "93154473-0", "entrant": {"id": 21089715, "name": "MeanestPeen", "participants": [{"id": 19399173, "gamerTag": "MeanestPeen", "prefix": null, "user": {"location": {"city": null, "state": null, "country": null}}, "player": {"id": 2478267, "gamerTag": "MeanestPeen", "prefix": null, "user": {"location": {"city": null, "state": null, "country": null}}}}]}, "standing": {"placement": 1, "stats": {"score": {"value": 2}}}}, {"id": "93154473-1", "entrant": {"id": 21094757, "name": "Soku", "participants": [{"id": 19403806, "gamerTag": "Soku", "prefix": null, "user": {"location": {"city": "Suwanee", "state": "GA", "country": "United States"}}, "player": {"id": 4314131, "gamerTag": "Soku", "prefix": null, "user": {"location": {"city": "Suwanee", "state": "GA", "country": "United States"}}}}]}, "standing": {"placement": 2, "stats": {"score": {"value": 0}}}}], "games": null}, {"id": 93154474, "state": 3, "round": -4, "fullRoundText": "Losers Round 2", "completedAt": 1756343296, "winnerId": 21094610, "slots": [{"id": "93154474-0", "entrant": {"id": 21094610, "name": "Cloud9Savage", "participants": [{"id": 19403679, "gamerTag": "Cloud9Savage", "prefix": null, "user": {"location": {"city": "McDonough", "state": "GA", "country": "United States"}}, "player": {"id": 4395697, "gamerTag": "Cloud9Savage", "prefix": null, "user": {"location": {"city": "McDonough", "state": "GA", "country": "United States"}}}}]}, "standing": {"placement": 1, "stats": {"score": {"value": 2}}}}, {"id": "93154474-1", "entrant": {"id": 21093977, "name": "Hipster Lion", "participants": [{"id": 19403075, "gamerTag": "Hipster Lion", "prefix": "", "user": {"location": {"city": "College Park", "state": "GA", "country": "United States"}}, "player": {"id": 897409, "gamerTag": "Hipster Lion", "prefix": "", "user": {"location": {"city": "College Park", "state": "GA", "country": "United States"}}}}]}, "standing": {"placement": 2, "stats": {"score": {"value": 1}}}}], "games": null}, {"id": 93154475, "state": 3, "round": -4, "fullRoundText": "Losers Round 2", "completedAt": 1756343210, "winnerId": 21095013, "slots": [{"id": "93154475-0", "entrant": {"id": 21092292, "name": "PrimeStone", "participants": [{"id": 19401547, "gamerTag": "PrimeStone", "prefix": null, "user": {"location": {"city": "Loganville", "state": "GA", "country": "United States"}}, "player": {"id": 1130909, "gamerTag": "PrimeStone", "prefix": null, "user": {"location": {"city": "Loganville", "state": "GA", "country": "United States"}}}}]}, "standing": {"placement": 2, "stats": {"score": {"value": 0}}}}, {"id": "93154475-1", "entrant": {"id": 21095013, "name": "ToBeFrank | FF | SLAYlor Moon", "participants": [{"id": 19402206, "gamerTag": "SLAYlor Moon", "prefix": "ToBeFrank | FF", "user": {"location": {"city": "Atlanta", "state": "GA", "country": "United States"}}, "player": {"id": 267007, "gamerTag": "SLAYlor Moon", "prefix": "ToBeFrank | FF", "user": {"location": {"city": "Atlanta", "state": "GA", "country": "United States"}}}}]}, "standing": {"placement": 1, "stats": {"score": {"value": 2}}}}], "games": null}, {"id": 93154476, "state": 3, "round": -4, "fullRoundText": "Losers Round 2", "completedAt": 1756342697, "winnerId": 21092667, "slots": [{"id": "93154476-0", "entrant": {"id": 21092667, "name": "Free | Sereni", "participants": [{"id": 19401894, "gamerTag": "Sereni", "prefix": "Free", "user": {"location": {"city": null, "state": null, "country": "United States"}}, "player": {"id": 482535, "gamerTag": "Sereni", "prefix": "Free", "user": {"location": {"city": null, "state": null, "country": "United States"}}}}]}, "standing": {"placement": 1, "stats": {"score": {"value": 2}}}}, {"id": "93154476-1", "entrant": {"id": 21089778, "name": "Oni_Shogi", "participants": [{"id": 19399229, "gamerTag": "Oni_Shogi", "prefix": "", "user": {"location": {"city": "Atlanta", "state": "GA", "country": "United States"}}, "player": {"id": 1400524, "gamerTag": "Oni_Shogi", "prefix": "", "user": {"location": {"city": "Atlanta", "state": "GA", "country": "United States"}}}}]}, "standing": {"placement": 2, "stats": {"score": {"value": 0}}}}], "games": null}, {"id": 93154477, "state": 3, "round": -4, "fullRoundText": "Losers Round 2", "completedAt": 1756343143, "winnerId": 21094245, "slots": [{"id": "93154477-0", "entrant": {"id": 21093861, "name": "C-2", "participants": [{"id": 19402969, "gamerTag": "C-2", "prefix": "", "user": {"location": {"city": "Atlanta", "state": "GA", "country": "United States"}}, "player": {"id": 1228856, "gamerTag": "C-2", "prefix": "", "user": {"location": {"city": "Atlanta", "state": "GA", "country": "United States"}}}}]}, "standing": {"placement": 2, "stats": {"score": {"value": 0}}}}, {"id": "93154477-1", "entrant": {"id": 21094245, "name": "Owen Dos | BlackHeart", "participants": [{"id": 19403335, "gamerTag": "BlackHeart", "prefix": "Owen Dos", "user": {"location": {"city": "Buford", "state": "GA", "country": "United States"}}, "player": {"id": 2228433, "gamerTag": "BlackHeart", "prefix": "Owen Dos", "user": {"location": {"city": "Buford", "state": "GA", "country": "United States"}}}}]}, "standing": {"placement": 1, "stats": {"score": {"value": 2}}}}], "games": null}, {"id": 93154478, "state": 3, "round": -4, "fullRoundText": "Losers Round 2", "completedAt": 1756342776, "winnerId": 21094589, "slots": [{"id": "93154478-0", "entrant": {"id": 21094589, "name": "Iso.Dgaf", "participants": [{"id": 19403658, "gamerTag": "Iso.Dgaf", "prefix": null, "user": {"location": {"city": "Acworth", "state": "GA", "country": "United States"}}, "player": {"id": 4285541, "gamerTag": "Iso.Dgaf", "prefix": null, "user": {"location": {"city": "Acworth", "state": "GA", "country": "United States"}}}}]}, "standing": {"placement": 1, "stats": {"score": {"value": 2}}}}, {"id": "93154478-1", "entrant": {"id": 21093216, "name": "Momokins", "participants": [{"id": 19402404, "gamerTag": "Momokins", "prefix": "", "user": {"location": {"city": "Atlanta", "state": "GA", "country": "United States"}}, "player": {"id": 612216, "gamerTag": "Momokins", "prefix": "", "user": {"location": {"city": "Atlanta", "state": "GA", "country": "United States"}}}}]}, "standing": {"placement": 2, "stats": {"score": {"value": 0}}}}], "games": null}, {"id": 93154479, "state": 3, "round": -4, "fullRoundText": "Losers Round 2", "completedAt": 1756342546, "winnerId": 21091949, "slots": [{"id": "93154479-0", "entrant": {"id": 21091949, "name": "Aneubys", "participants": [{"id": 19401232, "gamerTag": "Aneubys", "prefix": "", "user": {"location": {"city": "Smyrna", "state": "GA", "country": "United States"}}, "player": {"id": 3901259, "gamerTag": "Aneubys", "prefix": "", "user": {"location": {"city": "Smyrna", "state": "GA", "country": "United States"}}}}]}, "standing": {"placement": 1, "stats": {"score": {"value": 2}}}}, {"id": "93154479-1", "entrant": {"id": 21094886, "name": "CPU", "participants": [{"id": 19403903, "gamerTag": "CPU", "prefix": "", "user": null, "player": {"id": 4943891, "gamerTag": "CPU", "prefix": "", "user": null}}]}, "standing": {"placement": 2, "stats": {"score": {"value": 1}}}}], "games": null}, {"id": 93154465, "state": 3, "round": -3, "fullRoundText": "Losers Round 1", "completedAt": 1756342135, "winnerId": 21094757, "slots": [{"id": "93154465-0", "entrant": {"id": 21094820, "name": "Klepto", "participants": [{"id": 19403851, "gamerTag": "Klepto", "prefix": "", "user": {"location": {"city": "Stone Mountain", "state": "GA", "country": "United States"}}, "player": {"id": 3446387, "gamerTag": "Klepto", "prefix": "", "user": {"location": {"city": "Stone Mountain", "state": "GA", "country": "United States"}}}}]}, "standing": {"placement": 2, "stats": {"score": {"value": 1}}}}, {"id": "93154465-1", "entrant": {"id": 21094757, "name": "Soku", "participants": [{"id": 19403806, "gamerTag": "Soku", "prefix": null, "user": {"location": {"city": "Suwanee", "state": "GA", "country": "United States"}}, "player": {"id": 4314131, "gamerTag": "Soku", "prefix": null, "user": {"location": {"city": "Suwanee", "state": "GA", "country": "United States"}}}}]}, "standing": {"placement": 1, "stats": {"score": {"value": 2}}}}], "games": null}, {"id": 93154467, "state": 3, "round": -3, "fullRoundText": "Losers Round 1", "completedAt": 1756342631, "winnerId": 21095013, "slots": [{"id": "93154467-0", "entrant": {"id": 21095013, "name": "ToBeFrank | FF | SLAYlor Moon", "participants": [{"id": 19402206, "gamerTag": "SLAYlor Moon", "prefix": "ToBeFrank | FF", "user": {"location": {"city": "Atlanta", "state": "GA", "country": "United States"}}, "player": {"id": 267007, "gamerTag": "SLAYlor Moon", "prefix": "ToBeFrank | FF", "user": {"location": {"city": "Atlanta", "state": "GA", "country": "United States"}}}}]}, "standing": {"placement": 1, "stats": {"score": {"value": 2}}}}, {"id": "93154467-1", "entrant": {"id": 21092820, "name": "SpaceSong", "participants": [{"id": 19402045, "gamerTag": "SpaceSong", "prefix": null, "user": {"location": {"city": "Norcross", "state": "GA", "country": "United States"}}, "player": {"id": 4530151, "gamerTag": "SpaceSong", "prefix": null, "user": {"location": {"city": "Norcross", "state": "GA", "country": "United States"}}}}]}, "standing": {"placement": 2, "stats": {"score": {"value": 0}}}}], "games": null}, {"id": 93154469, "state": 3, "round": -3, "fullRoundText": "Losers Round 1", "completedAt": 1756341700, "winnerId": 21094245, "slots": [{"id": "93154469-0", "entrant": {"id": 21094831, "name": "Bornsage", "participants": [{"id": 19403858, "gamerTag": "Bornsage", "prefix": null, "user": {"location": {"city": "Smyrna", "state": "GA", "country": "United States"}}, "player": {"id": 4681079, "gamerTag": "Bornsage", "prefix": null, "user": {"location": {"city": "Smyrna", "state": "GA", "country": "United States"}}}}]}, "standing": {"placement": 2, "stats": {"score": {"value": 0}}}}, {"id": "93154469-1", "entrant": {"id": 21094245, "name": "Owen Dos | BlackHeart", "participants": [{"id": 19403335, "gamerTag": "BlackHeart", "prefix": "Owen Dos", "user": {"location": {"city": "Buford", "state": "GA", "country": "United States"}}, "player": {"id": 2228433, "gamerTag": "BlackHeart", "prefix": "Owen Dos", "user": {"location": {"city": "Buford", "state": "GA", "country": "United States"}}}}]}, "standing": {"placement": 1, "stats": {"score": {"value": 2}}}}], "games": null}, {"id": 93154471, "state": 3, "round": -3, "fullRoundText": "Losers Round 1", "completedAt": 1756341669, "winnerId": 21094886, "slots": [{"id": "93154471-0", "entrant": {"id": 21094886, "name": "CPU", "participants": [{"id": 19403903, "gamerTag": "CPU", "prefix": "", "user": null, "player": {"id": 4943891, "gamerTag": "CPU", "prefix": "", "user": null}}]}, "standing": {"placement": 1, "stats": {"score": {"value": 2}}}}, {"id": "93154471-1", "entrant": {"id": 21094206, "name": "KingDeeDeeD", "participants": [{"id": 19403299, "gamerTag": "KingDeeDeeD", "prefix": "", "user": {"location": {"city": null, "state": null, "country": "United States"}}, "player": {"id": 4943818, "gamerTag": "KingDeeDeeD", "prefix": "", "user": {"location": {"city": null, "state": null, "country": "United States"}}}}]}, "standing": {"placement": 2, "stats": {"score": {"value": 0}}}}], "games": null}, {"id": 93154400, "state": 3, "round": 1, "fullRoundText": "Winners Round 1", "completedAt": 1756340967, "winnerId": 21091949, "slots": [{"id": "93154400-0", "entrant": {"id": 21091949, "name": "Aneubys", "participants": [{"id": 19401232, "gamerTag": "Aneubys", "prefix": "", "user": {"location": {"city": "Smyrna", "state": "GA", "country": "United States"}}, "player": {"id": 3901259, "gamerTag": "Aneubys", "prefix": "", "user": {"location": {"city": "Smyrna", "state": "GA", "country": "United States"}}}}]}, "standing": {"placement": 1, "stats": {"score": {"value": 2}}}}, {"id": "93154400-1", "entrant": {"id": 21094864, "name": "SatsuiNoGoku", "participants": [{"id": 19403883, "gamerTag": "SatsuiNoGoku", "prefix": null, "user": {"location": {"city": "Lawrenceville", "state": "GA", "country": "United States"}}, "player": {"id": 3449672, "gamerTag": "SatsuiNoGoku", "prefix": null, "user": {"location": {"city": "Lawrenceville", "state": "GA", "country": "United States"}}}}]}, "standing": {"placement": 2, "stats": {"score": {"value": 1}}}}], "games": null}, {"id": 93154401, "state": 3, "round": 1, "fullRoundText": "Winners Round 1", "completedAt": 1756340939, "winnerId": 21094589, "slots": [{"id": "93154401-0", "entrant": {"id": 21094589, "name": "Iso.Dgaf", "participants": [{"id": 19403658, "gamerTag": "Iso.Dgaf", "prefix": null, "user": {"location": {"city": "Acworth", "state": "GA", "country": "United States"}}, "player": {"id": 4285541, "gamerTag": "Iso.Dgaf", "prefix": null, "user": {"location": {"city": "Acworth", "state": "GA", "country": "United States"}}}}]}, "standing": {"placement": 1, "stats": {"score": {"value": 2}}}}, {"id": "93154401-1", "entrant": {"id": 21094820, "name": "Klepto", "participants": [{"id": 19403851, "gamerTag": "Klepto", "prefix": "", "user": {"location": {"city": "Stone Mountain", "state": "GA", "country": "United States"}}, "player": {"id": 3446387, "gamerTag": "Klepto", "prefix": "", "user": {"location": {"city": "Stone Mountain", "state": "GA", "country": "United States"}}}}]}, "standing": {"placement": 2, "stats": {"score": {"value": 0}}}}], "games": null}]}}}