{"phase": {"seeds": {"pageInfo": {"totalPages": 1, "total": 6}, "nodes": [{"id": 36433677, "seedNum": 1, "entrant": {"id": 21143434, "name": "citizendog", "participants": [{"id": 19435974, "gamerTag": "citizendog", "prefix": "", "user": {"location": {"city": "Monroe", "state": "GA", "country": "United States"}}, "player": {"id": 176325, "gamerTag": "citizendog", "prefix": "", "user": {"location": {"city": "Monroe", "state": "GA", "country": "United States"}}}}]}}, {"id": 36433675, "seedNum": 2, "entrant": {"id": 21143433, "name": "blaise", "participants": [{"id": 19425491, "gamerTag": "blaise", "prefix": "", "user": {"location": {"city": "douglasville", "state": "GA", "country": "United States"}}, "player": {"id": 1326121, "gamerTag": "blaise", "prefix": "", "user": {"location": {"city": "douglasville", "state": "GA", "country": "United States"}}}}]}}, {"id": 36433820, "seedNum": 3, "entrant": {"id": 21143564, "name": "KHW | Frumps", "participants": [{"id": 19446222, "gamerTag": "Frumps", "prefix": "KHW", "user": {"location": {"city": "Greenville", "state": "SC", "country": "United States"}}, "player": {"id": 2844590, "gamerTag": "Frumps", "prefix": "KHW", "user": {"location": {"city": "Greenville", "state": "SC", "country": "United States"}}}}]}}, {"id": 36434021, "seedNum": 4, "entrant": {"id": 21143641, "name": "ATL | Mid", "participants": [{"id": 19442764, "gamerTag": "Mid", "prefix": "ATL", "user": {"location": {"city": "Atlanta", "state": "GA", "country": "United States"}}, "player": {"id": 1122267, "gamerTag": "Mid", "prefix": "ATL", "user": {"location": {"city": "Atlanta", "state": "GA", "country": "United States"}}}}]}}, {"id": 36434458, "seedNum": 5, "entrant": {"id": 21143732, "name": "Permafrost", "participants": [{"id": 19435318, "gamerTag": "Permafrost", "prefix": null, "user": {"location": {"city": "Atlanta", "state": "GA", "country": "United States"}}, "player": {"id": 1256898, "gamerTag": "Permafrost", "prefix": "", "user": {"location": {"city": "Atlanta", "state": "GA", "country": "United States"}}}}]}}, {"id": 36434022, "seedNum": 6, "entrant": {"id": 21143642, "name": "FtR | Sneak", "participants": [{"id": 19443223, "gamerTag": "Sneak", "prefix": "FtR", "user": {"location": {"city": "Villa Rica", "state": "GA", "country": "United States"}}, "player": {"id": 1902931, "gamerTag": "Sneak", "prefix": null, "user": {"location": {"city": "Villa Rica", "state": "GA", "country": "United States"}}}}]}}]}}}