{"event": {"sets": {"pageInfo": {"totalPages": 7, "total": 101}, "nodes": [{"id": 93351216, "state": 3, "round": 2, "fullRoundText": "Winners Quarter-Final", "completedAt": 1756672582, "winnerId": 21083439, "slots": [{"id": "93351216-0", "entrant": {"id": 21062074, "name": "Jdaddy", "participants": [{"id": 19374212, "gamerTag": "Jdaddy", "prefix": null, "user": {"location": {"city": "Atlanta", "state": "GA", "country": "United States"}}, "player": {"id": 4384721, "gamerTag": "Jdaddy", "prefix": null, "user": {"location": {"city": "Atlanta", "state": "GA", "country": "United States"}}}}]}, "standing": {"placement": 2, "stats": {"score": {"value": 1}}}}, {"id": "93351216-1", "entrant": {"id": 21083439, "name": "Fe | Atomic", "participants": [{"id": 19393668, "gamerTag": "Atomic", "prefix": "Fe", "user": {"location": {"city": "Atlanta", "state": "GA", "country": "United States"}}, "player": {"id": 1809403, "gamerTag": "Atomic", "prefix": "Fe", "user": {"location": {"city": "Atlanta", "state": "GA", "country": "United States"}}}}]}, "standing": {"placement": 1, "stats": {"score": {"value": 2}}}}], "games": null}, {"id": 93337894, "state": 3, "round": 2, "fullRoundText": "Winners Quarter-Final", "completedAt": 1756658655, "winnerId": 21100706, "slots": [{"id": "93337894-0", "entrant": {"id": 21080045, "name": "Damp\u00e9", "participants": [{"id": 19390581, "gamerTag": "Damp\u00e9", "prefix": null, "user": {"location": {"city": "Atlanta", "state": "GA", "country": "United States"}}, "player": {"id": 1170738, "gamerTag": "Damp\u00e9", "prefix": "TnT", "user": {"location": {"city": "Atlanta", "state": "GA", "country": "United States"}}}}]}, "standing": {"placement": 2, "stats": {"score": {"value": -1}}}}, {"id": "93337894-1", "entrant": {"id": 21100706, "name": "Huggles", "participants": [{"id": 19409098, "gamerTag": "Huggles", "prefix": "", "user": {"location": {"city": "Irmo", "state": "SC", "country": "United States"}}, "player": {"id": 53024, "gamerTag": "Huggles", "prefix": "", "user": {"location": {"city": "Irmo", "state": "SC", "country": "United States"}}}}]}, "standing": {"placement": 1, "stats": {"score": {"value": null}}}}], "games": null}, {"id": 93342870, "state": 3, "round": 2, "fullRoundText": "Winners Quarter-Final", "completedAt": 1756666916, "winnerId": 21067634, "slots": [{"id": "93342870-0", "entrant": {"id": 21067634, "name": "Giizus", "participants": [{"id": 19379149, "gamerTag": "Giizus", "prefix": "", "user": {"location": {"city": "Spring City", "state": null, "country": "United States"}}, "player": {"id": 922274, "gamerTag": "Giizus", "prefix": "", "user": {"location": {"city": "Spring City", "state": null, "country": "United States"}}}}]}, "standing": {"placement": 1, "stats": {"score": {"value": 2}}}}, {"id": "93342870-1", "entrant": {"id": 20983084, "name": "Swaggin Waggon", "participants": [{"id": 19303225, "gamerTag": "Swaggin Waggon", "prefix": "", "user": {"location": {"city": "Bay City", "state": "TX", "country": "United States"}}, "player": {"id": 833326, "gamerTag": "Swaggin Waggon", "prefix": "", "user": {"location": {"city": "Bay City", "state": "TX", "country": "United States"}}}}]}, "standing": {"placement": 2, "stats": {"score": {"value": 1}}}}], "games": null}, {"id": 93357365, "state": 3, "round": 2, "fullRoundText": "Winners Quarter-Final", "completedAt": 1756681641, "winnerId": 21126806, "slots": [{"id": "93357365-0", "entrant": {"id": 21126806, "name": "ToBeFrank | FF | SLAYlor Moon", "participants": [{"id": 19432500, "gamerTag": "SLAYlor Moon", "prefix": "ToBeFrank | FF", "user": {"location": {"city": "Atlanta", "state": "GA", "country": "United States"}}, "player": {"id": 267007, "gamerTag": "SLAYlor Moon", "prefix": "ToBeFrank | FF", "user": {"location": {"city": "Atlanta", "state": "GA", "country": "United States"}}}}]}, "standing": {"placement": 1, "stats": {"score": {"value": 2}}}}, {"id": "93357365-1", "entrant": {"id": 21068091, "name": "RAMS | Bragmuffin", "participants": [{"id": 19379661, "gamerTag": "Bragmuffin", "prefix": "RAMS", "user": {"location": {"city": "Alpharetta", "state": "GA", "country": "United States"}}, "player": {"id": 2354073, "gamerTag": "Bragmuffin", "prefix": "RAMS", "user": {"location": {"city": "Alpharetta", "state": "GA", "country": "United States"}}}}]}, "standing": {"placement": 2, "stats": {"score": {"value": 0}}}}], "games": null}, {"id": 93351217, "state": 3, "round": 2, "fullRoundText": "Winners Quarter-Final", "completedAt": 1756671828, "winnerId": 21098320, "slots": [{"id": "93351217-0", "entrant": {"id": 21098320, "name": "KRU | CarbonCopies", "participants": [{"id": 19406775, "gamerTag": "CarbonCopies", "prefix": "KRU", "user": {"location": {"city": "Denver", "state": "CO", "country": "United States"}}, "player": {"id": 521097, "gamerTag": "CarbonCopies", "prefix": "KRU", "user": {"location": {"city": "Denver", "state": "CO", "country": "United States"}}}}]}, "standing": {"placement": 1, "stats": {"score": {"value": 2}}}}, {"id": "93351217-1", "entrant": {"id": 21101150, "name": "GOONER | VolarIRL", "participants": [{"id": 19409518, "gamerTag": "VolarIRL", "prefix": "GOONER", "user": {"location": {"city": "Atlanta/Marietta", "state": "GA", "country": "United States"}}, "player": {"id": 2998706, "gamerTag": "VolarIRL", "prefix": "GOONER", "user": {"location": {"city": "Atlanta/Marietta", "state": "GA", "country": "United States"}}}}]}, "standing": {"placement": 2, "stats": {"score": {"value": 0}}}}], "games": null}, {"id": 93337895, "state": 3, "round": 2, "fullRoundText": "Winners Quarter-Final", "completedAt": 1756658518, "winnerId": 21125289, "slots": [{"id": "93337895-0", "entrant": {"id": 21125289, "name": "BigPlay", "participants": [{"id": 19431060, "gamerTag": "BigPlay", "prefix": "", "user": {"location": {"city": "Atlanta", "state": "GA", "country": "United States"}}, "player": {"id": 31308, "gamerTag": "BigPlay", "prefix": "", "user": {"location": {"city": "Atlanta", "state": "GA", "country": "United States"}}}}]}, "standing": {"placement": 1, "stats": {"score": {"value": 2}}}}, {"id": "93337895-1", "entrant": {"id": 21099538, "name": "JJ Hardy", "participants": [{"id": 19408044, "gamerTag": "JJ Hardy", "prefix": null, "user": {"location": {"city": "Windsor", "state": "CT", "country": "United States"}}, "player": {"id": 1825931, "gamerTag": "JJ Hardy", "prefix": "", "user": {"location": {"city": "Windsor", "state": "CT", "country": "United States"}}}}]}, "standing": {"placement": 2, "stats": {"score": {"value": 0}}}}], "games": null}, {"id": 93351218, "state": 3, "round": 2, "fullRoundText": "Winners Quarter-Final", "completedAt": 1756673994, "winnerId": 21088942, "slots": [{"id": "93351218-0", "entrant": {"id": 21088942, "name": "TFT | RoKu", "participants": [{"id": 19398449, "gamerTag": "RoKu", "prefix": "TFT", "user": {"location": {"city": "Peachtree Corners", "state": "GA", "country": "United States"}}, "player": {"id": 1107285, "gamerTag": "RoKu", "prefix": "TFT", "user": {"location": {"city": "Peachtree Corners", "state": "GA", "country": "United States"}}}}]}, "standing": {"placement": 1, "stats": {"score": {"value": 2}}}}, {"id": "93351218-1", "entrant": {"id": 21122153, "name": "MTM | Bob Weiner", "participants": [{"id": 19428298, "gamerTag": "Bob Weiner", "prefix": "MTM", "user": {"location": {"city": "Kennesaw", "state": "GA", "country": "United States"}}, "player": {"id": 2142601, "gamerTag": "Bob Weiner", "prefix": "MTM", "user": {"location": {"city": "Kennesaw", "state": "GA", "country": "United States"}}}}]}, "standing": {"placement": 2, "stats": {"score": {"value": 0}}}}], "games": null}, {"id": 93337896, "state": 3, "round": 2, "fullRoundText": "Winners Quarter-Final", "completedAt": 1756657995, "winnerId": 21126107, "slots": [{"id": "93337896-0", "entrant": {"id": 21126107, "name": "Rain~", "participants": [{"id": 19431869, "gamerTag": "Rain~", "prefix": null, "user": {"location": {"city": "Atlanta", "state": "GA", "country": "United States"}}, "player": {"id": 4240164, "gamerTag": "Rain~", "prefix": null, "user": {"location": {"city": "Atlanta", "state": "GA", "country": "United States"}}}}]}, "standing": {"placement": 1, "stats": {"score": {"value": 2}}}}, {"id": "93337896-1", "entrant": {"id": 21126747, "name": "Aaron", "participants": [{"id": 19432451, "gamerTag": "Aaron", "prefix": null, "user": {"location": {"city": "Lexington", "state": null, "country": null}}, "player": {"id": 448165, "gamerTag": "Aaron", "prefix": null, "user": {"location": {"city": "Lexington", "state": null, "country": null}}}}]}, "standing": {"placement": 2, "stats": {"score": {"value": 0}}}}], "games": null}, {"id": 93342871, "state": 3, "round": 2, "fullRoundText": "Winners Quarter-Final", "completedAt": 1756665130, "winnerId": 21062207, "slots": [{"id": "93342871-0", "entrant": {"id": 21062207, "name": "Frank", "participants": [{"id": 19374337, "gamerTag": "Frank", "prefix": null, "user": {"location": {"city": "Doraville", "state": "GA", "country": "United States"}}, "player": {"id": 1227401, "gamerTag": "Terry Labonte", "prefix": "TFT", "user": {"location": {"city": "Doraville", "state": "GA", "country": "United States"}}}}]}, "standing": {"placement": 1, "stats": {"score": {"value": 2}}}}, {"id": "93342871-1", "entrant": {"id": 21128641, "name": "TFT | BigCheese", "participants": [{"id": 19434413, "gamerTag": "BigCheese", "prefix": "TFT", "user": {"location": {"city": null, "state": null, "country": null}}, "player": {"id": 3991446, "gamerTag": "BigCheese", "prefix": "TFT", "user": {"location": {"city": null, "state": null, "country": null}}}}]}, "standing": {"placement": 2, "stats": {"score": {"value": 0}}}}], "games": null}, {"id": 93362576, "state": 3, "round": -8, "fullRoundText": "Losers Quarter-Final", "completedAt": 1756691470, "winnerId": 20734707, "slots": [{"id": "93362576-0", "entrant": {"id": 20734707, "name": "Ave~", "participants": [{"id": 19081749, "gamerTag": "Ave~", "prefix": null, "user": {"location": {"city": null, "state": null, "country": null}}, "player": {"id": 38830, "gamerTag": "Ave~", "prefix": "", "user": {"location": {"city": null, "state": null, "country": null}}}}]}, "standing": {"placement": 1, "stats": {"score": {"value": 2}}}}, {"id": "93362576-1", "entrant": {"id": 21094406, "name": "pristinetao", "participants": [{"id": 19403485, "gamerTag": "pristinetao", "prefix": "", "user": {"location": {"city": null, "state": null, "country": null}}, "player": {"id": 2721225, "gamerTag": "pristinetao", "prefix": "", "user": {"location": {"city": null, "state": null, "country": null}}}}]}, "standing": {"placement": 2, "stats": {"score": {"value": 0}}}}], "games": null}, {"id": 93362577, "state": 3, "round": -8, "fullRoundText": "Losers Quarter-Final", "completedAt": 1756692461, "winnerId": 21126107, "slots": [{"id": "93362577-0", "entrant": {"id": 21126107, "name": "Rain~", "participants": [{"id": 19431869, "gamerTag": "Rain~", "prefix": null, "user": {"location": {"city": "Atlanta", "state": "GA", "country": "United States"}}, "player": {"id": 4240164, "gamerTag": "Rain~", "prefix": null, "user": {"location": {"city": "Atlanta", "state": "GA", "country": "United States"}}}}]}, "standing": {"placement": 1, "stats": {"score": {"value": 2}}}}, {"id": "93362577-1", "entrant": {"id": 21098320, "name": "KRU | CarbonCopies", "participants": [{"id": 19406775, "gamerTag": "CarbonCopies", "prefix": "KRU", "user": {"location": {"city": "Denver", "state": "CO", "country": "United States"}}, "player": {"id": 521097, "gamerTag": "CarbonCopies", "prefix": "KRU", "user": {"location": {"city": "Denver", "state": "CO", "country": "United States"}}}}]}, "standing": {"placement": 2, "stats": {"score": {"value": 1}}}}], "games": null}, {"id": 93357391, "state": 3, "round": -4, "fullRoundText": "Losers Round 1", "completedAt": 1756682801, "winnerId": 21088449, "slots": [{"id": "93357391-0", "entrant": {"id": 21068091, "name": "RAMS | Bragmuffin", "participants": [{"id": 19379661, "gamerTag": "Bragmuffin", "prefix": "RAMS", "user": {"location": {"city": "Alpharetta", "state": "GA", "country": "United States"}}, "player": {"id": 2354073, "gamerTag": "Bragmuffin", "prefix": "RAMS", "user": {"location": {"city": "Alpharetta", "state": "GA", "country": "United States"}}}}]}, "standing": {"placement": 2, "stats": {"score": {"value": 0}}}}, {"id": "93357391-1", "entrant": {"id": 21088449, "name": "WeleX", "participants": [{"id": 19398013, "gamerTag": "WeleX", "prefix": null, "user": {"location": {"city": "Atlanta", "state": "GA", "country": "United States"}}, "player": {"id": 2894975, "gamerTag": "WeleX", "prefix": null, "user": {"location": {"city": "Atlanta", "state": "GA", "country": "United States"}}}}]}, "standing": {"placement": 1, "stats": {"score": {"value": 2}}}}], "games": null}, {"id": 93357392, "state": 3, "round": -4, "fullRoundText": "Losers Round 1", "completedAt": 1756679922, "winnerId": 20992611, "slots": [{"id": "93357392-0", "entrant": {"id": 20992611, "name": "Par-i-dot Alpha", "participants": [{"id": 19311138, "gamerTag": "Par-i-dot Alpha", "prefix": "", "user": {"location": {"city": "Lithoina", "state": "GA", "country": "United States"}}, "player": {"id": 36418, "gamerTag": "Avalon", "prefix": "", "user": {"location": {"city": "Lithoina", "state": "GA", "country": "United States"}}}}]}, "standing": {"placement": 1, "stats": {"score": {"value": null}}}}, {"id": "93357392-1", "entrant": {"id": 21063950, "name": "TheACwarriors", "participants": [{"id": 19375816, "gamerTag": "TheACwarriors", "prefix": null, "user": {"location": {"city": "Charlotte", "state": "NC", "country": "United States"}}, "player": {"id": 4939011, "gamerTag": "TheACwarriors", "prefix": null, "user": {"location": {"city": "Charlotte", "state": "NC", "country": "United States"}}}}]}, "standing": {"placement": 2, "stats": {"score": {"value": -1}}}}], "games": null}, {"id": 93357393, "state": 3, "round": -4, "fullRoundText": "Losers Round 1", "completedAt": 1756680245, "winnerId": 21121856, "slots": [{"id": "93357393-0", "entrant": {"id": 21121856, "name": "RAMS | RussianJesus", "participants": [{"id": 19428046, "gamerTag": "RussianJesus", "prefix": "RAMS", "user": {"location": {"city": "Atlanta", "state": "GA", "country": "United States"}}, "player": {"id": 1140567, "gamerTag": "RussianJesus", "prefix": "RAMS", "user": {"location": {"city": "Atlanta", "state": "GA", "country": "United States"}}}}]}, "standing": {"placement": 1, "stats": {"score": {"value": null}}}}, {"id": "93357393-1", "entrant": {"id": 21118207, "name": "6thRaikage", "participants": [{"id": 19424815, "gamerTag": "6thRaikage", "prefix": "", "user": {"location": {"city": "Stone mountain", "state": null, "country": "South Korea"}}, "player": {"id": 1290793, "gamerTag": "6thRaikage", "prefix": "", "user": {"location": {"city": "Stone mountain", "state": null, "country": "South Korea"}}}}]}, "standing": {"placement": 2, "stats": {"score": {"value": -1}}}}], "games": null}, {"id": 93337922, "state": 3, "round": -4, "fullRoundText": "Losers Round 2", "completedAt": 1756659186, "winnerId": 21126747, "slots": [{"id": "93337922-0", "entrant": {"id": 21126747, "name": "Aaron", "participants": [{"id": 19432451, "gamerTag": "Aaron", "prefix": null, "user": {"location": {"city": "Lexington", "state": null, "country": null}}, "player": {"id": 448165, "gamerTag": "Aaron", "prefix": null, "user": {"location": {"city": "Lexington", "state": null, "country": null}}}}]}, "standing": {"placement": 1, "stats": {"score": {"value": 2}}}}, {"id": "93337922-1", "entrant": {"id": 21065322, "name": "TG | Cleppey", "participants": [{"id": 19376983, "gamerTag": "Cleppey", "prefix": "TG", "user": {"location": {"city": "San diego", "state": "CA", "country": "United States"}}, "player": {"id": 1132464, "gamerTag": "Cleppey", "prefix": "TG", "user": {"location": {"city": "San diego", "state": "CA", "country": "United States"}}}}]}, "standing": {"placement": 2, "stats": {"score": {"value": 0}}}}], "games": null}]}}}