{"event": {"sets": {"pageInfo": {"totalPages": 3, "total": 41}, "nodes": [{"id": 92756252, "state": 3, "round": 6, "fullRoundText": "Grand Final", "completedAt": 1755395876, "winnerId": 20989393, "slots": [{"id": "92756252-0", "entrant": {"id": 20987359, "name": "Chato", "participants": [{"id": 19306623, "gamerTag": "Chato", "prefix": null, "user": {"location": {"city": null, "state": null, "country": null}}, "player": {"id": 657291, "gamerTag": "Chato", "prefix": null, "user": {"location": {"city": null, "state": null, "country": null}}}}]}, "standing": {"placement": 2, "stats": {"score": {"value": 2}}}}, {"id": "92756252-1", "entrant": {"id": 20989393, "name": "blendoben", "participants": [{"id": 19308336, "gamerTag": "blendoben", "prefix": null, "user": {"location": {"city": "Perry", "state": "GA", "country": "United States"}}, "player": {"id": 140048, "gamerTag": "blendoben", "prefix": null, "user": {"location": {"city": "Perry", "state": "GA", "country": "United States"}}}}]}, "standing": {"placement": 1, "stats": {"score": {"value": 3}}}}], "games": null}, {"id": 92756253, "state": 3, "round": 6, "fullRoundText": "Grand Final Reset", "completedAt": 1755395924, "winnerId": 20989393, "slots": [{"id": "92756253-0", "entrant": {"id": 20989393, "name": "blendoben", "participants": [{"id": 19308336, "gamerTag": "blendoben", "prefix": null, "user": {"location": {"city": "Perry", "state": "GA", "country": "United States"}}, "player": {"id": 140048, "gamerTag": "blendoben", "prefix": null, "user": {"location": {"city": "Perry", "state": "GA", "country": "United States"}}}}]}, "standing": {"placement": 1, "stats": {"score": {"value": 3}}}}, {"id": "92756253-1", "entrant": {"id": 20987359, "name": "Chato", "participants": [{"id": 19306623, "gamerTag": "Chato", "prefix": null, "user": {"location": {"city": null, "state": null, "country": null}}, "player": {"id": 657291, "gamerTag": "Chato", "prefix": null, "user": {"location": {"city": null, "state": null, "country": null}}}}]}, "standing": {"placement": 2, "stats": {"score": {"value": 2}}}}], "games": null}, {"id": 92756251, "state": 3, "round": 5, "fullRoundText": "Winners Final", "completedAt": 1755393979, "winnerId": 20987359, "slots": [{"id": "92756251-0", "entrant": {"id": 20989393, "name": "blendoben", "participants": [{"id": 19308336, "gamerTag": "blendoben", "prefix": null, "user": {"location": {"city": "Perry", "state": "GA", "country": "United States"}}, "player": {"id": 140048, "gamerTag": "blendoben", "prefix": null, "user": {"location": {"city": "Perry", "state": "GA", "country": "United States"}}}}]}, "standing": {"placement": 2, "stats": {"score": {"value": 2}}}}, {"id": "92756251-1", "entrant": {"id": 20987359, "name": "Chato", "participants": [{"id": 19306623, "gamerTag": "Chato", "prefix": null, "user": {"location": {"city": null, "state": null, "country": null}}, "player": {"id": 657291, "gamerTag": "Chato", "prefix": null, "user": {"location": {"city": null, "state": null, "country": null}}}}]}, "standing": {"placement": 1, "stats": {"score": {"value": 3}}}}], "games": null}, {"id": 92756315, "state": 3, "round": -10, "fullRoundText": "Losers Final", "completedAt": 1755395857, "winnerId": 20989393, "slots": [{"id": "92756315-0", "entrant": {"id": 20989393, "name": "blendoben", "participants": [{"id": 19308336, "gamerTag": "blendoben", "prefix": null, "user": {"location": {"city": "Perry", "state": "GA", "country": "United States"}}, "player": {"id": 140048, "gamerTag": "blendoben", "prefix": null, "user": {"location": {"city": "Perry", "state": "GA", "country": "United States"}}}}]}, "standing": {"placement": 1, "stats": {"score": {"value": 3}}}}, {"id": "92756315-1", "entrant": {"id": 20982015, "name": "MrMixtape", "participants": [{"id": 19302404, "gamerTag": "MrMixtape", "prefix": null, "user": {"location": {"city": null, "state": null, "country": null}}, "player": {"id": 3930310, "gamerTag": "MrMixtape", "prefix": null, "user": {"location": {"city": null, "state": null, "country": null}}}}]}, "standing": {"placement": 2, "stats": {"score": {"value": 2}}}}], "games": null}, {"id": 92756314, "state": 3, "round": -9, "fullRoundText": "Losers Semi-Final", "completedAt": 1755394689, "winnerId": 20982015, "slots": [{"id": "92756314-0", "entrant": {"id": 20975407, "name": "AfterKast", "participants": [{"id": 19296563, "gamerTag": "AfterKast", "prefix": null, "user": {"location": {"city": "Macon", "state": "GA", "country": "United States"}}, "player": {"id": 3467624, "gamerTag": "AfterKast", "prefix": null, "user": {"location": {"city": "Macon", "state": "GA", "country": "United States"}}}}]}, "standing": {"placement": 2, "stats": {"score": {"value": 1}}}}, {"id": "92756314-1", "entrant": {"id": 20982015, "name": "MrMixtape", "participants": [{"id": 19302404, "gamerTag": "MrMixtape", "prefix": null, "user": {"location": {"city": null, "state": null, "country": null}}, "player": {"id": 3930310, "gamerTag": "MrMixtape", "prefix": null, "user": {"location": {"city": null, "state": null, "country": null}}}}]}, "standing": {"placement": 1, "stats": {"score": {"value": 3}}}}], "games": null}, {"id": 92756249, "state": 3, "round": 4, "fullRoundText": "Winners Semi-Final", "completedAt": 1755391258, "winnerId": 20989393, "slots": [{"id": "92756249-0", "entrant": {"id": 20989393, "name": "blendoben", "participants": [{"id": 19308336, "gamerTag": "blendoben", "prefix": null, "user": {"location": {"city": "Perry", "state": "GA", "country": "United States"}}, "player": {"id": 140048, "gamerTag": "blendoben", "prefix": null, "user": {"location": {"city": "Perry", "state": "GA", "country": "United States"}}}}]}, "standing": {"placement": 1, "stats": {"score": {"value": 3}}}}, {"id": "92756249-1", "entrant": {"id": 20982015, "name": "MrMixtape", "participants": [{"id": 19302404, "gamerTag": "MrMixtape", "prefix": null, "user": {"location": {"city": null, "state": null, "country": null}}, "player": {"id": 3930310, "gamerTag": "MrMixtape", "prefix": null, "user": {"location": {"city": null, "state": null, "country": null}}}}]}, "standing": {"placement": 2, "stats": {"score": {"value": 0}}}}], "games": null}, {"id": 92756250, "state": 3, "round": 4, "fullRoundText": "Winners Semi-Final", "completedAt": 1755391918, "winnerId": 20987359, "slots": [{"id": "92756250-0", "entrant": {"id": 20987359, "name": "Chato", "participants": [{"id": 19306623, "gamerTag": "Chato", "prefix": null, "user": {"location": {"city": null, "state": null, "country": null}}, "player": {"id": 657291, "gamerTag": "Chato", "prefix": null, "user": {"location": {"city": null, "state": null, "country": null}}}}]}, "standing": {"placement": 1, "stats": {"score": {"value": 3}}}}, {"id": "92756250-1", "entrant": {"id": 20878606, "name": "JazzMo", "participants": [{"id": 19211372, "gamerTag": "JazzMo", "prefix": null, "user": {"location": {"city": "Macon", "state": "GA", "country": "United States"}}, "player": {"id": 2369252, "gamerTag": "JazzMo", "prefix": null, "user": {"location": {"city": "Macon", "state": "GA", "country": "United States"}}}}]}, "standing": {"placement": 2, "stats": {"score": {"value": 0}}}}], "games": null}, {"id": 92756312, "state": 3, "round": -8, "fullRoundText": "Losers Quarter-Final", "completedAt": 1755393136, "winnerId": 20975407, "slots": [{"id": "92756312-0", "entrant": {"id": 20878606, "name": "JazzMo", "participants": [{"id": 19211372, "gamerTag": "JazzMo", "prefix": null, "user": {"location": {"city": "Macon", "state": "GA", "country": "United States"}}, "player": {"id": 2369252, "gamerTag": "JazzMo", "prefix": null, "user": {"location": {"city": "Macon", "state": "GA", "country": "United States"}}}}]}, "standing": {"placement": 2, "stats": {"score": {"value": 0}}}}, {"id": "92756312-1", "entrant": {"id": 20975407, "name": "AfterKast", "participants": [{"id": 19296563, "gamerTag": "AfterKast", "prefix": null, "user": {"location": {"city": "Macon", "state": "GA", "country": "United States"}}, "player": {"id": 3467624, "gamerTag": "AfterKast", "prefix": null, "user": {"location": {"city": "Macon", "state": "GA", "country": "United States"}}}}]}, "standing": {"placement": 1, "stats": {"score": {"value": 3}}}}], "games": null}, {"id": 92756313, "state": 3, "round": -8, "fullRoundText": "Losers Quarter-Final", "completedAt": 1755392580, "winnerId": 20982015, "slots": [{"id": "92756313-0", "entrant": {"id": 20982015, "name": "MrMixtape", "participants": [{"id": 19302404, "gamerTag": "MrMixtape", "prefix": null, "user": {"location": {"city": null, "state": null, "country": null}}, "player": {"id": 3930310, "gamerTag": "MrMixtape", "prefix": null, "user": {"location": {"city": null, "state": null, "country": null}}}}]}, "standing": {"placement": 1, "stats": {"score": {"value": 3}}}}, {"id": "92756313-1", "entrant": {"id": 20986394, "name": "TGS | Dattebane", "participants": [{"id": 19305796, "gamerTag": "Dattebane", "prefix": "TGS", "user": {"location": {"city": "McDonough", "state": "GA", "country": "United States"}}, "player": {"id": 1524545, "gamerTag": "Dattebane", "prefix": "TGS", "user": {"location": {"city": "McDonough", "state": "GA", "country": "United States"}}}}]}, "standing": {"placement": 2, "stats": {"score": {"value": 1}}}}], "games": null}, {"id": 92756310, "state": 3, "round": -7, "fullRoundText": "Losers Round 4", "completedAt": 1755389154, "winnerId": 20975407, "slots": [{"id": "92756310-0", "entrant": {"id": 20971034, "name": "Pokchop", "participants": [{"id": 19292652, "gamerTag": "Pokchop", "prefix": "", "user": {"location": {"city": "Atlanta", "state": "GA", "country": "United States"}}, "player": {"id": 150402, "gamerTag": "Pokchop", "prefix": "", "user": {"location": {"city": "Atlanta", "state": "GA", "country": "United States"}}}}]}, "standing": {"placement": 2, "stats": {"score": {"value": 1}}}}, {"id": "92756310-1", "entrant": {"id": 20975407, "name": "AfterKast", "participants": [{"id": 19296563, "gamerTag": "AfterKast", "prefix": null, "user": {"location": {"city": "Macon", "state": "GA", "country": "United States"}}, "player": {"id": 3467624, "gamerTag": "AfterKast", "prefix": null, "user": {"location": {"city": "Macon", "state": "GA", "country": "United States"}}}}]}, "standing": {"placement": 1, "stats": {"score": {"value": 3}}}}], "games": null}, {"id": 92756311, "state": 3, "round": -7, "fullRoundText": "Losers Round 4", "completedAt": 1755390717, "winnerId": 20986394, "slots": [{"id": "92756311-0", "entrant": {"id": 20986394, "name": "TGS | Dattebane", "participants": [{"id": 19305796, "gamerTag": "Dattebane", "prefix": "TGS", "user": {"location": {"city": "McDonough", "state": "GA", "country": "United States"}}, "player": {"id": 1524545, "gamerTag": "Dattebane", "prefix": "TGS", "user": {"location": {"city": "McDonough", "state": "GA", "country": "United States"}}}}]}, "standing": {"placement": 1, "stats": {"score": {"value": 3}}}}, {"id": "92756311-1", "entrant": {"id": 20920899, "name": "JSH3LLZ", "participants": [{"id": 19248764, "gamerTag": "JSH3LLZ", "prefix": null, "user": {"location": {"city": "atlanta", "state": "GA", "country": "United States"}}, "player": {"id": 1379919, "gamerTag": "JSH3LLZ", "prefix": null, "user": {"location": {"city": "atlanta", "state": "GA", "country": "United States"}}}}]}, "standing": {"placement": 2, "stats": {"score": {"value": 0}}}}], "games": null}, {"id": 92756245, "state": 3, "round": 3, "fullRoundText": "Winners Quarter-Final", "completedAt": 1755387722, "winnerId": 20989393, "slots": [{"id": "92756245-0", "entrant": {"id": 20989393, "name": "blendoben", "participants": [{"id": 19308336, "gamerTag": "blendoben", "prefix": null, "user": {"location": {"city": "Perry", "state": "GA", "country": "United States"}}, "player": {"id": 140048, "gamerTag": "blendoben", "prefix": null, "user": {"location": {"city": "Perry", "state": "GA", "country": "United States"}}}}]}, "standing": {"placement": 1, "stats": {"score": {"value": 2}}}}, {"id": "92756245-1", "entrant": {"id": 20975407, "name": "AfterKast", "participants": [{"id": 19296563, "gamerTag": "AfterKast", "prefix": null, "user": {"location": {"city": "Macon", "state": "GA", "country": "United States"}}, "player": {"id": 3467624, "gamerTag": "AfterKast", "prefix": null, "user": {"location": {"city": "Macon", "state": "GA", "country": "United States"}}}}]}, "standing": {"placement": 2, "stats": {"score": {"value": 0}}}}], "games": null}, {"id": 92756246, "state": 3, "round": 3, "fullRoundText": "Winners Quarter-Final", "completedAt": 1755386693, "winnerId": 20982015, "slots": [{"id": "92756246-0", "entrant": {"id": 20982015, "name": "MrMixtape", "participants": [{"id": 19302404, "gamerTag": "MrMixtape", "prefix": null, "user": {"location": {"city": null, "state": null, "country": null}}, "player": {"id": 3930310, "gamerTag": "MrMixtape", "prefix": null, "user": {"location": {"city": null, "state": null, "country": null}}}}]}, "standing": {"placement": 1, "stats": {"score": {"value": 2}}}}, {"id": "92756246-1", "entrant": {"id": 20978036, "name": "REDD", "participants": [{"id": 19298964, "gamerTag": "REDD", "prefix": "", "user": {"location": {"city": "Valdosta", "state": "GA", "country": "United States"}}, "player": {"id": 1305309, "gamerTag": "REDD", "prefix": "", "user": {"location": {"city": "Valdosta", "state": "GA", "country": "United States"}}}}]}, "standing": {"placement": 2, "stats": {"score": {"value": 0}}}}], "games": null}, {"id": 92756247, "state": 3, "round": 3, "fullRoundText": "Winners Quarter-Final", "completedAt": 1755387815, "winnerId": 20987359, "slots": [{"id": "92756247-0", "entrant": {"id": 20987359, "name": "Chato", "participants": [{"id": 19306623, "gamerTag": "Chato", "prefix": null, "user": {"location": {"city": null, "state": null, "country": null}}, "player": {"id": 657291, "gamerTag": "Chato", "prefix": null, "user": {"location": {"city": null, "state": null, "country": null}}}}]}, "standing": {"placement": 1, "stats": {"score": {"value": 2}}}}, {"id": "92756247-1", "entrant": {"id": 20983602, "name": "BlazingFox", "participants": [{"id": 19303627, "gamerTag": "BlazingFox", "prefix": "", "user": {"location": {"city": "Byron", "state": null, "country": "United States"}}, "player": {"id": 592139, "gamerTag": "BlazingFox", "prefix": "", "user": {"location": {"city": "Byron", "state": null, "country": "United States"}}}}]}, "standing": {"placement": 2, "stats": {"score": {"value": 0}}}}], "games": null}, {"id": 92756248, "state": 3, "round": 3, "fullRoundText": "Winners Quarter-Final", "completedAt": 1755387586, "winnerId": 20878606, "slots": [{"id": "92756248-0", "entrant": {"id": 20878606, "name": "JazzMo", "participants": [{"id": 19211372, "gamerTag": "JazzMo", "prefix": null, "user": {"location": {"city": "Macon", "state": "GA", "country": "United States"}}, "player": {"id": 2369252, "gamerTag": "JazzMo", "prefix": null, "user": {"location": {"city": "Macon", "state": "GA", "country": "United States"}}}}]}, "standing": {"placement": 1, "stats": {"score": {"value": 2}}}}, {"id": "92756248-1", "entrant": {"id": 20944180, "name": "Gorduri Cap", "participants": [{"id": 19269483, "gamerTag": "Gorduri Cap", "prefix": "", "user": {"location": {"city": "", "state": "AK", "country": "United States"}}, "player": {"id": 2068683, "gamerTag": "Spauldo", "prefix": "", "user": {"location": {"city": "", "state": "AK", "country": "United States"}}}}]}, "standing": {"placement": 2, "stats": {"score": {"value": 0}}}}], "games": null}]}}}