{"event": {"sets": {"pageInfo": {"totalPages": 22, "total": 318}, "nodes": [{"id": 92227850, "state": 3, "round": 3, "fullRoundText": "Winners Round 3", "completedAt": 1754176333, "winnerId": 20495676, "slots": [{"id": "92227850-0", "entrant": {"id": 20495676, "name": "Hell Mode | ROB Slayer", "participants": [{"id": 18873880, "gamerTag": "ROB Slayer", "prefix": "Hell Mode", "user": {"location": {"city": "Atlanta", "state": "GA", "country": "United States"}}, "player": {"id": 2414381, "gamerTag": "ROB Slayer", "prefix": "Hell Mode", "user": {"location": {"city": "Atlanta", "state": "GA", "country": "United States"}}}}]}, "standing": {"placement": 1, "stats": {"score": {"value": 2}}}}, {"id": "92227850-1", "entrant": {"id": 20783378, "name": "FreeDubs", "participants": [{"id": 19127053, "gamerTag": "FreeDubs", "prefix": "", "user": {"location": {"city": "Atlanta", "state": null, "country": "United States"}}, "player": {"id": 4888408, "gamerTag": "FreeDubs", "prefix": "", "user": {"location": {"city": "Atlanta", "state": null, "country": "United States"}}}}]}, "standing": {"placement": 2, "stats": {"score": {"value": 0}}}}], "games": null}, {"id": 92110793, "state": 3, "round": 3, "fullRoundText": "Winners Semi-Final", "completedAt": 1754184428, "winnerId": 20666441, "slots": [{"id": "92110793-0", "entrant": {"id": 20666441, "name": "WIN | Peabnut", "participants": [{"id": 19022842, "gamerTag": "Peabnut", "prefix": "WIN", "user": {"location": {"city": "Rock Hill", "state": "SC", "country": "United States"}}, "player": {"id": 49302, "gamerTag": "Peabnut", "prefix": "WIN", "user": {"location": {"city": "Rock Hill", "state": "SC", "country": "United States"}}}}]}, "standing": {"placement": 1, "stats": {"score": {"value": 3}}}}, {"id": "92110793-1", "entrant": {"id": 20555293, "name": "omega", "participants": [{"id": 18925691, "gamerTag": "omega", "prefix": "", "user": {"location": {"city": "Suwanee", "state": "GA", "country": "United States"}}, "player": {"id": 24638, "gamerTag": "omega", "prefix": "", "user": {"location": {"city": "Suwanee", "state": "GA", "country": "United States"}}}}]}, "standing": {"placement": 2, "stats": {"score": {"value": 1}}}}], "games": null}, {"id": 92110794, "state": 3, "round": 3, "fullRoundText": "Winners Semi-Final", "completedAt": 1754183000, "winnerId": 20690838, "slots": [{"id": "92110794-0", "entrant": {"id": 20690838, "name": "SR | Kola", "participants": [{"id": 19043759, "gamerTag": "Kola", "prefix": "SR", "user": {"location": {"city": "Duluth", "state": "GA", "country": "United States"}}, "player": {"id": 18802, "gamerTag": "Kola", "prefix": "SR", "user": {"location": {"city": "Duluth", "state": "GA", "country": "United States"}}}}]}, "standing": {"placement": 1, "stats": {"score": {"value": 3}}}}, {"id": "92110794-1", "entrant": {"id": 20718910, "name": "HyperKirby", "participants": [{"id": 19068181, "gamerTag": "HyperKirby", "prefix": null, "user": {"location": {"city": "Lawrenceville", "state": "GA", "country": "United States"}}, "player": {"id": 71079, "gamerTag": "HyperKirby", "prefix": null, "user": {"location": {"city": "Lawrenceville", "state": "GA", "country": "United States"}}}}]}, "standing": {"placement": 2, "stats": {"score": {"value": 0}}}}], "games": null}, {"id": 92227843, "state": 3, "round": 3, "fullRoundText": "Winners Round 3", "completedAt": 1754175484, "winnerId": 20690838, "slots": [{"id": "92227843-0", "entrant": {"id": 20690838, "name": "SR | Kola", "participants": [{"id": 19043759, "gamerTag": "Kola", "prefix": "SR", "user": {"location": {"city": "Duluth", "state": "GA", "country": "United States"}}, "player": {"id": 18802, "gamerTag": "Kola", "prefix": "SR", "user": {"location": {"city": "Duluth", "state": "GA", "country": "United States"}}}}]}, "standing": {"placement": 1, "stats": {"score": {"value": 2}}}}, {"id": "92227843-1", "entrant": {"id": 20497378, "name": "Dubz", "participants": [{"id": 18875528, "gamerTag": "Dubz", "prefix": "", "user": {"location": {"city": "Grayson", "state": "GA", "country": "United States"}}, "player": {"id": 22583, "gamerTag": "Dubz", "prefix": "", "user": {"location": {"city": "Grayson", "state": "GA", "country": "United States"}}}}]}, "standing": {"placement": 2, "stats": {"score": {"value": 0}}}}], "games": null}, {"id": 92227202, "state": 3, "round": 3, "fullRoundText": "Winners Round 3", "completedAt": 1754168965, "winnerId": 20666441, "slots": [{"id": "92227202-0", "entrant": {"id": 20666441, "name": "WIN | Peabnut", "participants": [{"id": 19022842, "gamerTag": "Peabnut", "prefix": "WIN", "user": {"location": {"city": "Rock Hill", "state": "SC", "country": "United States"}}, "player": {"id": 49302, "gamerTag": "Peabnut", "prefix": "WIN", "user": {"location": {"city": "Rock Hill", "state": "SC", "country": "United States"}}}}]}, "standing": {"placement": 1, "stats": {"score": {"value": 2}}}}, {"id": "92227202-1", "entrant": {"id": 20831892, "name": "iNGenius", "participants": [{"id": 19170319, "gamerTag": "iNGenius", "prefix": "", "user": {"location": {"city": null, "state": null, "country": null}}, "player": {"id": 3194293, "gamerTag": "iNGenius", "prefix": "", "user": {"location": {"city": null, "state": null, "country": null}}}}]}, "standing": {"placement": 2, "stats": {"score": {"value": 0}}}}], "games": null}, {"id": 92227393, "state": 3, "round": 3, "fullRoundText": "Winners Round 3", "completedAt": 1754168868, "winnerId": 20555293, "slots": [{"id": "92227393-0", "entrant": {"id": 20555293, "name": "omega", "participants": [{"id": 18925691, "gamerTag": "omega", "prefix": "", "user": {"location": {"city": "Suwanee", "state": "GA", "country": "United States"}}, "player": {"id": 24638, "gamerTag": "omega", "prefix": "", "user": {"location": {"city": "Suwanee", "state": "GA", "country": "United States"}}}}]}, "standing": {"placement": 1, "stats": {"score": {"value": 2}}}}, {"id": "92227393-1", "entrant": {"id": 20490407, "name": "TC | Mr.Speedman", "participants": [{"id": 18869131, "gamerTag": "Mr.Speedman", "prefix": "TC", "user": {"location": {"city": "Roswell", "state": "GA", "country": "United States"}}, "player": {"id": 36192, "gamerTag": "Mr.Speedman", "prefix": "TC", "user": {"location": {"city": "Roswell", "state": "GA", "country": "United States"}}}}]}, "standing": {"placement": 2, "stats": {"score": {"value": 0}}}}], "games": null}, {"id": 92227631, "state": 3, "round": 3, "fullRoundText": "Winners Round 3", "completedAt": 1754175953, "winnerId": 20749158, "slots": [{"id": "92227631-0", "entrant": {"id": 20749158, "name": "NS | BeastModePaul", "participants": [{"id": 19094723, "gamerTag": "BeastModePaul", "prefix": "NS", "user": {"location": {"city": null, "state": null, "country": null}}, "player": {"id": 1868170, "gamerTag": "BeastModePaul", "prefix": "NS", "user": {"location": {"city": null, "state": null, "country": null}}}}]}, "standing": {"placement": 1, "stats": {"score": {"value": 2}}}}, {"id": "92227631-1", "entrant": {"id": 20488306, "name": "VA | StreetDzine", "participants": [{"id": 18867299, "gamerTag": "StreetDzine", "prefix": "VA", "user": {"location": {"city": null, "state": null, "country": "United States"}}, "player": {"id": 989587, "gamerTag": "StreetDzine", "prefix": "VA", "user": {"location": {"city": null, "state": null, "country": "United States"}}}}]}, "standing": {"placement": 2, "stats": {"score": {"value": 0}}}}], "games": null}, {"id": 92227203, "state": 3, "round": 3, "fullRoundText": "Winners Round 3", "completedAt": 1754169153, "winnerId": 20564504, "slots": [{"id": "92227203-0", "entrant": {"id": 20733414, "name": "Kailen", "participants": [{"id": 19080738, "gamerTag": "Kailen", "prefix": "", "user": {"location": {"city": "Atlanta", "state": "GA", "country": "United States"}}, "player": {"id": 1647157, "gamerTag": "Kailen", "prefix": "", "user": {"location": {"city": "Atlanta", "state": "GA", "country": "United States"}}}}]}, "standing": {"placement": 2, "stats": {"score": {"value": 0}}}}, {"id": "92227203-1", "entrant": {"id": 20564504, "name": "SmU5h | Shaine", "participants": [{"id": 18933874, "gamerTag": "Shaine", "prefix": "SmU5h", "user": {"location": {"city": "Leesburg", "state": "GA", "country": "United States"}}, "player": {"id": 1482843, "gamerTag": "Shaine", "prefix": "SmU5h", "user": {"location": {"city": "Leesburg", "state": "GA", "country": "United States"}}}}]}, "standing": {"placement": 1, "stats": {"score": {"value": 2}}}}], "games": null}, {"id": 92227394, "state": 3, "round": 3, "fullRoundText": "Winners Round 3", "completedAt": 1754169922, "winnerId": 20710303, "slots": [{"id": "92227394-0", "entrant": {"id": 20867172, "name": "Trout~", "participants": [{"id": 19201389, "gamerTag": "Trout~", "prefix": "", "user": {"location": {"city": "Lawrenceville", "state": "GA", "country": "United States"}}, "player": {"id": 905410, "gamerTag": "Primary Trout~", "prefix": "", "user": {"location": {"city": "Lawrenceville", "state": "GA", "country": "United States"}}}}]}, "standing": {"placement": 2, "stats": {"score": {"value": 0}}}}, {"id": "92227394-1", "entrant": {"id": 20710303, "name": "iGreg!", "participants": [{"id": 19060770, "gamerTag": "iGreg!", "prefix": "", "user": {"location": {"city": "FLOWERY BR", "state": "GA", "country": "United States"}}, "player": {"id": 509710, "gamerTag": "iGreg!", "prefix": "", "user": {"location": {"city": "FLOWERY BR", "state": "GA", "country": "United States"}}}}]}, "standing": {"placement": 1, "stats": {"score": {"value": 2}}}}], "games": null}, {"id": 92227632, "state": 3, "round": 3, "fullRoundText": "Winners Round 3", "completedAt": 1754176550, "winnerId": 20487980, "slots": [{"id": "92227632-0", "entrant": {"id": 20487980, "name": "crystal pg | blue dog", "participants": [{"id": 18867134, "gamerTag": "blue dog", "prefix": "crystal pg", "user": {"location": {"city": "Matthews", "state": "NC", "country": "United States"}}, "player": {"id": 2279258, "gamerTag": "blue dog", "prefix": "crystal pg", "user": {"location": {"city": "Matthews", "state": "NC", "country": "United States"}}}}]}, "standing": {"placement": 1, "stats": {"score": {"value": 2}}}}, {"id": "92227632-1", "entrant": {"id": 20702798, "name": "Riddul", "participants": [{"id": 19053992, "gamerTag": "Riddul", "prefix": "", "user": {"location": {"city": null, "state": null, "country": "United States"}}, "player": {"id": 1418775, "gamerTag": "Riddul", "prefix": "", "user": {"location": {"city": null, "state": null, "country": "United States"}}}}]}, "standing": {"placement": 2, "stats": {"score": {"value": 0}}}}], "games": null}, {"id": 92227844, "state": 3, "round": 3, "fullRoundText": "Winners Round 3", "completedAt": 1754175397, "winnerId": 20773601, "slots": [{"id": "92227844-0", "entrant": {"id": 20773601, "name": "TCS BTV/WOD | Lost", "participants": [{"id": 19118053, "gamerTag": "Lost", "prefix": "TCS BTV/WOD", "user": {"location": {"city": "Scotts Hill", "state": "TN", "country": "United States"}}, "player": {"id": 1683473, "gamerTag": "Lost", "prefix": "TCS BTV/WOD", "user": {"location": {"city": "Scotts Hill", "state": "TN", "country": "United States"}}}}]}, "standing": {"placement": 1, "stats": {"score": {"value": 2}}}}, {"id": "92227844-1", "entrant": {"id": 20777657, "name": "REAL | Apollonitus", "participants": [{"id": 19121798, "gamerTag": "Apollonitus", "prefix": "REAL", "user": {"location": {"city": "PACOIMA", "state": "CA", "country": "United States"}}, "player": {"id": 354915, "gamerTag": "Apollonitus", "prefix": "REAL", "user": {"location": {"city": "PACOIMA", "state": "CA", "country": "United States"}}}}]}, "standing": {"placement": 2, "stats": {"score": {"value": 0}}}}], "games": null}, {"id": 92110856, "state": 3, "round": -8, "fullRoundText": "Losers Quarter-Final", "completedAt": 1754187160, "winnerId": 20735917, "slots": [{"id": "92110856-0", "entrant": {"id": 20718910, "name": "HyperKirby", "participants": [{"id": 19068181, "gamerTag": "HyperKirby", "prefix": null, "user": {"location": {"city": "Lawrenceville", "state": "GA", "country": "United States"}}, "player": {"id": 71079, "gamerTag": "HyperKirby", "prefix": null, "user": {"location": {"city": "Lawrenceville", "state": "GA", "country": "United States"}}}}]}, "standing": {"placement": 2, "stats": {"score": {"value": 2}}}}, {"id": "92110856-1", "entrant": {"id": 20735917, "name": "DTN | Fatality", "participants": [{"id": 19082720, "gamerTag": "Fatality", "prefix": "DTN", "user": {"location": {"city": "Lilburn", "state": "GA", "country": "United States"}}, "player": {"id": 15921, "gamerTag": "Fatality", "prefix": "DTN", "user": {"location": {"city": "Lilburn", "state": "GA", "country": "United States"}}}}]}, "standing": {"placement": 1, "stats": {"score": {"value": 3}}}}], "games": null}, {"id": 92110857, "state": 3, "round": -8, "fullRoundText": "Losers Quarter-Final", "completedAt": 1754188772, "winnerId": 20699992, "slots": [{"id": "92110857-0", "entrant": {"id": 20555293, "name": "omega", "participants": [{"id": 18925691, "gamerTag": "omega", "prefix": "", "user": {"location": {"city": "Suwanee", "state": "GA", "country": "United States"}}, "player": {"id": 24638, "gamerTag": "omega", "prefix": "", "user": {"location": {"city": "Suwanee", "state": "GA", "country": "United States"}}}}]}, "standing": {"placement": 2, "stats": {"score": {"value": 2}}}}, {"id": "92110857-1", "entrant": {"id": 20699992, "name": "SFS | TCS | Dany", "participants": [{"id": 19051511, "gamerTag": "Dany", "prefix": "SFS | TCS", "user": {"location": {"city": "Nashville", "state": "TN", "country": "United States"}}, "player": {"id": 606386, "gamerTag": "Dany2theny", "prefix": "TCS", "user": {"location": {"city": "Nashville", "state": "TN", "country": "United States"}}}}]}, "standing": {"placement": 1, "stats": {"score": {"value": 3}}}}], "games": null}, {"id": 92227752, "state": 3, "round": -6, "fullRoundText": "Losers Round 3", "completedAt": 1754179237, "winnerId": 20851153, "slots": [{"id": "92227752-0", "entrant": {"id": 20843596, "name": "CeR | scruffie:))", "participants": [{"id": 19180359, "gamerTag": "scruffie:))", "prefix": "CeR", "user": {"location": {"city": "Boca raton", "state": "FL", "country": "United States"}}, "player": {"id": 1894348, "gamerTag": "scruffie:))", "prefix": "", "user": {"location": {"city": "Boca raton", "state": "FL", "country": "United States"}}}}]}, "standing": {"placement": 2, "stats": {"score": {"value": 0}}}}, {"id": "92227752-1", "entrant": {"id": 20851153, "name": "CJay", "participants": [{"id": 19187296, "gamerTag": "CJay", "prefix": null, "user": {"location": {"city": "tallahassee", "state": "FL", "country": "United States"}}, "player": {"id": 1852984, "gamerTag": "CJay", "prefix": null, "user": {"location": {"city": "tallahassee", "state": "FL", "country": "United States"}}}}]}, "standing": {"placement": 1, "stats": {"score": {"value": 2}}}}], "games": null}, {"id": 92227514, "state": 3, "round": -6, "fullRoundText": "Losers Round 3", "completedAt": 1754171754, "winnerId": 20662622, "slots": [{"id": "92227514-0", "entrant": {"id": 20662622, "name": "Free | Hue", "participants": [{"id": 19019537, "gamerTag": "Hue", "prefix": "Free", "user": {"location": {"city": "Union City", "state": "GA", "country": "United States"}}, "player": {"id": 35934, "gamerTag": "Hue", "prefix": "Free", "user": {"location": {"city": "Union City", "state": "GA", "country": "United States"}}}}]}, "standing": {"placement": 1, "stats": {"score": {"value": 2}}}}, {"id": "92227514-1", "entrant": {"id": 20488513, "name": "BE | Bumble", "participants": [{"id": 18867472, "gamerTag": "Bumble", "prefix": "BE", "user": {"location": {"city": "Savannah", "state": "GA", "country": "United States"}}, "player": {"id": 1169889, "gamerTag": "Bumble", "prefix": "", "user": {"location": {"city": "Savannah", "state": "GA", "country": "United States"}}}}]}, "standing": {"placement": 2, "stats": {"score": {"value": 0}}}}], "games": null}]}}}