{"event": {"sets": {"pageInfo": {"totalPages": 4, "total": 53}, "nodes": [{"id": 94480799, "state": 3, "round": 1, "fullRoundText": "Round 1", "completedAt": 1759102301, "winnerId": 20621835, "slots": [{"id": "94480799-0", "entrant": {"id": 20621829, "name": "TFT | RoKu", "participants": [{"id": 18984050, "gamerTag": "RoKu", "prefix": "TFT", "user": {"location": {"city": "Peachtree Corners", "state": "GA", "country": "United States"}}, "player": {"id": 1107285, "gamerTag": "RoKu", "prefix": "TFT", "user": {"location": {"city": "Peachtree Corners", "state": "GA", "country": "United States"}}}}]}, "standing": {"placement": 2, "stats": {"score": {"value": 1}}}}, {"id": "94480799-1", "entrant": {"id": 20621835, "name": "RAMS | RussianJesus", "participants": [{"id": 18984058, "gamerTag": "RussianJesus", "prefix": "RAMS", "user": {"location": {"city": "Atlanta", "state": "GA", "country": "United States"}}, "player": {"id": 1140567, "gamerTag": "RussianJesus", "prefix": "RAMS", "user": {"location": {"city": "Atlanta", "state": "GA", "country": "United States"}}}}]}, "standing": {"placement": 1, "stats": {"score": {"value": 2}}}}], "games": null}, {"id": 94480820, "state": 3, "round": 1, "fullRoundText": "Round 1", "completedAt": 1759103108, "winnerId": 20465220, "slots": [{"id": "94480820-0", "entrant": {"id": 20465220, "name": "WFF | Happy", "participants": [{"id": 18847918, "gamerTag": "Happy", "prefix": "WFF", "user": {"location": {"city": "Peachtree CIty", "state": "GA", "country": "United States"}}, "player": {"id": 1383907, "gamerTag": "Happy", "prefix": "WFF", "user": {"location": {"city": "Peachtree CIty", "state": "GA", "country": "United States"}}}}]}, "standing": {"placement": 1, "stats": {"score": {"value": 2}}}}, {"id": "94480820-1", "entrant": {"id": 21346103, "name": "TnT | Damp\u00e9", "participants": [{"id": 19623109, "gamerTag": "Damp\u00e9", "prefix": "TnT", "user": {"location": {"city": "Atlanta", "state": "GA", "country": "United States"}}, "player": {"id": 1170738, "gamerTag": "Damp\u00e9", "prefix": "TnT", "user": {"location": {"city": "Atlanta", "state": "GA", "country": "United States"}}}}]}, "standing": {"placement": 2, "stats": {"score": {"value": 1}}}}], "games": null}, {"id": 94480821, "state": 3, "round": 1, "fullRoundText": "Round 1", "completedAt": 1759101393, "winnerId": 21346105, "slots": [{"id": "94480821-0", "entrant": {"id": 21346100, "name": "Heart", "participants": [{"id": 19623106, "gamerTag": "Heart", "prefix": "", "user": {"location": {"city": "Atlanta", "state": "GA", "country": "United States"}}, "player": {"id": 4287822, "gamerTag": "Heart", "prefix": "", "user": {"location": {"city": "Atlanta", "state": "GA", "country": "United States"}}}}]}, "standing": {"placement": 2, "stats": {"score": {"value": 1}}}}, {"id": "94480821-1", "entrant": {"id": 21346105, "name": "PhaZe", "participants": [{"id": 19623111, "gamerTag": "PhaZe", "prefix": "", "user": {"location": {"city": "Gainesville", "state": "GA", "country": "United States"}}, "player": {"id": 36212, "gamerTag": "PhaZe", "prefix": "", "user": {"location": {"city": "Gainesville", "state": "GA", "country": "United States"}}}}]}, "standing": {"placement": 1, "stats": {"score": {"value": 2}}}}], "games": null}, {"id": 94480800, "state": 3, "round": 1, "fullRoundText": "Round 1", "completedAt": 1759101198, "winnerId": 20621831, "slots": [{"id": "94480800-0", "entrant": {"id": 20621831, "name": "WeFarmFrank | Planet Of Da", "participants": [{"id": 18984053, "gamerTag": "Planet Of Da", "prefix": "WeFarmFrank", "user": {"location": {"city": "Atlanta", "state": "GA", "country": "United States"}}, "player": {"id": 1810274, "gamerTag": "Planet Of Da", "prefix": "WeFarmFrank", "user": {"location": {"city": "Atlanta", "state": "GA", "country": "United States"}}}}]}, "standing": {"placement": 1, "stats": {"score": {"value": 2}}}}, {"id": "94480800-1", "entrant": {"id": 20465217, "name": "TnT | Monologgue", "participants": [{"id": 18847916, "gamerTag": "Monologgue", "prefix": "TnT", "user": {"location": {"city": "Atlanta", "state": "GA", "country": "United States"}}, "player": {"id": 1135679, "gamerTag": "Monologgue", "prefix": "TnT", "user": {"location": {"city": "Atlanta", "state": "GA", "country": "United States"}}}}]}, "standing": {"placement": 2, "stats": {"score": {"value": 1}}}}], "games": null}, {"id": 94486175, "state": 3, "round": -4, "fullRoundText": "Losers Quarter-Final", "completedAt": 1759111289, "winnerId": 21346105, "slots": [{"id": "94486175-0", "entrant": {"id": 20621835, "name": "RAMS | RussianJesus", "participants": [{"id": 18984058, "gamerTag": "RussianJesus", "prefix": "RAMS", "user": {"location": {"city": "Atlanta", "state": "GA", "country": "United States"}}, "player": {"id": 1140567, "gamerTag": "RussianJesus", "prefix": "RAMS", "user": {"location": {"city": "Atlanta", "state": "GA", "country": "United States"}}}}]}, "standing": {"placement": 2, "stats": {"score": {"value": 2}}}}, {"id": "94486175-1", "entrant": {"id": 21346105, "name": "PhaZe", "participants": [{"id": 19623111, "gamerTag": "PhaZe", "prefix": "", "user": {"location": {"city": "Gainesville", "state": "GA", "country": "United States"}}, "player": {"id": 36212, "gamerTag": "PhaZe", "prefix": "", "user": {"location": {"city": "Gainesville", "state": "GA", "country": "United States"}}}}]}, "standing": {"placement": 1, "stats": {"score": {"value": 3}}}}], "games": null}, {"id": 94486176, "state": 3, "round": -4, "fullRoundText": "Losers Quarter-Final", "completedAt": 1759110874, "winnerId": 20465220, "slots": [{"id": "94486176-0", "entrant": {"id": 20465220, "name": "WFF | Happy", "participants": [{"id": 18847918, "gamerTag": "Happy", "prefix": "WFF", "user": {"location": {"city": "Peachtree CIty", "state": "GA", "country": "United States"}}, "player": {"id": 1383907, "gamerTag": "Happy", "prefix": "WFF", "user": {"location": {"city": "Peachtree CIty", "state": "GA", "country": "United States"}}}}]}, "standing": {"placement": 1, "stats": {"score": {"value": 3}}}}, {"id": "94486176-1", "entrant": {"id": 20465223, "name": "TnT | Sid", "participants": [{"id": 18847922, "gamerTag": "Sid", "prefix": "TnT", "user": {"location": {"city": "Powder Springs", "state": "GA", "country": "United States"}}, "player": {"id": 1229067, "gamerTag": "Sid", "prefix": "TnT", "user": {"location": {"city": "Powder Springs", "state": "GA", "country": "United States"}}}}]}, "standing": {"placement": 2, "stats": {"score": {"value": 1}}}}], "games": null}, {"id": 94486173, "state": 3, "round": -3, "fullRoundText": "Losers Round 1", "completedAt": 1759108967, "winnerId": 21346105, "slots": [{"id": "94486173-0", "entrant": {"id": 21346105, "name": "PhaZe", "participants": [{"id": 19623111, "gamerTag": "PhaZe", "prefix": "", "user": {"location": {"city": "Gainesville", "state": "GA", "country": "United States"}}, "player": {"id": 36212, "gamerTag": "PhaZe", "prefix": "", "user": {"location": {"city": "Gainesville", "state": "GA", "country": "United States"}}}}]}, "standing": {"placement": 1, "stats": {"score": {"value": 2}}}}, {"id": "94486173-1", "entrant": {"id": 20621831, "name": "WeFarmFrank | Planet Of Da", "participants": [{"id": 18984053, "gamerTag": "Planet Of Da", "prefix": "WeFarmFrank", "user": {"location": {"city": "Atlanta", "state": "GA", "country": "United States"}}, "player": {"id": 1810274, "gamerTag": "Planet Of Da", "prefix": "WeFarmFrank", "user": {"location": {"city": "Atlanta", "state": "GA", "country": "United States"}}}}]}, "standing": {"placement": 2, "stats": {"score": {"value": 1}}}}], "games": null}, {"id": 94486174, "state": 3, "round": -3, "fullRoundText": "Losers Round 1", "completedAt": 1759109792, "winnerId": 20465223, "slots": [{"id": "94486174-0", "entrant": {"id": 21346117, "name": "Kid Kaioken", "participants": [{"id": 19623123, "gamerTag": "Kid Kaioken", "prefix": "", "user": {"location": {"city": "Norcross", "state": "GA", "country": "United States"}}, "player": {"id": 2730912, "gamerTag": "Kid Kaioken", "prefix": "", "user": {"location": {"city": "Norcross", "state": "GA", "country": "United States"}}}}]}, "standing": {"placement": 2, "stats": {"score": {"value": 2}}}}, {"id": "94486174-1", "entrant": {"id": 20465223, "name": "TnT | Sid", "participants": [{"id": 18847922, "gamerTag": "Sid", "prefix": "TnT", "user": {"location": {"city": "Powder Springs", "state": "GA", "country": "United States"}}, "player": {"id": 1229067, "gamerTag": "Sid", "prefix": "TnT", "user": {"location": {"city": "Powder Springs", "state": "GA", "country": "United States"}}}}]}, "standing": {"placement": 1, "stats": {"score": {"value": 3}}}}], "games": null}]}}}