{"phase": {"seeds": {"pageInfo": {"totalPages": 1, "total": 5}, "nodes": [{"id": 36710312, "seedNum": 5, "entrant": {"id": 21331279, "name": "Fat Beezy", "participants": [{"id": 19551374, "gamerTag": "Fat Beezy", "prefix": "", "user": {"location": {"city": "Chattanooga", "state": null, "country": "United States"}}, "player": {"id": 3529182, "gamerTag": "Fat Beezy", "prefix": "", "user": {"location": {"city": "Chattanooga", "state": null, "country": "United States"}}}}]}}, {"id": 36710304, "seedNum": 2, "entrant": {"id": 21331272, "name": "goop", "participants": [{"id": 19607914, "gamerTag": "goop", "prefix": "", "user": {"location": {"city": "Chattanooga", "state": "TN", "country": "United States"}}, "player": {"id": 3136059, "gamerTag": "goop", "prefix": "", "user": {"location": {"city": "Chattanooga", "state": "TN", "country": "United States"}}}}]}}, {"id": 36710309, "seedNum": 4, "entrant": {"id": 21331276, "name": "DARE | RoboCop", "participants": [{"id": 19605114, "gamerTag": "RoboCop", "prefix": "DARE", "user": {"location": {"city": "Chattanooga", "state": "TN", "country": "United States"}}, "player": {"id": 534974, "gamerTag": "RoboCop", "prefix": "DARE", "user": {"location": {"city": "Chattanooga", "state": "TN", "country": "United States"}}}}]}}, {"id": 36710301, "seedNum": 1, "entrant": {"id": 21331268, "name": "Maldito", "participants": [{"id": 19608651, "gamerTag": "Maldito", "prefix": "", "user": {"location": {"city": "Chattanooga", "state": "TN", "country": "United States"}}, "player": {"id": 3850310, "gamerTag": "Maldito", "prefix": "", "user": {"location": {"city": "Chattanooga", "state": "TN", "country": "United States"}}}}]}}, {"id": 36710307, "seedNum": 3, "entrant": {"id": 21331273, "name": "Althalos", "participants": [{"id": 19607277, "gamerTag": "Althalos", "prefix": null, "user": {"location": {"city": "Chattanooga", "state": "TN", "country": "United States"}}, "player": {"id": 4496902, "gamerTag": "Althalos", "prefix": null, "user": {"location": {"city": "Chattanooga", "state": "TN", "country": "United States"}}}}]}}]}}}