{"event": {"sets": {"pageInfo": {"totalPages": 5, "total": 73}, "nodes": [{"id": "preview_2961878_1_1", "state": 1, "round": 1, "fullRoundText": "Winners Round 1", "completedAt": null, "winnerId": null, "slots": [{"id": "preview_2961878_1_1-0", "entrant": {"id": 20952673, "name": "OGC | bune", "participants": [{"id": 19272925, "gamerTag": "bune", "prefix": "OGC", "user": {"location": {"city": "Macon", "state": "GA", "country": "United States"}}, "player": {"id": 3054829, "gamerTag": "bune", "prefix": "OGC", "user": {"location": {"city": "Macon", "state": "GA", "country": "United States"}}}}]}, "standing": null}, {"id": "preview_2961878_1_1-1", "entrant": {"id": 20747623, "name": "SCS | dougie2doinks", "participants": [{"id": 19093281, "gamerTag": "dougie2doinks", "prefix": "SCS", "user": {"location": {"city": "Atlanta", "state": "GA", "country": "United States"}}, "player": {"id": 1569735, "gamerTag": "dougie2doinks", "prefix": "SCS", "user": {"location": {"city": "Atlanta", "state": "GA", "country": "United States"}}}}]}, "standing": null}], "games": null}, {"id": "preview_2961878_1_9", "state": 1, "round": 1, "fullRoundText": "Winners Round 1", "completedAt": null, "winnerId": null, "slots": [{"id": "preview_2961878_1_9-0", "entrant": {"id": 20747447, "name": "blaise", "participants": [{"id": 19093174, "gamerTag": "blaise", "prefix": "", "user": {"location": {"city": "douglasville", "state": "GA", "country": "United States"}}, "player": {"id": 1326121, "gamerTag": "blaise", "prefix": "", "user": {"location": {"city": "douglasville", "state": "GA", "country": "United States"}}}}]}, "standing": null}, {"id": "preview_2961878_1_9-1", "entrant": {"id": 20748675, "name": "STEEZY", "participants": [{"id": 19094244, "gamerTag": "STEEZY", "prefix": null, "user": {"location": {"city": "HELL", "state": "GA", "country": "United States"}}, "player": {"id": 2496238, "gamerTag": "STEEZY", "prefix": null, "user": {"location": {"city": "HELL", "state": "GA", "country": "United States"}}}}]}, "standing": null}], "games": null}, {"id": "preview_2961878_1_13", "state": 1, "round": 1, "fullRoundText": "Winners Round 1", "completedAt": null, "winnerId": null, "slots": [{"id": "preview_2961878_1_13-0", "entrant": {"id": 20747843, "name": "diremaykr", "participants": [{"id": 19093468, "gamerTag": "diremaykr", "prefix": null, "user": {"location": {"city": "Buford", "state": "GA", "country": "United States"}}, "player": {"id": 3207366, "gamerTag": "diremaykr", "prefix": "", "user": {"location": {"city": "Buford", "state": "GA", "country": "United States"}}}}]}, "standing": null}, {"id": "preview_2961878_1_13-1", "entrant": {"id": 20747459, "name": "TPS | $CAIT", "participants": [{"id": 19093183, "gamerTag": "$CAIT", "prefix": "TPS", "user": {"location": {"city": "Kennesaw", "state": "GA", "country": "United States"}}, "player": {"id": 3422494, "gamerTag": "$CAITLIN", "prefix": "TPS", "user": {"location": {"city": "Kennesaw", "state": "GA", "country": "United States"}}}}]}, "standing": null}], "games": null}, {"id": "preview_2961878_1_17", "state": 1, "round": 1, "fullRoundText": "Winners Round 1", "completedAt": null, "winnerId": null, "slots": [{"id": "preview_2961878_1_17-0", "entrant": {"id": 20992271, "name": "neqzn", "participants": [{"id": 19310819, "gamerTag": "neqzn", "prefix": "", "user": {"location": {"city": "Clarksville", "state": "TN", "country": "United States"}}, "player": {"id": 1153355, "gamerTag": "neqzn", "prefix": "", "user": {"location": {"city": "Clarksville", "state": "TN", "country": "United States"}}}}]}, "standing": null}, {"id": "preview_2961878_1_17-1", "entrant": {"id": 20962162, "name": "Permafrost", "participants": [{"id": 19155184, "gamerTag": "Permafrost", "prefix": "", "user": {"location": {"city": "Atlanta", "state": "GA", "country": "United States"}}, "player": {"id": 1256898, "gamerTag": "Permafrost", "prefix": "", "user": {"location": {"city": "Atlanta", "state": "GA", "country": "United States"}}}}]}, "standing": null}], "games": null}, {"id": "preview_2961878_1_25", "state": 1, "round": 1, "fullRoundText": "Winners Round 1", "completedAt": null, "winnerId": null, "slots": [{"id": "preview_2961878_1_25-0", "entrant": {"id": 20748589, "name": "Tech Chase | braxton", "participants": [{"id": 19094167, "gamerTag": "braxton", "prefix": "Tech Chase", "user": {"location": {"city": "Atlanta", "state": "GA", "country": "United States"}}, "player": {"id": 1037821, "gamerTag": "braxton", "prefix": "The Hive", "user": {"location": {"city": "Atlanta", "state": "GA", "country": "United States"}}}}]}, "standing": null}, {"id": "preview_2961878_1_25-1", "entrant": {"id": 20747473, "name": "DogLikeThing", "participants": [{"id": 19093195, "gamerTag": "DogLikeThing", "prefix": "", "user": {"location": {"city": "Greenville", "state": "SC", "country": "United States"}}, "player": {"id": 3791525, "gamerTag": "Zeik", "prefix": "", "user": {"location": {"city": "Greenville", "state": "SC", "country": "United States"}}}}]}, "standing": null}], "games": null}, {"id": "preview_2961878_-4_0", "state": 1, "round": -4, "fullRoundText": "Losers Round 1", "completedAt": null, "winnerId": null, "slots": [{"id": "preview_2961878_-4_0-0", "entrant": null, "standing": null}, {"id": "preview_2961878_-4_0-1", "entrant": null, "standing": null}], "games": null}, {"id": "preview_2961878_-4_4", "state": 1, "round": -4, "fullRoundText": "Losers Round 1", "completedAt": null, "winnerId": null, "slots": [{"id": "preview_2961878_-4_4-0", "entrant": null, "standing": null}, {"id": "preview_2961878_-4_4-1", "entrant": null, "standing": null}], "games": null}, {"id": "preview_2961878_-4_6", "state": 1, "round": -4, "fullRoundText": "Losers Round 1", "completedAt": null, "winnerId": null, "slots": [{"id": "preview_2961878_-4_6-0", "entrant": null, "standing": null}, {"id": "preview_2961878_-4_6-1", "entrant": null, "standing": null}], "games": null}, {"id": "preview_2961878_-4_8", "state": 1, "round": -4, "fullRoundText": "Losers Round 1", "completedAt": null, "winnerId": null, "slots": [{"id": "preview_2961878_-4_8-0", "entrant": null, "standing": null}, {"id": "preview_2961878_-4_8-1", "entrant": null, "standing": null}], "games": null}, {"id": "preview_2961878_-4_12", "state": 1, "round": -4, "fullRoundText": "Losers Round 1", "completedAt": null, "winnerId": null, "slots": [{"id": "preview_2961878_-4_12-0", "entrant": null, "standing": null}, {"id": "preview_2961878_-4_12-1", "entrant": null, "standing": null}], "games": null}, {"id": "preview_2961878_2_0", "state": 1, "round": 2, "fullRoundText": "Winners Round 2", "completedAt": null, "winnerId": null, "slots": [{"id": "preview_2961878_2_0-0", "entrant": {"id": 20790584, "name": "Colbol", "participants": [{"id": 19133998, "gamerTag": "Colbol", "prefix": "", "user": {"location": {"city": "Tucker", "state": "GA", "country": "United States"}}, "player": {"id": 1009, "gamerTag": "Colbol", "prefix": "", "user": {"location": {"city": "Tucker", "state": "GA", "country": "United States"}}}}]}, "standing": null}, {"id": "preview_2961878_2_0-1", "entrant": null, "standing": null}], "games": null}, {"id": "preview_2961878_2_1", "state": 1, "round": 2, "fullRoundText": "Winners Round 2", "completedAt": null, "winnerId": null, "slots": [{"id": "preview_2961878_2_1-0", "entrant": {"id": 20750132, "name": "bc", "participants": [{"id": 19095675, "gamerTag": "bc", "prefix": "", "user": {"location": {"city": "Madison", "state": "AL", "country": "United States"}}, "player": {"id": 677962, "gamerTag": "bc", "prefix": "", "user": {"location": {"city": "Madison", "state": "AL", "country": "United States"}}}}]}, "standing": null}, {"id": "preview_2961878_2_1-1", "entrant": {"id": 20745487, "name": "Supersponge", "participants": [{"id": 19091195, "gamerTag": "Supersponge", "prefix": "", "user": {"location": {"city": "Greenville", "state": "SC", "country": "United States"}}, "player": {"id": 11208, "gamerTag": "Supersponge", "prefix": "", "user": {"location": {"city": "Greenville", "state": "SC", "country": "United States"}}}}]}, "standing": null}], "games": null}, {"id": "preview_2961878_2_2", "state": 1, "round": 2, "fullRoundText": "Winners Round 2", "completedAt": null, "winnerId": null, "slots": [{"id": "preview_2961878_2_2-0", "entrant": {"id": 20944904, "name": "Napkino", "participants": [{"id": 19270070, "gamerTag": "Napkino", "prefix": "", "user": {"location": {"city": "", "state": "GA", "country": "United States"}}, "player": {"id": 1862124, "gamerTag": "Napkino", "prefix": "", "user": {"location": {"city": "", "state": "GA", "country": "United States"}}}}]}, "standing": null}, {"id": "preview_2961878_2_2-1", "entrant": {"id": 20978577, "name": "C$", "participants": [{"id": 19283630, "gamerTag": "C$", "prefix": "", "user": {"location": {"city": "Stone mountain", "state": "GA", "country": "United States"}}, "player": {"id": 1532681, "gamerTag": "C$", "prefix": "", "user": {"location": {"city": "Stone mountain", "state": "GA", "country": "United States"}}}}]}, "standing": null}], "games": null}, {"id": "preview_2961878_2_3", "state": 1, "round": 2, "fullRoundText": "Winners Round 2", "completedAt": null, "winnerId": null, "slots": [{"id": "preview_2961878_2_3-0", "entrant": {"id": 20744847, "name": "skyguy | bag", "participants": [{"id": 19090577, "gamerTag": "bag", "prefix": "skyguy", "user": {"location": {"city": "Atlanta", "state": "GA", "country": "United States"}}, "player": {"id": 271346, "gamerTag": "bag", "prefix": "skyguy", "user": {"location": {"city": "Atlanta", "state": "GA", "country": "United States"}}}}]}, "standing": null}, {"id": "preview_2961878_2_3-1", "entrant": {"id": 20753298, "name": "tomguy", "participants": [{"id": 19098816, "gamerTag": "tomguy", "prefix": "", "user": {"location": {"city": "Atlanta", "state": "GA", "country": "United States"}}, "player": {"id": 147458, "gamerTag": "tomguy", "prefix": "", "user": {"location": {"city": "Atlanta", "state": "GA", "country": "United States"}}}}]}, "standing": null}], "games": null}, {"id": "preview_2961878_2_4", "state": 1, "round": 2, "fullRoundText": "Winners Round 2", "completedAt": null, "winnerId": null, "slots": [{"id": "preview_2961878_2_4-0", "entrant": {"id": 20744702, "name": "vivesthesia", "participants": [{"id": 19090443, "gamerTag": "vivesthesia", "prefix": null, "user": {"location": {"city": "Atlanta", "state": "GA", "country": "United States"}}, "player": {"id": 4395171, "gamerTag": "vivesthesia", "prefix": null, "user": {"location": {"city": "Atlanta", "state": "GA", "country": "United States"}}}}]}, "standing": null}, {"id": "preview_2961878_2_4-1", "entrant": null, "standing": null}], "games": null}]}}}