{"event": {"sets": {"pageInfo": {"totalPages": 3, "total": 33}, "nodes": [{"id": 92740431, "state": 3, "round": 2, "fullRoundText": "Winners Round 2", "completedAt": 1755372225, "winnerId": 20939325, "slots": [{"id": "92740431-0", "entrant": {"id": 20939325, "name": "Toph The Goat", "participants": [{"id": 19265096, "gamerTag": "Toph The Goat", "prefix": null, "user": {"location": {"city": "Anderson", "state": "SC", "country": "United States"}}, "player": {"id": 3462084, "gamerTag": "Toph The Goat", "prefix": null, "user": {"location": {"city": "Anderson", "state": "SC", "country": "United States"}}}}]}, "standing": {"placement": 1, "stats": {"score": {"value": 3}}}}, {"id": "92740431-1", "entrant": {"id": 20942559, "name": "Discount_Akuma", "participants": [{"id": 19268034, "gamerTag": "Discount_Akuma", "prefix": null, "user": {"location": {"city": null, "state": "GA", "country": "United States"}}, "player": {"id": 4222724, "gamerTag": "Discount_Akuma", "prefix": null, "user": {"location": {"city": null, "state": "GA", "country": "United States"}}}}]}, "standing": {"placement": 2, "stats": {"score": {"value": 0}}}}], "games": null}, {"id": 92740481, "state": 3, "round": -4, "fullRoundText": "Losers Round 1", "completedAt": 1755373220, "winnerId": 20942559, "slots": [{"id": "92740481-0", "entrant": {"id": 20942559, "name": "Discount_Akuma", "participants": [{"id": 19268034, "gamerTag": "Discount_Akuma", "prefix": null, "user": {"location": {"city": null, "state": "GA", "country": "United States"}}, "player": {"id": 4222724, "gamerTag": "Discount_Akuma", "prefix": null, "user": {"location": {"city": null, "state": "GA", "country": "United States"}}}}]}, "standing": {"placement": 1, "stats": {"score": {"value": 3}}}}, {"id": "92740481-1", "entrant": {"id": 20986542, "name": "YoshiAteMyPizza", "participants": [{"id": 19305915, "gamerTag": "YoshiAteMyPizza", "prefix": "", "user": {"location": {"city": "Norcross", "state": "GA", "country": "United States"}}, "player": {"id": 2364649, "gamerTag": "YoshiAteMyPizza", "prefix": "", "user": {"location": {"city": "Norcross", "state": "GA", "country": "United States"}}}}]}, "standing": {"placement": 2, "stats": {"score": {"value": 1}}}}], "games": null}, {"id": 92740409, "state": 3, "round": 1, "fullRoundText": "Winners Round 1", "completedAt": 1755372154, "winnerId": 20987988, "slots": [{"id": "92740409-0", "entrant": {"id": 20987988, "name": "ToBeFrank | FF | SLAYlor Moon", "participants": [{"id": 19307159, "gamerTag": "SLAYlor Moon", "prefix": "ToBeFrank | FF", "user": {"location": {"city": "Atlanta", "state": "GA", "country": "United States"}}, "player": {"id": 267007, "gamerTag": "SLAYlor Moon", "prefix": "ToBeFrank | FF", "user": {"location": {"city": "Atlanta", "state": "GA", "country": "United States"}}}}]}, "standing": {"placement": 1, "stats": {"score": {"value": 3}}}}, {"id": "92740409-1", "entrant": {"id": 20986542, "name": "YoshiAteMyPizza", "participants": [{"id": 19305915, "gamerTag": "YoshiAteMyPizza", "prefix": "", "user": {"location": {"city": "Norcross", "state": "GA", "country": "United States"}}, "player": {"id": 2364649, "gamerTag": "YoshiAteMyPizza", "prefix": "", "user": {"location": {"city": "Norcross", "state": "GA", "country": "United States"}}}}]}, "standing": {"placement": 2, "stats": {"score": {"value": 0}}}}], "games": null}]}}}