{"event": {"sets": {"pageInfo": {"totalPages": 1, "total": 4}, "nodes": [{"id": 94542513, "state": 3, "round": 3, "fullRoundText": "Final", "completedAt": 1759360943, "winnerId": 21437798, "slots": [{"id": "94542513-0", "entrant": {"id": 21437798, "name": "The Simpsons | Ryu from Streets", "participants": [{"id": 19703337, "gamerTag": "Ryu from Streets", "prefix": "The Simpsons", "user": {"location": {"city": null, "state": null, "country": null}}, "player": {"id": 2348605, "gamerTag": "Ryu from Streets", "prefix": "GUMP2", "user": {"location": {"city": null, "state": null, "country": null}}}}]}, "standing": {"placement": 1, "stats": {"score": {"value": 2}}}}, {"id": "94542513-1", "entrant": {"id": 21436834, "name": "Boo", "participants": [{"id": 19702463, "gamerTag": "Boo", "prefix": "", "user": {"location": {"city": "Cumming", "state": "GA", "country": "United States"}}, "player": {"id": 2647915, "gamerTag": "Boo", "prefix": "", "user": {"location": {"city": "Cumming", "state": "GA", "country": "United States"}}}}]}, "standing": {"placement": 2, "stats": {"score": {"value": 0}}}}], "games": null}, {"id": 94542511, "state": 3, "round": 2, "fullRoundText": "Semi-Final", "completedAt": 1759359987, "winnerId": 21437798, "slots": [{"id": "94542511-0", "entrant": {"id": 21437798, "name": "The Simpsons | Ryu from Streets", "participants": [{"id": 19703337, "gamerTag": "Ryu from Streets", "prefix": "The Simpsons", "user": {"location": {"city": null, "state": null, "country": null}}, "player": {"id": 2348605, "gamerTag": "Ryu from Streets", "prefix": "GUMP2", "user": {"location": {"city": null, "state": null, "country": null}}}}]}, "standing": {"placement": 1, "stats": {"score": {"value": 2}}}}, {"id": "94542511-1", "entrant": {"id": 21434990, "name": "KSU | Subzero", "participants": [{"id": 19700932, "gamerTag": "Subzero", "prefix": "KSU", "user": {"location": {"city": "Acworth", "state": "GA", "country": "United States"}}, "player": {"id": 1808159, "gamerTag": "Subzero", "prefix": "KSU", "user": {"location": {"city": "Acworth", "state": "GA", "country": "United States"}}}}]}, "standing": {"placement": 2, "stats": {"score": {"value": 0}}}}], "games": null}, {"id": 94542512, "state": 3, "round": 2, "fullRoundText": "Semi-Final", "completedAt": 1759359416, "winnerId": 21436834, "slots": [{"id": "94542512-0", "entrant": {"id": 21435584, "name": "Rain~", "participants": [{"id": 19701397, "gamerTag": "Rain~", "prefix": null, "user": {"location": {"city": "Atlanta", "state": "GA", "country": "United States"}}, "player": {"id": 4240164, "gamerTag": "Rain~", "prefix": null, "user": {"location": {"city": "Atlanta", "state": "GA", "country": "United States"}}}}]}, "standing": {"placement": 2, "stats": {"score": {"value": 0}}}}, {"id": "94542512-1", "entrant": {"id": 21436834, "name": "Boo", "participants": [{"id": 19702463, "gamerTag": "Boo", "prefix": "", "user": {"location": {"city": "Cumming", "state": "GA", "country": "United States"}}, "player": {"id": 2647915, "gamerTag": "Boo", "prefix": "", "user": {"location": {"city": "Cumming", "state": "GA", "country": "United States"}}}}]}, "standing": {"placement": 1, "stats": {"score": {"value": 2}}}}], "games": null}, {"id": 94542508, "state": 3, "round": 1, "fullRoundText": "Quarter-Final", "completedAt": 1759359003, "winnerId": 21434990, "slots": [{"id": "94542508-0", "entrant": {"id": 21434990, "name": "KSU | Subzero", "participants": [{"id": 19700932, "gamerTag": "Subzero", "prefix": "KSU", "user": {"location": {"city": "Acworth", "state": "GA", "country": "United States"}}, "player": {"id": 1808159, "gamerTag": "Subzero", "prefix": "KSU", "user": {"location": {"city": "Acworth", "state": "GA", "country": "United States"}}}}]}, "standing": {"placement": 1, "stats": {"score": {"value": 2}}}}, {"id": "94542508-1", "entrant": {"id": 21436741, "name": "Zarek", "participants": [{"id": 19702380, "gamerTag": "Zarek", "prefix": "", "user": {"location": {"city": "Atlanta", "state": "GA", "country": "United States"}}, "player": {"id": 405682, "gamerTag": "Zarek", "prefix": "", "user": {"location": {"city": "Atlanta", "state": "GA", "country": "United States"}}}}]}, "standing": {"placement": 2, "stats": {"score": {"value": 1}}}}], "games": null}]}}}