{"event": {"sets": {"pageInfo": {"totalPages": 3, "total": 45}, "nodes": [{"id": 94732215, "state": 3, "round": 3, "fullRoundText": "Grand Final", "completedAt": 1759722904, "winnerId": 21474243, "slots": [{"id": "94732215-0", "entrant": {"id": 21474979, "name": "TFT | Terry Labonte", "participants": [{"id": 19684387, "gamerTag": "Terry Labonte", "prefix": "TFT", "user": {"location": {"city": "Doraville", "state": "GA", "country": "United States"}}, "player": {"id": 1227401, "gamerTag": "Terry Labonte", "prefix": "TFT", "user": {"location": {"city": "Doraville", "state": "GA", "country": "United States"}}}}]}, "standing": {"placement": 2, "stats": {"score": {"value": 0}}}}, {"id": "94732215-1", "entrant": {"id": 21474243, "name": "4o4 | chooryu :)", "participants": [{"id": 19734403, "gamerTag": "chooryu :)", "prefix": "4o4", "user": {"location": {"city": "Kennesaw", "state": "GA", "country": "United States"}}, "player": {"id": 466564, "gamerTag": "chooryu :)", "prefix": "4o4", "user": {"location": {"city": "Kennesaw", "state": "GA", "country": "United States"}}}}]}, "standing": {"placement": 1, "stats": {"score": {"value": 3}}}}], "games": null}, {"id": 94732216, "state": 3, "round": 3, "fullRoundText": "Grand Final Reset", "completedAt": 1759724656, "winnerId": 21474243, "slots": [{"id": "94732216-0", "entrant": {"id": 21474243, "name": "4o4 | chooryu :)", "participants": [{"id": 19734403, "gamerTag": "chooryu :)", "prefix": "4o4", "user": {"location": {"city": "Kennesaw", "state": "GA", "country": "United States"}}, "player": {"id": 466564, "gamerTag": "chooryu :)", "prefix": "4o4", "user": {"location": {"city": "Kennesaw", "state": "GA", "country": "United States"}}}}]}, "standing": {"placement": 1, "stats": {"score": {"value": 3}}}}, {"id": "94732216-1", "entrant": {"id": 21474979, "name": "TFT | Terry Labonte", "participants": [{"id": 19684387, "gamerTag": "Terry Labonte", "prefix": "TFT", "user": {"location": {"city": "Doraville", "state": "GA", "country": "United States"}}, "player": {"id": 1227401, "gamerTag": "Terry Labonte", "prefix": "TFT", "user": {"location": {"city": "Doraville", "state": "GA", "country": "United States"}}}}]}, "standing": {"placement": 2, "stats": {"score": {"value": 2}}}}], "games": null}, {"id": 94731141, "state": 3, "round": 3, "fullRoundText": "Winners Semi-Final", "completedAt": 1759715200, "winnerId": 21474652, "slots": [{"id": "94731141-0", "entrant": {"id": 21416452, "name": "TFT | Ricky Rudd", "participants": [{"id": 19685046, "gamerTag": "Ricky Rudd", "prefix": "TFT", "user": {"location": {"city": "Atlanta", "state": "GA", "country": "United States"}}, "player": {"id": 1751817, "gamerTag": "Ricky Rudd", "prefix": "TFT", "user": {"location": {"city": "Atlanta", "state": "GA", "country": "United States"}}}}]}, "standing": {"placement": 2, "stats": {"score": {"value": 0}}}}, {"id": "94731141-1", "entrant": {"id": 21474652, "name": "TFT | RoKu", "participants": [{"id": 19734800, "gamerTag": "RoKu", "prefix": "TFT", "user": {"location": {"city": "Peachtree Corners", "state": "GA", "country": "United States"}}, "player": {"id": 1107285, "gamerTag": "RoKu", "prefix": "TFT", "user": {"location": {"city": "Peachtree Corners", "state": "GA", "country": "United States"}}}}]}, "standing": {"placement": 1, "stats": {"score": {"value": 2}}}}], "games": null}, {"id": 94731094, "state": 3, "round": 3, "fullRoundText": "Winners Semi-Final", "completedAt": 1759716638, "winnerId": 21474787, "slots": [{"id": "94731094-0", "entrant": {"id": 21474764, "name": "millano", "participants": [{"id": 19734911, "gamerTag": "millano", "prefix": "", "user": null, "player": {"id": 4214682, "gamerTag": "millano", "prefix": "", "user": null}}]}, "standing": {"placement": 2, "stats": {"score": {"value": 0}}}}, {"id": "94731094-1", "entrant": {"id": 21474787, "name": "RM | WFF | Sakruoi", "participants": [{"id": 19734935, "gamerTag": "Sakruoi", "prefix": "RM | WFF", "user": {"location": {"city": "atlanta", "state": "GA", "country": "United States"}}, "player": {"id": 1230555, "gamerTag": "Sakruoi", "prefix": "RM | WFF", "user": {"location": {"city": "atlanta", "state": "GA", "country": "United States"}}}}]}, "standing": {"placement": 1, "stats": {"score": {"value": 2}}}}], "games": null}, {"id": 94731142, "state": 3, "round": 3, "fullRoundText": "Winners Semi-Final", "completedAt": 1759716284, "winnerId": 21474979, "slots": [{"id": "94731142-0", "entrant": {"id": 21474392, "name": "TnT | Sid", "participants": [{"id": 19734536, "gamerTag": "Sid", "prefix": "TnT", "user": {"location": {"city": "Powder Springs", "state": "GA", "country": "United States"}}, "player": {"id": 1229067, "gamerTag": "Sid", "prefix": "TnT", "user": {"location": {"city": "Powder Springs", "state": "GA", "country": "United States"}}}}]}, "standing": {"placement": 2, "stats": {"score": {"value": 1}}}}, {"id": "94731142-1", "entrant": {"id": 21474979, "name": "TFT | Terry Labonte", "participants": [{"id": 19684387, "gamerTag": "Terry Labonte", "prefix": "TFT", "user": {"location": {"city": "Doraville", "state": "GA", "country": "United States"}}, "player": {"id": 1227401, "gamerTag": "Terry Labonte", "prefix": "TFT", "user": {"location": {"city": "Doraville", "state": "GA", "country": "United States"}}}}]}, "standing": {"placement": 1, "stats": {"score": {"value": 2}}}}], "games": null}, {"id": 94731095, "state": 3, "round": 3, "fullRoundText": "Winners Semi-Final", "completedAt": 1759718079, "winnerId": 21474683, "slots": [{"id": "94731095-0", "entrant": {"id": 21474683, "name": "Yummy", "participants": [{"id": 19734823, "gamerTag": "Yummy", "prefix": "", "user": {"location": {"city": "Atlanta", "state": "GA", "country": "United States"}}, "player": {"id": 1743866, "gamerTag": "Yummy", "prefix": "", "user": {"location": {"city": "Atlanta", "state": "GA", "country": "United States"}}}}]}, "standing": {"placement": 1, "stats": {"score": {"value": 2}}}}, {"id": "94731095-1", "entrant": {"id": 21474783, "name": "WeFarmFrank | Planet Of Da", "participants": [{"id": 19734930, "gamerTag": "Planet Of Da", "prefix": "WeFarmFrank", "user": {"location": {"city": "Atlanta", "state": "GA", "country": "United States"}}, "player": {"id": 1810274, "gamerTag": "Planet Of Da", "prefix": "WeFarmFrank", "user": {"location": {"city": "Atlanta", "state": "GA", "country": "United States"}}}}]}, "standing": {"placement": 2, "stats": {"score": {"value": 1}}}}], "games": null}, {"id": 94731172, "state": 3, "round": -6, "fullRoundText": "Losers Quarter-Final", "completedAt": 1759717193, "winnerId": 21416452, "slots": [{"id": "94731172-0", "entrant": {"id": 21416452, "name": "TFT | Ricky Rudd", "participants": [{"id": 19685046, "gamerTag": "Ricky Rudd", "prefix": "TFT", "user": {"location": {"city": "Atlanta", "state": "GA", "country": "United States"}}, "player": {"id": 1751817, "gamerTag": "Ricky Rudd", "prefix": "TFT", "user": {"location": {"city": "Atlanta", "state": "GA", "country": "United States"}}}}]}, "standing": {"placement": 1, "stats": {"score": {"value": 2}}}}, {"id": "94731172-1", "entrant": {"id": 21474747, "name": "RM | lawl", "participants": [{"id": 19734895, "gamerTag": "lawl", "prefix": "RM", "user": {"location": {"city": "Dacula", "state": "GA", "country": "United States"}}, "player": {"id": 2116990, "gamerTag": "lawl", "prefix": "RM", "user": {"location": {"city": "Dacula", "state": "GA", "country": "United States"}}}}]}, "standing": {"placement": 2, "stats": {"score": {"value": 0}}}}], "games": [{"id": 33107516, "orderNum": 1, "winnerId": 21416452, "entrant1Score": 0, "entrant2Score": 0, "stage": null, "selections": [{"id": 48868875, "selectionType": "CHARACTER", "selectionValue": 1311, "entrant": {"id": 21416452}, "character": {"id": 1311, "name": "Mii Brawler"}}, {"id": 48868876, "selectionType": "CHARACTER", "selectionValue": 1311, "entrant": {"id": 21474747}, "character": {"id": 1311, "name": "Mii Brawler"}}]}, {"id": 33107517, "orderNum": 2, "winnerId": 21416452, "entrant1Score": null, "entrant2Score": 0, "stage": null, "selections": [{"id": 48868877, "selectionType": "CHARACTER", "selectionValue": 1311, "entrant": {"id": 21416452}, "character": {"id": 1311, "name": "Mii Brawler"}}, {"id": 48868878, "selectionType": "CHARACTER", "selectionValue": 1311, "entrant": {"id": 21474747}, "character": {"id": 1311, "name": "Mii Brawler"}}]}]}, {"id": 94731173, "state": 3, "round": -6, "fullRoundText": "Losers Quarter-Final", "completedAt": 1759717514, "winnerId": 21474243, "slots": [{"id": "94731173-0", "entrant": {"id": 21474392, "name": "TnT | Sid", "participants": [{"id": 19734536, "gamerTag": "Sid", "prefix": "TnT", "user": {"location": {"city": "Powder Springs", "state": "GA", "country": "United States"}}, "player": {"id": 1229067, "gamerTag": "Sid", "prefix": "TnT", "user": {"location": {"city": "Powder Springs", "state": "GA", "country": "United States"}}}}]}, "standing": {"placement": 2, "stats": {"score": {"value": 1}}}}, {"id": "94731173-1", "entrant": {"id": 21474243, "name": "4o4 | chooryu :)", "participants": [{"id": 19734403, "gamerTag": "chooryu :)", "prefix": "4o4", "user": {"location": {"city": "Kennesaw", "state": "GA", "country": "United States"}}, "player": {"id": 466564, "gamerTag": "chooryu :)", "prefix": "4o4", "user": {"location": {"city": "Kennesaw", "state": "GA", "country": "United States"}}}}]}, "standing": {"placement": 1, "stats": {"score": {"value": 2}}}}], "games": null}, {"id": 94731125, "state": 3, "round": -6, "fullRoundText": "Losers Quarter-Final", "completedAt": 1759718290, "winnerId": 21474744, "slots": [{"id": "94731125-0", "entrant": {"id": 21474764, "name": "millano", "participants": [{"id": 19734911, "gamerTag": "millano", "prefix": "", "user": null, "player": {"id": 4214682, "gamerTag": "millano", "prefix": "", "user": null}}]}, "standing": {"placement": 2, "stats": {"score": {"value": 0}}}}, {"id": "94731125-1", "entrant": {"id": 21474744, "name": "MTM | Bob Weiner", "participants": [{"id": 19734892, "gamerTag": "Bob Weiner", "prefix": "MTM", "user": {"location": {"city": "Kennesaw", "state": "GA", "country": "United States"}}, "player": {"id": 2142601, "gamerTag": "Bob Weiner", "prefix": "MTM", "user": {"location": {"city": "Kennesaw", "state": "GA", "country": "United States"}}}}]}, "standing": {"placement": 1, "stats": {"score": {"value": 2}}}}], "games": null}, {"id": 94731126, "state": 3, "round": -6, "fullRoundText": "Losers Quarter-Final", "completedAt": 1759717017, "winnerId": 21474689, "slots": [{"id": "94731126-0", "entrant": {"id": 21474783, "name": "WeFarmFrank | Planet Of Da", "participants": [{"id": 19734930, "gamerTag": "Planet Of Da", "prefix": "WeFarmFrank", "user": {"location": {"city": "Atlanta", "state": "GA", "country": "United States"}}, "player": {"id": 1810274, "gamerTag": "Planet Of Da", "prefix": "WeFarmFrank", "user": {"location": {"city": "Atlanta", "state": "GA", "country": "United States"}}}}]}, "standing": {"placement": 2, "stats": {"score": {"value": 1}}}}, {"id": "94731126-1", "entrant": {"id": 21474689, "name": "uM | Jenesis", "participants": [{"id": 19734830, "gamerTag": "Jenesis", "prefix": "uM", "user": {"location": {"city": "Marietta", "state": "GA", "country": "United States"}}, "player": {"id": 36629, "gamerTag": "Jenesis", "prefix": "uM", "user": {"location": {"city": "Marietta", "state": "GA", "country": "United States"}}}}]}, "standing": {"placement": 1, "stats": {"score": {"value": 2}}}}], "games": null}, {"id": 94731170, "state": 3, "round": -5, "fullRoundText": "Losers Round 2", "completedAt": 1759716273, "winnerId": 21474747, "slots": [{"id": "94731170-0", "entrant": {"id": 21474702, "name": "Mickeydeez", "participants": [{"id": 19734850, "gamerTag": "Mickeydeez", "prefix": "", "user": {"location": {"city": "Atlanta", "state": "GA", "country": "United States"}}, "player": {"id": 4825580, "gamerTag": "Mickeydeez", "prefix": "", "user": {"location": {"city": "Atlanta", "state": "GA", "country": "United States"}}}}]}, "standing": {"placement": 2, "stats": {"score": {"value": 1}}}}, {"id": "94731170-1", "entrant": {"id": 21474747, "name": "RM | lawl", "participants": [{"id": 19734895, "gamerTag": "lawl", "prefix": "RM", "user": {"location": {"city": "Dacula", "state": "GA", "country": "United States"}}, "player": {"id": 2116990, "gamerTag": "lawl", "prefix": "RM", "user": {"location": {"city": "Dacula", "state": "GA", "country": "United States"}}}}]}, "standing": {"placement": 1, "stats": {"score": {"value": 2}}}}], "games": null}, {"id": 94731171, "state": 3, "round": -5, "fullRoundText": "Losers Round 2", "completedAt": 1759716770, "winnerId": 21474243, "slots": [{"id": "94731171-0", "entrant": {"id": 21474629, "name": "TFT | BigCheese", "participants": [{"id": 19734784, "gamerTag": "BigCheese", "prefix": "TFT", "user": {"location": {"city": null, "state": null, "country": null}}, "player": {"id": 3991446, "gamerTag": "BigCheese", "prefix": "TFT", "user": {"location": {"city": null, "state": null, "country": null}}}}]}, "standing": {"placement": 2, "stats": {"score": {"value": 0}}}}, {"id": "94731171-1", "entrant": {"id": 21474243, "name": "4o4 | chooryu :)", "participants": [{"id": 19734403, "gamerTag": "chooryu :)", "prefix": "4o4", "user": {"location": {"city": "Kennesaw", "state": "GA", "country": "United States"}}, "player": {"id": 466564, "gamerTag": "chooryu :)", "prefix": "4o4", "user": {"location": {"city": "Kennesaw", "state": "GA", "country": "United States"}}}}]}, "standing": {"placement": 1, "stats": {"score": {"value": 2}}}}], "games": null}, {"id": 94731123, "state": 3, "round": -5, "fullRoundText": "Losers Round 2", "completedAt": 1759716064, "winnerId": 21474744, "slots": [{"id": "94731123-0", "entrant": {"id": 21473853, "name": "Jdaddy", "participants": [{"id": 19734062, "gamerTag": "Jdaddy", "prefix": null, "user": {"location": {"city": "Atlanta", "state": "GA", "country": "United States"}}, "player": {"id": 4384721, "gamerTag": "Jdaddy", "prefix": null, "user": {"location": {"city": "Atlanta", "state": "GA", "country": "United States"}}}}]}, "standing": {"placement": 2, "stats": {"score": {"value": 0}}}}, {"id": "94731123-1", "entrant": {"id": 21474744, "name": "MTM | Bob Weiner", "participants": [{"id": 19734892, "gamerTag": "Bob Weiner", "prefix": "MTM", "user": {"location": {"city": "Kennesaw", "state": "GA", "country": "United States"}}, "player": {"id": 2142601, "gamerTag": "Bob Weiner", "prefix": "MTM", "user": {"location": {"city": "Kennesaw", "state": "GA", "country": "United States"}}}}]}, "standing": {"placement": 1, "stats": {"score": {"value": 2}}}}], "games": null}, {"id": 94731124, "state": 3, "round": -5, "fullRoundText": "Losers Round 2", "completedAt": 1759716552, "winnerId": 21474689, "slots": [{"id": "94731124-0", "entrant": {"id": 21473395, "name": "Heart", "participants": [{"id": 19733632, "gamerTag": "Heart", "prefix": "", "user": {"location": {"city": "Atlanta", "state": "GA", "country": "United States"}}, "player": {"id": 4287822, "gamerTag": "Heart", "prefix": "", "user": {"location": {"city": "Atlanta", "state": "GA", "country": "United States"}}}}]}, "standing": {"placement": 2, "stats": {"score": {"value": 0}}}}, {"id": "94731124-1", "entrant": {"id": 21474689, "name": "uM | Jenesis", "participants": [{"id": 19734830, "gamerTag": "Jenesis", "prefix": "uM", "user": {"location": {"city": "Marietta", "state": "GA", "country": "United States"}}, "player": {"id": 36629, "gamerTag": "Jenesis", "prefix": "uM", "user": {"location": {"city": "Marietta", "state": "GA", "country": "United States"}}}}]}, "standing": {"placement": 1, "stats": {"score": {"value": 2}}}}], "games": null}, {"id": 94732214, "state": 3, "round": 2, "fullRoundText": "Winners Final", "completedAt": 1759719445, "winnerId": 21474979, "slots": [{"id": "94732214-0", "entrant": {"id": 21474979, "name": "TFT | Terry Labonte", "participants": [{"id": 19684387, "gamerTag": "Terry Labonte", "prefix": "TFT", "user": {"location": {"city": "Doraville", "state": "GA", "country": "United States"}}, "player": {"id": 1227401, "gamerTag": "Terry Labonte", "prefix": "TFT", "user": {"location": {"city": "Doraville", "state": "GA", "country": "United States"}}}}]}, "standing": {"placement": 1, "stats": {"score": {"value": 3}}}}, {"id": "94732214-1", "entrant": {"id": 21474683, "name": "Yummy", "participants": [{"id": 19734823, "gamerTag": "Yummy", "prefix": "", "user": {"location": {"city": "Atlanta", "state": "GA", "country": "United States"}}, "player": {"id": 1743866, "gamerTag": "Yummy", "prefix": "", "user": {"location": {"city": "Atlanta", "state": "GA", "country": "United States"}}}}]}, "standing": {"placement": 2, "stats": {"score": {"value": 2}}}}], "games": null}]}}}