{"event": {"sets": {"pageInfo": {"totalPages": 1, "total": 12}, "nodes": [{"id": 93024037, "state": 3, "round": 4, "fullRoundText": "Grand Final", "completedAt": 1756004367, "winnerId": 21045848, "slots": [{"id": "93024037-0", "entrant": {"id": 21045848, "name": "DBQ | Kami", "participants": [{"id": 19359943, "gamerTag": "Kami", "prefix": "DBQ", "user": {"location": {"city": "Fayetteville", "state": "GA", "country": "United States"}}, "player": {"id": 1183115, "gamerTag": "Kami", "prefix": "DBQ", "user": {"location": {"city": "Fayetteville", "state": "GA", "country": "United States"}}}}]}, "standing": {"placement": 1, "stats": {"score": {"value": 3}}}}, {"id": "93024037-1", "entrant": {"id": 21053140, "name": "ZB | Juniper", "participants": [{"id": 19309042, "gamerTag": "Juniper", "prefix": "ZB", "user": {"location": {"city": "Morrow", "state": "GA", "country": "United States"}}, "player": {"id": 46895, "gamerTag": "Juniper", "prefix": "ZB", "user": {"location": {"city": "Morrow", "state": "GA", "country": "United States"}}}}]}, "standing": {"placement": 2, "stats": {"score": {"value": 2}}}}], "games": null}, {"id": 93024036, "state": 3, "round": 3, "fullRoundText": "Winners Final", "completedAt": 1755998269, "winnerId": 21045848, "slots": [{"id": "93024036-0", "entrant": {"id": 21045848, "name": "DBQ | Kami", "participants": [{"id": 19359943, "gamerTag": "Kami", "prefix": "DBQ", "user": {"location": {"city": "Fayetteville", "state": "GA", "country": "United States"}}, "player": {"id": 1183115, "gamerTag": "Kami", "prefix": "DBQ", "user": {"location": {"city": "Fayetteville", "state": "GA", "country": "United States"}}}}]}, "standing": {"placement": 1, "stats": {"score": {"value": 3}}}}, {"id": "93024036-1", "entrant": {"id": 21055288, "name": "GG | VaR", "participants": [{"id": 19368193, "gamerTag": "VaR", "prefix": "GG", "user": {"location": {"city": "Atlanta", "state": "GA", "country": "United States"}}, "player": {"id": 329546, "gamerTag": "VaR", "prefix": "GG", "user": {"location": {"city": "Atlanta", "state": "GA", "country": "United States"}}}}]}, "standing": {"placement": 2, "stats": {"score": {"value": 2}}}}], "games": null}, {"id": 93024052, "state": 3, "round": -6, "fullRoundText": "Losers Final", "completedAt": 1756000293, "winnerId": 21053140, "slots": [{"id": "93024052-0", "entrant": {"id": 21055288, "name": "GG | VaR", "participants": [{"id": 19368193, "gamerTag": "VaR", "prefix": "GG", "user": {"location": {"city": "Atlanta", "state": "GA", "country": "United States"}}, "player": {"id": 329546, "gamerTag": "VaR", "prefix": "GG", "user": {"location": {"city": "Atlanta", "state": "GA", "country": "United States"}}}}]}, "standing": {"placement": 2, "stats": {"score": {"value": 2}}}}, {"id": "93024052-1", "entrant": {"id": 21053140, "name": "ZB | Juniper", "participants": [{"id": 19309042, "gamerTag": "Juniper", "prefix": "ZB", "user": {"location": {"city": "Morrow", "state": "GA", "country": "United States"}}, "player": {"id": 46895, "gamerTag": "Juniper", "prefix": "ZB", "user": {"location": {"city": "Morrow", "state": "GA", "country": "United States"}}}}]}, "standing": {"placement": 1, "stats": {"score": {"value": 3}}}}], "games": [{"id": 32109730, "orderNum": 1, "winnerId": 21053140, "entrant1Score": 0, "entrant2Score": 0, "stage": null, "selections": [{"id": 47316716, "selectionType": "CHARACTER", "selectionValue": 1316, "entrant": {"id": 21053140}, "character": {"id": 1316, "name": "Palutena"}}, {"id": 47316717, "selectionType": "CHARACTER", "selectionValue": 1321, "entrant": {"id": 21055288}, "character": {"id": 1321, "name": "Pokemon Trainer"}}]}, {"id": 32109731, "orderNum": 2, "winnerId": 21055288, "entrant1Score": null, "entrant2Score": 0, "stage": null, "selections": [{"id": 47316718, "selectionType": "CHARACTER", "selectionValue": 1316, "entrant": {"id": 21053140}, "character": {"id": 1316, "name": "Palutena"}}, {"id": 47316719, "selectionType": "CHARACTER", "selectionValue": 1321, "entrant": {"id": 21055288}, "character": {"id": 1321, "name": "Pokemon Trainer"}}]}, {"id": 32109732, "orderNum": 3, "winnerId": 21053140, "entrant1Score": 0, "entrant2Score": null, "stage": null, "selections": [{"id": 47316720, "selectionType": "CHARACTER", "selectionValue": 1316, "entrant": {"id": 21053140}, "character": {"id": 1316, "name": "Palutena"}}, {"id": 47316721, "selectionType": "CHARACTER", "selectionValue": 1453, "entrant": {"id": 21055288}, "character": {"id": 1453, "name": "Joker"}}]}, {"id": 32109733, "orderNum": 4, "winnerId": 21055288, "entrant1Score": 0, "entrant2Score": 0, "stage": null, "selections": [{"id": 47316722, "selectionType": "CHARACTER", "selectionValue": 1316, "entrant": {"id": 21053140}, "character": {"id": 1316, "name": "Palutena"}}, {"id": 47316723, "selectionType": "CHARACTER", "selectionValue": 1453, "entrant": {"id": 21055288}, "character": {"id": 1453, "name": "Joker"}}]}, {"id": 32109734, "orderNum": 5, "winnerId": 21053140, "entrant1Score": 0, "entrant2Score": null, "stage": null, "selections": [{"id": 47316724, "selectionType": "CHARACTER", "selectionValue": 1316, "entrant": {"id": 21053140}, "character": {"id": 1316, "name": "Palutena"}}, {"id": 47316725, "selectionType": "CHARACTER", "selectionValue": 1453, "entrant": {"id": 21055288}, "character": {"id": 1453, "name": "Joker"}}]}]}, {"id": 93024051, "state": 3, "round": -5, "fullRoundText": "Losers Semi-Final", "completedAt": 1755999100, "winnerId": 21053140, "slots": [{"id": "93024051-0", "entrant": {"id": 21032581, "name": "LvL? | Yharon", "participants": [{"id": 19347686, "gamerTag": "Yharon", "prefix": "LvL?", "user": {"location": {"city": "Carrollton", "state": "GA", "country": "United States"}}, "player": {"id": 3862975, "gamerTag": "Yharon", "prefix": "LvL?", "user": {"location": {"city": "Carrollton", "state": "GA", "country": "United States"}}}}]}, "standing": {"placement": 2, "stats": {"score": {"value": 0}}}}, {"id": "93024051-1", "entrant": {"id": 21053140, "name": "ZB | Juniper", "participants": [{"id": 19309042, "gamerTag": "Juniper", "prefix": "ZB", "user": {"location": {"city": "Morrow", "state": "GA", "country": "United States"}}, "player": {"id": 46895, "gamerTag": "Juniper", "prefix": "ZB", "user": {"location": {"city": "Morrow", "state": "GA", "country": "United States"}}}}]}, "standing": {"placement": 1, "stats": {"score": {"value": 2}}}}], "games": null}, {"id": 93024034, "state": 3, "round": 2, "fullRoundText": "Winners Semi-Final", "completedAt": 1755997605, "winnerId": 21045848, "slots": [{"id": "93024034-0", "entrant": {"id": 21045848, "name": "DBQ | Kami", "participants": [{"id": 19359943, "gamerTag": "Kami", "prefix": "DBQ", "user": {"location": {"city": "Fayetteville", "state": "GA", "country": "United States"}}, "player": {"id": 1183115, "gamerTag": "Kami", "prefix": "DBQ", "user": {"location": {"city": "Fayetteville", "state": "GA", "country": "United States"}}}}]}, "standing": {"placement": 1, "stats": {"score": {"value": 2}}}}, {"id": "93024034-1", "entrant": {"id": 21053140, "name": "ZB | Juniper", "participants": [{"id": 19309042, "gamerTag": "Juniper", "prefix": "ZB", "user": {"location": {"city": "Morrow", "state": "GA", "country": "United States"}}, "player": {"id": 46895, "gamerTag": "Juniper", "prefix": "ZB", "user": {"location": {"city": "Morrow", "state": "GA", "country": "United States"}}}}]}, "standing": {"placement": 2, "stats": {"score": {"value": 0}}}}], "games": [{"id": 32108028, "orderNum": 1, "winnerId": 21045848, "entrant1Score": null, "entrant2Score": 0, "stage": null, "selections": [{"id": 47313766, "selectionType": "CHARACTER", "selectionValue": 1326, "entrant": {"id": 21045848}, "character": {"id": 1326, "name": "Roy"}}, {"id": 47313767, "selectionType": "CHARACTER", "selectionValue": 1323, "entrant": {"id": 21053140}, "character": {"id": 1323, "name": "R.O.B."}}]}, {"id": 32108029, "orderNum": 2, "winnerId": 21045848, "entrant1Score": null, "entrant2Score": 0, "stage": null, "selections": [{"id": 47313768, "selectionType": "CHARACTER", "selectionValue": 1326, "entrant": {"id": 21045848}, "character": {"id": 1326, "name": "Roy"}}, {"id": 47313769, "selectionType": "CHARACTER", "selectionValue": 1323, "entrant": {"id": 21053140}, "character": {"id": 1323, "name": "R.O.B."}}]}]}, {"id": 93024035, "state": 3, "round": 2, "fullRoundText": "Winners Semi-Final", "completedAt": 1755995912, "winnerId": 21055288, "slots": [{"id": "93024035-0", "entrant": {"id": 21032581, "name": "LvL? | Yharon", "participants": [{"id": 19347686, "gamerTag": "Yharon", "prefix": "LvL?", "user": {"location": {"city": "Carrollton", "state": "GA", "country": "United States"}}, "player": {"id": 3862975, "gamerTag": "Yharon", "prefix": "LvL?", "user": {"location": {"city": "Carrollton", "state": "GA", "country": "United States"}}}}]}, "standing": {"placement": 2, "stats": {"score": {"value": 0}}}}, {"id": "93024035-1", "entrant": {"id": 21055288, "name": "GG | VaR", "participants": [{"id": 19368193, "gamerTag": "VaR", "prefix": "GG", "user": {"location": {"city": "Atlanta", "state": "GA", "country": "United States"}}, "player": {"id": 329546, "gamerTag": "VaR", "prefix": "GG", "user": {"location": {"city": "Atlanta", "state": "GA", "country": "United States"}}}}]}, "standing": {"placement": 1, "stats": {"score": {"value": 2}}}}], "games": [{"id": 32106720, "orderNum": 1, "winnerId": 21055288, "entrant1Score": 0, "entrant2Score": null, "stage": null, "selections": [{"id": 47311582, "selectionType": "CHARACTER", "selectionValue": 1453, "entrant": {"id": 21032581}, "character": {"id": 1453, "name": "Joker"}}, {"id": 47311583, "selectionType": "CHARACTER", "selectionValue": 1329, "entrant": {"id": 21055288}, "character": {"id": 1329, "name": "Sheik"}}]}, {"id": 32106721, "orderNum": 2, "winnerId": 21055288, "entrant1Score": 0, "entrant2Score": null, "stage": null, "selections": [{"id": 47311584, "selectionType": "CHARACTER", "selectionValue": 1453, "entrant": {"id": 21032581}, "character": {"id": 1453, "name": "Joker"}}, {"id": 47311585, "selectionType": "CHARACTER", "selectionValue": 1329, "entrant": {"id": 21055288}, "character": {"id": 1329, "name": "Sheik"}}]}]}, {"id": 93024049, "state": 3, "round": -4, "fullRoundText": "Losers Quarter-Final", "completedAt": 1755996600, "winnerId": 21032581, "slots": [{"id": "93024049-0", "entrant": {"id": 21032581, "name": "LvL? | Yharon", "participants": [{"id": 19347686, "gamerTag": "Yharon", "prefix": "LvL?", "user": {"location": {"city": "Carrollton", "state": "GA", "country": "United States"}}, "player": {"id": 3862975, "gamerTag": "Yharon", "prefix": "LvL?", "user": {"location": {"city": "Carrollton", "state": "GA", "country": "United States"}}}}]}, "standing": {"placement": 1, "stats": {"score": {"value": 2}}}}, {"id": "93024049-1", "entrant": {"id": 21029649, "name": "PL | Shusui", "participants": [{"id": 19344921, "gamerTag": "Shusui", "prefix": "PL", "user": {"location": {"city": "Suwanee", "state": "GA", "country": "United States"}}, "player": {"id": 3465710, "gamerTag": "Shusui", "prefix": "", "user": {"location": {"city": "Suwanee", "state": "GA", "country": "United States"}}}}]}, "standing": {"placement": 2, "stats": {"score": {"value": 0}}}}], "games": [{"id": 32107303, "orderNum": 1, "winnerId": 21032581, "entrant1Score": null, "entrant2Score": 0, "stage": null, "selections": [{"id": 47312533, "selectionType": "CHARACTER", "selectionValue": 1319, "entrant": {"id": 21029649}, "character": {"id": 1319, "name": "Pikachu"}}, {"id": 47312534, "selectionType": "CHARACTER", "selectionValue": 1453, "entrant": {"id": 21032581}, "character": {"id": 1453, "name": "Joker"}}]}, {"id": 32107304, "orderNum": 2, "winnerId": 21032581, "entrant1Score": null, "entrant2Score": 0, "stage": null, "selections": [{"id": 47312535, "selectionType": "CHARACTER", "selectionValue": 1319, "entrant": {"id": 21029649}, "character": {"id": 1319, "name": "Pikachu"}}, {"id": 47312536, "selectionType": "CHARACTER", "selectionValue": 1453, "entrant": {"id": 21032581}, "character": {"id": 1453, "name": "Joker"}}]}]}, {"id": 93024050, "state": 3, "round": -4, "fullRoundText": "Losers Quarter-Final", "completedAt": 1755997642, "winnerId": 21053140, "slots": [{"id": "93024050-0", "entrant": {"id": 21053140, "name": "ZB | Juniper", "participants": [{"id": 19309042, "gamerTag": "Juniper", "prefix": "ZB", "user": {"location": {"city": "Morrow", "state": "GA", "country": "United States"}}, "player": {"id": 46895, "gamerTag": "Juniper", "prefix": "ZB", "user": {"location": {"city": "Morrow", "state": "GA", "country": "United States"}}}}]}, "standing": {"placement": 1, "stats": {"score": {"value": 2}}}}, {"id": "93024050-1", "entrant": {"id": 20987862, "name": "ZB | Sanaito", "participants": [{"id": 19307057, "gamerTag": "Sanaito", "prefix": "ZB", "user": {"location": {"city": "Fayetteville", "state": "GA", "country": "United States"}}, "player": {"id": 12761, "gamerTag": "Sanaito", "prefix": "ZB", "user": {"location": {"city": "Fayetteville", "state": "GA", "country": "United States"}}}}]}, "standing": {"placement": 2, "stats": {"score": {"value": 0}}}}], "games": [{"id": 32108055, "orderNum": 1, "winnerId": 21053140, "entrant1Score": null, "entrant2Score": 0, "stage": null, "selections": [{"id": 47313810, "selectionType": "CHARACTER", "selectionValue": 1279, "entrant": {"id": 20987862}, "character": {"id": 1279, "name": "Diddy Kong"}}, {"id": 47313811, "selectionType": "CHARACTER", "selectionValue": 1286, "entrant": {"id": 21053140}, "character": {"id": 1286, "name": "Fox"}}]}, {"id": 32108056, "orderNum": 2, "winnerId": 21053140, "entrant1Score": null, "entrant2Score": 0, "stage": null, "selections": [{"id": 47313812, "selectionType": "CHARACTER", "selectionValue": 1276, "entrant": {"id": 20987862}, "character": {"id": 1276, "name": "Corrin"}}, {"id": 47313813, "selectionType": "CHARACTER", "selectionValue": 1316, "entrant": {"id": 21053140}, "character": {"id": 1316, "name": "Palutena"}}]}]}, {"id": 93024048, "state": 3, "round": -3, "fullRoundText": "Losers Round 1", "completedAt": 1755995847, "winnerId": 20987862, "slots": [{"id": "93024048-0", "entrant": {"id": 20987862, "name": "ZB | Sanaito", "participants": [{"id": 19307057, "gamerTag": "Sanaito", "prefix": "ZB", "user": {"location": {"city": "Fayetteville", "state": "GA", "country": "United States"}}, "player": {"id": 12761, "gamerTag": "Sanaito", "prefix": "ZB", "user": {"location": {"city": "Fayetteville", "state": "GA", "country": "United States"}}}}]}, "standing": {"placement": 1, "stats": {"score": {"value": 2}}}}, {"id": "93024048-1", "entrant": {"id": 21046642, "name": "PL | Ner\u0153", "participants": [{"id": 19360583, "gamerTag": "Ner\u0153", "prefix": "PL", "user": {"location": {"city": "Carrollton", "state": "GA", "country": "United States"}}, "player": {"id": 4349436, "gamerTag": "Ner\u0153", "prefix": "PL", "user": {"location": {"city": "Carrollton", "state": "GA", "country": "United States"}}}}]}, "standing": {"placement": 2, "stats": {"score": {"value": 0}}}}], "games": [{"id": 32106677, "orderNum": 1, "winnerId": 20987862, "entrant1Score": null, "entrant2Score": 0, "stage": null, "selections": [{"id": 47311502, "selectionType": "CHARACTER", "selectionValue": 1279, "entrant": {"id": 20987862}, "character": {"id": 1279, "name": "Diddy Kong"}}, {"id": 47311503, "selectionType": "CHARACTER", "selectionValue": 1332, "entrant": {"id": 21046642}, "character": {"id": 1332, "name": "Sonic"}}]}, {"id": 32106678, "orderNum": 2, "winnerId": 20987862, "entrant1Score": null, "entrant2Score": 0, "stage": null, "selections": [{"id": 47311504, "selectionType": "CHARACTER", "selectionValue": 1279, "entrant": {"id": 20987862}, "character": {"id": 1279, "name": "Diddy Kong"}}, {"id": 47311505, "selectionType": "CHARACTER", "selectionValue": 1332, "entrant": {"id": 21046642}, "character": {"id": 1332, "name": "Sonic"}}]}]}, {"id": 93024031, "state": 3, "round": 1, "fullRoundText": "Winners Quarter-Final", "completedAt": 1755994330, "winnerId": 21053140, "slots": [{"id": "93024031-0", "entrant": {"id": 21053140, "name": "ZB | Juniper", "participants": [{"id": 19309042, "gamerTag": "Juniper", "prefix": "ZB", "user": {"location": {"city": "Morrow", "state": "GA", "country": "United States"}}, "player": {"id": 46895, "gamerTag": "Juniper", "prefix": "ZB", "user": {"location": {"city": "Morrow", "state": "GA", "country": "United States"}}}}]}, "standing": {"placement": 1, "stats": {"score": {"value": 2}}}}, {"id": "93024031-1", "entrant": {"id": 21029649, "name": "PL | Shusui", "participants": [{"id": 19344921, "gamerTag": "Shusui", "prefix": "PL", "user": {"location": {"city": "Suwanee", "state": "GA", "country": "United States"}}, "player": {"id": 3465710, "gamerTag": "Shusui", "prefix": "", "user": {"location": {"city": "Suwanee", "state": "GA", "country": "United States"}}}}]}, "standing": {"placement": 2, "stats": {"score": {"value": 0}}}}], "games": [{"id": 32105342, "orderNum": 1, "winnerId": 21053140, "entrant1Score": null, "entrant2Score": 0, "stage": null, "selections": [{"id": 47309401, "selectionType": "CHARACTER", "selectionValue": 1319, "entrant": {"id": 21029649}, "character": {"id": 1319, "name": "Pikachu"}}, {"id": 47309402, "selectionType": "CHARACTER", "selectionValue": 1323, "entrant": {"id": 21053140}, "character": {"id": 1323, "name": "R.O.B."}}]}, {"id": 32105343, "orderNum": 2, "winnerId": 21053140, "entrant1Score": null, "entrant2Score": 0, "stage": null, "selections": [{"id": 47309403, "selectionType": "CHARACTER", "selectionValue": 1539, "entrant": {"id": 21029649}, "character": {"id": 1539, "name": "Byleth"}}, {"id": 47309404, "selectionType": "CHARACTER", "selectionValue": 1323, "entrant": {"id": 21053140}, "character": {"id": 1323, "name": "R.O.B."}}]}]}, {"id": 93024032, "state": 3, "round": 1, "fullRoundText": "Winners Quarter-Final", "completedAt": 1755994539, "winnerId": 21032581, "slots": [{"id": "93024032-0", "entrant": {"id": 21032581, "name": "LvL? | Yharon", "participants": [{"id": 19347686, "gamerTag": "Yharon", "prefix": "LvL?", "user": {"location": {"city": "Carrollton", "state": "GA", "country": "United States"}}, "player": {"id": 3862975, "gamerTag": "Yharon", "prefix": "LvL?", "user": {"location": {"city": "Carrollton", "state": "GA", "country": "United States"}}}}]}, "standing": {"placement": 1, "stats": {"score": {"value": 2}}}}, {"id": "93024032-1", "entrant": {"id": 20987862, "name": "ZB | Sanaito", "participants": [{"id": 19307057, "gamerTag": "Sanaito", "prefix": "ZB", "user": {"location": {"city": "Fayetteville", "state": "GA", "country": "United States"}}, "player": {"id": 12761, "gamerTag": "Sanaito", "prefix": "ZB", "user": {"location": {"city": "Fayetteville", "state": "GA", "country": "United States"}}}}]}, "standing": {"placement": 2, "stats": {"score": {"value": 0}}}}], "games": [{"id": 32105534, "orderNum": 1, "winnerId": 21032581, "entrant1Score": null, "entrant2Score": 0, "stage": null, "selections": [{"id": 47309690, "selectionType": "CHARACTER", "selectionValue": 1279, "entrant": {"id": 20987862}, "character": {"id": 1279, "name": "Diddy Kong"}}, {"id": 47309691, "selectionType": "CHARACTER", "selectionValue": 1453, "entrant": {"id": 21032581}, "character": {"id": 1453, "name": "Joker"}}]}, {"id": 32105535, "orderNum": 2, "winnerId": 21032581, "entrant1Score": null, "entrant2Score": 0, "stage": null, "selections": [{"id": 47309692, "selectionType": "CHARACTER", "selectionValue": 1279, "entrant": {"id": 20987862}, "character": {"id": 1279, "name": "Diddy Kong"}}, {"id": 47309693, "selectionType": "CHARACTER", "selectionValue": 1453, "entrant": {"id": 21032581}, "character": {"id": 1453, "name": "Joker"}}]}]}, {"id": 93024033, "state": 3, "round": 1, "fullRoundText": "Winners Quarter-Final", "completedAt": 1755994873, "winnerId": 21055288, "slots": [{"id": "93024033-0", "entrant": {"id": 21055288, "name": "GG | VaR", "participants": [{"id": 19368193, "gamerTag": "VaR", "prefix": "GG", "user": {"location": {"city": "Atlanta", "state": "GA", "country": "United States"}}, "player": {"id": 329546, "gamerTag": "VaR", "prefix": "GG", "user": {"location": {"city": "Atlanta", "state": "GA", "country": "United States"}}}}]}, "standing": {"placement": 1, "stats": {"score": {"value": 2}}}}, {"id": "93024033-1", "entrant": {"id": 21046642, "name": "PL | Ner\u0153", "participants": [{"id": 19360583, "gamerTag": "Ner\u0153", "prefix": "PL", "user": {"location": {"city": "Carrollton", "state": "GA", "country": "United States"}}, "player": {"id": 4349436, "gamerTag": "Ner\u0153", "prefix": "PL", "user": {"location": {"city": "Carrollton", "state": "GA", "country": "United States"}}}}]}, "standing": {"placement": 2, "stats": {"score": {"value": 1}}}}], "games": [{"id": 32105841, "orderNum": 1, "winnerId": 21055288, "entrant1Score": null, "entrant2Score": 0, "stage": null, "selections": [{"id": 47310163, "selectionType": "CHARACTER", "selectionValue": 1332, "entrant": {"id": 21046642}, "character": {"id": 1332, "name": "Sonic"}}, {"id": 47310164, "selectionType": "CHARACTER", "selectionValue": 1453, "entrant": {"id": 21055288}, "character": {"id": 1453, "name": "Joker"}}]}, {"id": 32105842, "orderNum": 2, "winnerId": 21046642, "entrant1Score": 0, "entrant2Score": null, "stage": null, "selections": [{"id": 47310165, "selectionType": "CHARACTER", "selectionValue": 1332, "entrant": {"id": 21046642}, "character": {"id": 1332, "name": "Sonic"}}, {"id": 47310166, "selectionType": "CHARACTER", "selectionValue": 1453, "entrant": {"id": 21055288}, "character": {"id": 1453, "name": "Joker"}}]}, {"id": 32105843, "orderNum": 3, "winnerId": 21055288, "entrant1Score": null, "entrant2Score": 0, "stage": null, "selections": [{"id": 47310167, "selectionType": "CHARACTER", "selectionValue": 1332, "entrant": {"id": 21046642}, "character": {"id": 1332, "name": "Sonic"}}, {"id": 47310168, "selectionType": "CHARACTER", "selectionValue": 1453, "entrant": {"id": 21055288}, "character": {"id": 1453, "name": "Joker"}}]}]}]}}}