{"phase": {"seeds": {"pageInfo": {"totalPages": 1, "total": 25}, "nodes": [{"id": 35821386, "seedNum": 1, "entrant": {"id": 20762710, "name": "vivesthesia", "participants": [{"id": 19108327, "gamerTag": "vivesthesia", "prefix": null, "user": {"location": {"city": "Atlanta", "state": "GA", "country": "United States"}}, "player": {"id": 4395171, "gamerTag": "vivesthesia", "prefix": null, "user": {"location": {"city": "Atlanta", "state": "GA", "country": "United States"}}}}]}}, {"id": 35821258, "seedNum": 2, "entrant": {"id": 20762587, "name": "Erika Bonchiko", "participants": [{"id": 19108227, "gamerTag": "Erika Bonchiko", "prefix": null, "user": {"location": {"city": "Atlanta", "state": "GA", "country": "United States"}}, "player": {"id": 16360, "gamerTag": "Erika Bonchiko", "prefix": null, "user": {"location": {"city": "Atlanta", "state": "GA", "country": "United States"}}}}]}}, {"id": 35817813, "seedNum": 3, "entrant": {"id": 20759765, "name": "NMBS | Phteven", "participants": [{"id": 19105454, "gamerTag": "Phteven", "prefix": "NMBS", "user": {"location": {"city": "Mableton", "state": "GA", "country": "United States"}}, "player": {"id": 209952, "gamerTag": "Phteven", "prefix": "NMBS", "user": {"location": {"city": "Mableton", "state": "GA", "country": "United States"}}}}]}}, {"id": 35816216, "seedNum": 6, "entrant": {"id": 20758556, "name": "Wolven", "participants": [{"id": 19104231, "gamerTag": "Wolven", "prefix": null, "user": {"location": {"city": "Atlanta", "state": "GA", "country": "United States"}}, "player": {"id": 126978, "gamerTag": "Wolven", "prefix": null, "user": {"location": {"city": "Atlanta", "state": "GA", "country": "United States"}}}}]}}, {"id": 35821900, "seedNum": 4, "entrant": {"id": 20763083, "name": "Tipped Off | GAwes", "participants": [{"id": 19104962, "gamerTag": "GAwes", "prefix": "Tipped Off", "user": {"location": {"city": "Decatur", "state": "GA", "country": "United States"}}, "player": {"id": 19690, "gamerTag": "GAwes", "prefix": "Tipped Off", "user": {"location": {"city": "Decatur", "state": "GA", "country": "United States"}}}}]}}, {"id": 35815563, "seedNum": 5, "entrant": {"id": 20758011, "name": "N/a | C$", "participants": [{"id": 19103766, "gamerTag": "C$", "prefix": "N/a", "user": {"location": null}, "player": {"id": 228175, "gamerTag": "C$", "prefix": "N/a", "user": {"location": null}}}]}}, {"id": 35821058, "seedNum": 7, "entrant": {"id": 20762412, "name": "Bori", "participants": [{"id": 19108073, "gamerTag": "Bori", "prefix": null, "user": {"location": {"city": "Atlanta", "state": "GA", "country": "United States"}}, "player": {"id": 3126775, "gamerTag": "Bori", "prefix": null, "user": {"location": {"city": "Atlanta", "state": "GA", "country": "United States"}}}}]}}, {"id": 35821496, "seedNum": 8, "entrant": {"id": 20762783, "name": "What.", "participants": [{"id": 19108395, "gamerTag": "What.", "prefix": "", "user": {"location": {"city": "Duluth", "state": "GA", "country": "United States"}}, "player": {"id": 24727, "gamerTag": "What.", "prefix": "", "user": {"location": {"city": "Duluth", "state": "GA", "country": "United States"}}}}]}}, {"id": 35815565, "seedNum": 10, "entrant": {"id": 20758013, "name": "SKRUNT | diremaykr", "participants": [{"id": 19103767, "gamerTag": "diremaykr", "prefix": "SKRUNT", "user": {"location": {"city": "Buford", "state": "GA", "country": "United States"}}, "player": {"id": 3207366, "gamerTag": "diremaykr", "prefix": "", "user": {"location": {"city": "Buford", "state": "GA", "country": "United States"}}}}]}}, {"id": 35820007, "seedNum": 14, "entrant": {"id": 20761589, "name": "Deign", "participants": [{"id": 19107332, "gamerTag": "Deign", "prefix": "", "user": {"location": {"city": null, "state": null, "country": "United States"}}, "player": {"id": 325595, "gamerTag": "Deign", "prefix": "", "user": {"location": {"city": null, "state": null, "country": "United States"}}}}]}}, {"id": 35817119, "seedNum": 16, "entrant": {"id": 20759170, "name": "MSU | transrights420", "participants": [{"id": 19104803, "gamerTag": "transrights420", "prefix": "MSU", "user": {"location": {"city": "Starkville", "state": "MS", "country": "United States"}}, "player": {"id": 1479899, "gamerTag": "transrights420", "prefix": "", "user": {"location": {"city": "Starkville", "state": "MS", "country": "United States"}}}}]}}, {"id": 35816906, "seedNum": 23, "entrant": {"id": 20758995, "name": "Carrit", "participants": [{"id": 19104634, "gamerTag": "Carrit", "prefix": null, "user": {"location": {"city": "Hoschton", "state": "GA", "country": "United States"}}, "player": {"id": 4298609, "gamerTag": "Carrit", "prefix": null, "user": {"location": {"city": "Hoschton", "state": "GA", "country": "United States"}}}}]}}, {"id": 35817091, "seedNum": 9, "entrant": {"id": 20759142, "name": "tushar!", "participants": [{"id": 19104775, "gamerTag": "tushar!", "prefix": "", "user": {"location": {"city": "Dunwoody", "state": "GA", "country": "United States"}}, "player": {"id": 1549795, "gamerTag": "tushar!", "prefix": "", "user": {"location": {"city": "Dunwoody", "state": "GA", "country": "United States"}}}}]}}, {"id": 35815568, "seedNum": 11, "entrant": {"id": 20758015, "name": "blaise", "participants": [{"id": 19103769, "gamerTag": "blaise", "prefix": "", "user": {"location": {"city": "douglasville", "state": "GA", "country": "United States"}}, "player": {"id": 1326121, "gamerTag": "blaise", "prefix": "", "user": {"location": {"city": "douglasville", "state": "GA", "country": "United States"}}}}]}}, {"id": 35820670, "seedNum": 15, "entrant": {"id": 20762086, "name": "MH | Savvy", "participants": [{"id": 19107796, "gamerTag": "Savvy", "prefix": "MH", "user": {"location": {"city": "", "state": "SC", "country": "United States"}}, "player": {"id": 46433, "gamerTag": "Savvy", "prefix": "MH", "user": {"location": {"city": "", "state": "SC", "country": "United States"}}}}]}}, {"id": 35816293, "seedNum": 18, "entrant": {"id": 20758580, "name": "KHW | Frumps", "participants": [{"id": 19104258, "gamerTag": "Frumps", "prefix": "KHW", "user": {"location": {"city": "Greenville", "state": "SC", "country": "United States"}}, "player": {"id": 2844590, "gamerTag": "Frumps", "prefix": "KHW", "user": {"location": {"city": "Greenville", "state": "SC", "country": "United States"}}}}]}}, {"id": 35820019, "seedNum": 12, "entrant": {"id": 20761601, "name": "Tyme", "participants": [{"id": 19107344, "gamerTag": "Tyme", "prefix": null, "user": {"location": {"city": null, "state": null, "country": null}}, "player": {"id": 325589, "gamerTag": "Tyme", "prefix": null, "user": {"location": {"city": null, "state": null, "country": null}}}}]}}, {"id": 35816070, "seedNum": 13, "entrant": {"id": 20758456, "name": "noided", "participants": [{"id": 19104137, "gamerTag": "noided", "prefix": "", "user": {"location": {"city": "Atlanta", "state": "GA", "country": "United States"}}, "player": {"id": 2586521, "gamerTag": "noided", "prefix": "", "user": {"location": {"city": "Atlanta", "state": "GA", "country": "United States"}}}}]}}, {"id": 35821199, "seedNum": 17, "entrant": {"id": 20762528, "name": "TSOAP | MuchOlmec", "participants": [{"id": 19108176, "gamerTag": "MuchOlmec", "prefix": "TSOAP", "user": {"location": {"city": "Athens", "state": "GA", "country": "United States"}}, "player": {"id": 1105460, "gamerTag": "MuchOlmec", "prefix": "TSOAP", "user": {"location": {"city": "Athens", "state": "GA", "country": "United States"}}}}]}}, {"id": 35815639, "seedNum": 19, "entrant": {"id": 20758080, "name": "drimys", "participants": [{"id": 19103824, "gamerTag": "drimys", "prefix": null, "user": {"location": {"city": "Cumming", "state": "GA", "country": "United States"}}, "player": {"id": 2436958, "gamerTag": "drimys", "prefix": null, "user": {"location": {"city": "Cumming", "state": "GA", "country": "United States"}}}}]}}, {"id": 35815979, "seedNum": 20, "entrant": {"id": 20758395, "name": "TriN", "participants": [{"id": 19104074, "gamerTag": "TriN", "prefix": "", "user": {"location": {"city": "Duluth", "state": "GA", "country": "United States"}}, "player": {"id": 3807669, "gamerTag": "TriN", "prefix": "", "user": {"location": {"city": "Duluth", "state": "GA", "country": "United States"}}}}]}}, {"id": 35815641, "seedNum": 21, "entrant": {"id": 20758082, "name": "Divinitycove", "participants": [{"id": 19103826, "gamerTag": "Divinitycove", "prefix": null, "user": {"location": {"city": "Lithonia", "state": "GA", "country": "United States"}}, "player": {"id": 3821146, "gamerTag": "dgo", "prefix": null, "user": {"location": {"city": "Lithonia", "state": "GA", "country": "United States"}}}}]}}, {"id": 35815822, "seedNum": 22, "entrant": {"id": 20758249, "name": "CaPhe", "participants": [{"id": 19103948, "gamerTag": "CaPhe", "prefix": "", "user": {"location": {"city": "Atlanta", "state": "GA", "country": "United States"}}, "player": {"id": 1219139, "gamerTag": "CaPhe", "prefix": "", "user": {"location": {"city": "Atlanta", "state": "GA", "country": "United States"}}}}]}}, {"id": 35815578, "seedNum": 24, "entrant": {"id": 20758025, "name": "TPS | cryptonic", "participants": [{"id": 19103779, "gamerTag": "cryptonic", "prefix": "TPS", "user": {"location": {"city": "Acworth", "state": "GA", "country": "United States"}}, "player": {"id": 3422494, "gamerTag": "$CAITLIN", "prefix": "TPS", "user": {"location": {"city": "Acworth", "state": "GA", "country": "United States"}}}}]}}, {"id": 35820254, "seedNum": 25, "entrant": {"id": 20761691, "name": "friend | evil mage", "participants": [{"id": 19107432, "gamerTag": "evil mage", "prefix": "friend", "user": {"location": {"city": "Atlanta", "state": "GA", "country": "United States"}}, "player": {"id": 2788143, "gamerTag": "evil mage", "prefix": "TROLLGANG", "user": {"location": {"city": "Atlanta", "state": "GA", "country": "United States"}}}}]}}]}}}