{"phase": {"seeds": {"pageInfo": {"totalPages": 1, "total": 8}, "nodes": [{"id": 36838803, "seedNum": 1, "entrant": {"id": 21419986, "name": "Erran", "participants": [{"id": 19687761, "gamerTag": "Erran", "prefix": "", "user": {"location": {"city": "Atlanta", "state": "GA", "country": "United States"}}, "player": {"id": 36706, "gamerTag": "Erran", "prefix": "", "user": {"location": {"city": "Atlanta", "state": "GA", "country": "United States"}}}}]}}, {"id": 36838729, "seedNum": 3, "entrant": {"id": 21419952, "name": "citizendog", "participants": [{"id": 19686785, "gamerTag": "citizendog", "prefix": "", "user": {"location": {"city": "Monroe", "state": "GA", "country": "United States"}}, "player": {"id": 176325, "gamerTag": "citizendog", "prefix": "", "user": {"location": {"city": "Monroe", "state": "GA", "country": "United States"}}}}]}}, {"id": 36838750, "seedNum": 2, "entrant": {"id": 21419965, "name": "blaise", "participants": [{"id": 19682880, "gamerTag": "blaise", "prefix": "", "user": {"location": {"city": "douglasville", "state": "GA", "country": "United States"}}, "player": {"id": 1326121, "gamerTag": "blaise", "prefix": "", "user": {"location": {"city": "douglasville", "state": "GA", "country": "United States"}}}}]}}, {"id": 36838919, "seedNum": 6, "entrant": {"id": 21420074, "name": "Permafrost", "participants": [{"id": 19683449, "gamerTag": "Permafrost", "prefix": "", "user": {"location": {"city": "Atlanta", "state": "GA", "country": "United States"}}, "player": {"id": 1256898, "gamerTag": "Permafrost", "prefix": "", "user": {"location": {"city": "Atlanta", "state": "GA", "country": "United States"}}}}]}}, {"id": 36838741, "seedNum": 4, "entrant": {"id": 21419964, "name": "Juan J. Steven's", "participants": [{"id": 19686962, "gamerTag": "Juan J. Steven's", "prefix": null, "user": {"location": {"city": "atlanta", "state": "GA", "country": "United States"}}, "player": {"id": 3318064, "gamerTag": "Guts", "prefix": "\u72a0\u7272\u306e\u70d9\u5370", "user": {"location": {"city": "atlanta", "state": "GA", "country": "United States"}}}}]}}, {"id": 36838914, "seedNum": 5, "entrant": {"id": 21420069, "name": "Deign", "participants": [{"id": 19684432, "gamerTag": "Deign", "prefix": "", "user": {"location": {"city": null, "state": null, "country": "United States"}}, "player": {"id": 325595, "gamerTag": "Deign", "prefix": "", "user": {"location": {"city": null, "state": null, "country": "United States"}}}}]}}, {"id": 36838735, "seedNum": 7, "entrant": {"id": 21419958, "name": "Jabz", "participants": [{"id": 19671043, "gamerTag": "Jabz", "prefix": "", "user": {"location": {"city": "", "state": "CA", "country": "United States"}}, "player": {"id": 4361631, "gamerTag": "Jabz", "prefix": "", "user": {"location": {"city": "", "state": "CA", "country": "United States"}}}}]}}, {"id": 36838737, "seedNum": 8, "entrant": {"id": 21419960, "name": "TPS | $CAITLIN", "participants": [{"id": 19679606, "gamerTag": "$CAITLIN", "prefix": "TPS", "user": {"location": {"city": "Acworth", "state": "GA", "country": "United States"}}, "player": {"id": 3422494, "gamerTag": "$CAITLIN", "prefix": "TPS", "user": {"location": {"city": "Acworth", "state": "GA", "country": "United States"}}}}]}}]}}}