{"phase": {"seeds": {"pageInfo": {"totalPages": 1, "total": 14}, "nodes": [{"id": 36839524, "seedNum": 3, "entrant": {"id": 21420450, "name": "4o4 | chrisymandias", "participants": [{"id": 19688559, "gamerTag": "chrisymandias", "prefix": "4o4", "user": {"location": {"city": "Dacula", "state": "GA", "country": "United States"}}, "player": {"id": 258173, "gamerTag": "chrisymandias", "prefix": "4o4", "user": {"location": {"city": "Dacula", "state": "GA", "country": "United States"}}}}]}}, {"id": 36848741, "seedNum": 5, "entrant": {"id": 21427720, "name": "Buddylikefriend", "participants": [{"id": 19694998, "gamerTag": "Buddylikefriend", "prefix": null, "user": {"location": {"city": "Atlanta", "state": "GA", "country": "United States"}}, "player": {"id": 785557, "gamerTag": "Buddylikefriend", "prefix": null, "user": {"location": {"city": "Atlanta", "state": "GA", "country": "United States"}}}}]}}, {"id": 36849036, "seedNum": 4, "entrant": {"id": 21427945, "name": "Burboovas", "participants": [{"id": 19695184, "gamerTag": "Burboovas", "prefix": null, "user": {"location": {"city": null, "state": null, "country": null}}, "player": {"id": 3927191, "gamerTag": "Burboovas", "prefix": null, "user": {"location": {"city": null, "state": null, "country": null}}}}]}}, {"id": 36849019, "seedNum": 1, "entrant": {"id": 21427944, "name": "4o4 | MessatsuIM", "participants": [{"id": 19695175, "gamerTag": "MessatsuIM", "prefix": "4o4", "user": {"location": {"city": "Kennesaw", "state": "GA", "country": "United States"}}, "player": {"id": 3564235, "gamerTag": "MessatsuIM", "prefix": "4o4", "user": {"location": {"city": "Kennesaw", "state": "GA", "country": "United States"}}}}]}}, {"id": 36849823, "seedNum": 2, "entrant": {"id": 21428591, "name": "4o4 | Musa", "participants": [{"id": 19695758, "gamerTag": "Musa", "prefix": "4o4", "user": {"location": {"city": null, "state": null, "country": "United States"}}, "player": {"id": 131537, "gamerTag": "Musa", "prefix": "4o4", "user": {"location": {"city": null, "state": null, "country": "United States"}}}}]}}, {"id": 36849725, "seedNum": 8, "entrant": {"id": 21428504, "name": "Archway", "participants": [{"id": 19695675, "gamerTag": "Archway", "prefix": "", "user": {"location": {"city": "Sandy Springs", "state": "GA", "country": "United States"}}, "player": {"id": 1435251, "gamerTag": "Archway", "prefix": "", "user": {"location": {"city": "Sandy Springs", "state": "GA", "country": "United States"}}}}]}}, {"id": 36842784, "seedNum": 10, "entrant": {"id": 21422883, "name": "Brennan", "participants": [{"id": 19690718, "gamerTag": "Brennan", "prefix": "", "user": {"location": {"city": "Atlanta", "state": "GA", "country": "United States"}}, "player": {"id": 1856111, "gamerTag": "Brennan", "prefix": "", "user": {"location": {"city": "Atlanta", "state": "GA", "country": "United States"}}}}]}}, {"id": 36849432, "seedNum": 14, "entrant": {"id": 21428218, "name": "bsharkz", "participants": [{"id": 19695427, "gamerTag": "bsharkz", "prefix": "", "user": {"location": {"city": "Atlanta", "state": "FL", "country": "United States"}}, "player": {"id": 4297884, "gamerTag": "bsharkz", "prefix": "", "user": {"location": {"city": "Atlanta", "state": "FL", "country": "United States"}}}}]}}, {"id": 36846633, "seedNum": 6, "entrant": {"id": 21425904, "name": "Noodle", "participants": [{"id": 19693402, "gamerTag": "Noodle", "prefix": "", "user": {"location": {"city": "McDonough", "state": "GA", "country": "United States"}}, "player": {"id": 3029288, "gamerTag": "Noodle", "prefix": "", "user": {"location": {"city": "McDonough", "state": "GA", "country": "United States"}}}}]}}, {"id": 36849825, "seedNum": 7, "entrant": {"id": 21428595, "name": "EEK!", "participants": [{"id": 19695762, "gamerTag": "EEK!", "prefix": null, "user": {"location": {"city": "Atlanta", "state": "GA", "country": "United States"}}, "player": {"id": 148794, "gamerTag": "EEK!", "prefix": null, "user": {"location": {"city": "Atlanta", "state": "GA", "country": "United States"}}}}]}}, {"id": 36840033, "seedNum": 9, "entrant": {"id": 21420710, "name": "Jabberwock", "participants": [{"id": 19688802, "gamerTag": "Jabberwock", "prefix": null, "user": {"location": {"city": "Jasper", "state": "GA", "country": "United States"}}, "player": {"id": 4954334, "gamerTag": "Jabberwock", "prefix": null, "user": {"location": {"city": "Jasper", "state": "GA", "country": "United States"}}}}]}}, {"id": 36849550, "seedNum": 13, "entrant": {"id": 21428320, "name": "Xangief", "participants": [{"id": 19695511, "gamerTag": "Xangief", "prefix": null, "user": {"location": {"city": "Atlanta", "state": "GA", "country": "United States"}}, "player": {"id": 135082, "gamerTag": "Xangief", "prefix": null, "user": {"location": {"city": "Atlanta", "state": "GA", "country": "United States"}}}}]}}, {"id": 36849719, "seedNum": 11, "entrant": {"id": 21428496, "name": "ToBeFrank | FF | SLAYlor Moon", "participants": [{"id": 19695668, "gamerTag": "SLAYlor Moon", "prefix": "ToBeFrank | FF", "user": {"location": {"city": "Atlanta", "state": "GA", "country": "United States"}}, "player": {"id": 267007, "gamerTag": "SLAYlor Moon", "prefix": "ToBeFrank | FF", "user": {"location": {"city": "Atlanta", "state": "GA", "country": "United States"}}}}]}}, {"id": 36846848, "seedNum": 12, "entrant": {"id": 21426097, "name": "Pazure", "participants": [{"id": 19693539, "gamerTag": "Pazure", "prefix": null, "user": {"location": {"city": null, "state": null, "country": "United States"}}, "player": {"id": 72218, "gamerTag": "Pazure", "prefix": null, "user": {"location": {"city": null, "state": null, "country": "United States"}}}}]}}]}}}