{"event": {"sets": {"pageInfo": {"totalPages": 5, "total": 70}, "nodes": [{"id": 92698767, "state": 3, "round": 2, "fullRoundText": "Winners Round 2", "completedAt": 1755304691, "winnerId": 20980845, "slots": [{"id": "92698767-0", "entrant": {"id": 20980845, "name": "WeFarmFrank | Gorilla Glue", "participants": [{"id": 19301443, "gamerTag": "Gorilla Glue", "prefix": "WeFarmFrank", "user": {"location": {"city": "Atlanta", "state": "GA", "country": "United States"}}, "player": {"id": 1810274, "gamerTag": "Planet Of Da", "prefix": "WeFarmFrank", "user": {"location": {"city": "Atlanta", "state": "GA", "country": "United States"}}}}]}, "standing": {"placement": 1, "stats": {"score": {"value": 2}}}}, {"id": "92698767-1", "entrant": {"id": 20980200, "name": "Gush", "participants": [{"id": 19300909, "gamerTag": "Gush", "prefix": "", "user": {"location": {"city": "Atlanta", "state": "GA", "country": "United States"}}, "player": {"id": 1246820, "gamerTag": "Gush", "prefix": "", "user": {"location": {"city": "Atlanta", "state": "GA", "country": "United States"}}}}]}, "standing": {"placement": 2, "stats": {"score": {"value": 0}}}}], "games": null}, {"id": 92698863, "state": 3, "round": 2, "fullRoundText": "Winners Round 2", "completedAt": 1755304945, "winnerId": 20967599, "slots": [{"id": "92698863-0", "entrant": {"id": 20967599, "name": "CFL | Benji", "participants": [{"id": 19289501, "gamerTag": "Benji", "prefix": "CFL", "user": {"location": {"city": "Orlando", "state": "FL", "country": "United States"}}, "player": {"id": 2990255, "gamerTag": "Benji", "prefix": "CFL", "user": {"location": {"city": "Orlando", "state": "FL", "country": "United States"}}}}]}, "standing": {"placement": 1, "stats": {"score": {"value": 2}}}}, {"id": "92698863-1", "entrant": {"id": 20978676, "name": "Skittles", "participants": [{"id": 19299545, "gamerTag": "Skittles", "prefix": "", "user": {"location": {"city": "Kennesaw", "state": "GA", "country": "United States"}}, "player": {"id": 4621888, "gamerTag": "Skittles", "prefix": "", "user": {"location": {"city": "Kennesaw", "state": "GA", "country": "United States"}}}}]}, "standing": {"placement": 2, "stats": {"score": {"value": 0}}}}], "games": null}, {"id": 92698768, "state": 3, "round": 2, "fullRoundText": "Winners Round 2", "completedAt": 1755304130, "winnerId": 20976640, "slots": [{"id": "92698768-0", "entrant": {"id": 20976640, "name": "Nut Esports | | Geemoney$", "participants": [{"id": 19297673, "gamerTag": "Geemoney$", "prefix": "Nut Esports |", "user": {"location": {"city": "Jacksonville", "state": "FL", "country": "United States"}}, "player": {"id": 252344, "gamerTag": "Geemoney$", "prefix": "", "user": {"location": {"city": "Jacksonville", "state": "FL", "country": "United States"}}}}]}, "standing": {"placement": 1, "stats": {"score": {"value": 2}}}}, {"id": "92698768-1", "entrant": {"id": 20980584, "name": "Hennyjuice", "participants": [{"id": 19301218, "gamerTag": "Hennyjuice", "prefix": "", "user": {"location": {"city": "Athens", "state": "GA", "country": "United States"}}, "player": {"id": 1415412, "gamerTag": "Hennyjuice", "prefix": "", "user": {"location": {"city": "Athens", "state": "GA", "country": "United States"}}}}]}, "standing": {"placement": 2, "stats": {"score": {"value": 0}}}}], "games": null}, {"id": 92698864, "state": 3, "round": 2, "fullRoundText": "Winners Round 2", "completedAt": 1755303096, "winnerId": 20980349, "slots": [{"id": "92698864-0", "entrant": {"id": 20975975, "name": "TnT | Damp\u00e9", "participants": [{"id": 19297093, "gamerTag": "Damp\u00e9", "prefix": "TnT", "user": {"location": {"city": "Atlanta", "state": "GA", "country": "United States"}}, "player": {"id": 1170738, "gamerTag": "Damp\u00e9", "prefix": "TnT", "user": {"location": {"city": "Atlanta", "state": "GA", "country": "United States"}}}}]}, "standing": {"placement": 2, "stats": {"score": {"value": 0}}}}, {"id": "92698864-1", "entrant": {"id": 20980349, "name": "MTM | Bob Weiner", "participants": [{"id": 19301020, "gamerTag": "Bob Weiner", "prefix": "MTM", "user": {"location": {"city": "Kennesaw", "state": "GA", "country": "United States"}}, "player": {"id": 2142601, "gamerTag": "Bob Weiner", "prefix": "MTM", "user": {"location": {"city": "Kennesaw", "state": "GA", "country": "United States"}}}}]}, "standing": {"placement": 1, "stats": {"score": {"value": 2}}}}], "games": null}, {"id": 92698769, "state": 3, "round": 2, "fullRoundText": "Winners Round 2", "completedAt": 1755305350, "winnerId": 20967847, "slots": [{"id": "92698769-0", "entrant": {"id": 20939293, "name": "Heart", "participants": [{"id": 19265072, "gamerTag": "Heart", "prefix": "", "user": {"location": {"city": "Atlanta", "state": "GA", "country": "United States"}}, "player": {"id": 4287822, "gamerTag": "Heart", "prefix": "", "user": {"location": {"city": "Atlanta", "state": "GA", "country": "United States"}}}}]}, "standing": {"placement": 2, "stats": {"score": {"value": 1}}}}, {"id": "92698769-1", "entrant": {"id": 20967847, "name": "TFT | Handsome Squidward", "participants": [{"id": 19289716, "gamerTag": "Handsome Squidward", "prefix": "TFT", "user": {"location": {"city": "Calhoun", "state": "GA", "country": "United States"}}, "player": {"id": 2241471, "gamerTag": "lil munch", "prefix": "TFT", "user": {"location": {"city": "Calhoun", "state": "GA", "country": "United States"}}}}]}, "standing": {"placement": 1, "stats": {"score": {"value": 2}}}}], "games": null}, {"id": 92698770, "state": 3, "round": 2, "fullRoundText": "Winners Round 2", "completedAt": 1755304046, "winnerId": 20942487, "slots": [{"id": "92698770-0", "entrant": {"id": 20942487, "name": "4o4 | chooryu :)", "participants": [{"id": 19267970, "gamerTag": "chooryu :)", "prefix": "4o4", "user": {"location": {"city": "Kennesaw", "state": "GA", "country": "United States"}}, "player": {"id": 466564, "gamerTag": "chooryu :)", "prefix": "4o4", "user": {"location": {"city": "Kennesaw", "state": "GA", "country": "United States"}}}}]}, "standing": {"placement": 1, "stats": {"score": {"value": 2}}}}, {"id": "92698770-1", "entrant": {"id": 20980635, "name": "Psystrike", "participants": [{"id": 19301256, "gamerTag": "Psystrike", "prefix": "", "user": {"location": {"city": null, "state": "SC", "country": "United States"}}, "player": {"id": 2161444, "gamerTag": "Psystrike", "prefix": "", "user": {"location": {"city": null, "state": "SC", "country": "United States"}}}}]}, "standing": {"placement": 2, "stats": {"score": {"value": 0}}}}], "games": null}, {"id": 92698865, "state": 3, "round": 2, "fullRoundText": "Winners Round 2", "completedAt": 1755304398, "winnerId": 20978225, "slots": [{"id": "92698865-0", "entrant": {"id": 20978225, "name": "KUMA| | EL MACHO", "participants": [{"id": 19299140, "gamerTag": "EL MACHO", "prefix": "KUMA|", "user": {"location": {"city": null, "state": null, "country": "United States"}}, "player": {"id": 997285, "gamerTag": "Steamedklams", "prefix": "KUMA|", "user": {"location": {"city": null, "state": null, "country": "United States"}}}}]}, "standing": {"placement": 1, "stats": {"score": {"value": 2}}}}, {"id": "92698865-1", "entrant": {"id": 20978360, "name": "TFT | TFT - Guillotine", "participants": [{"id": 19299257, "gamerTag": "TFT - Guillotine", "prefix": "TFT", "user": {"location": {"city": "Atlanta", "state": "GA", "country": "United States"}}, "player": {"id": 4263821, "gamerTag": "TFT - Guillotine", "prefix": "TFT", "user": {"location": {"city": "Atlanta", "state": "GA", "country": "United States"}}}}]}, "standing": {"placement": 2, "stats": {"score": {"value": 0}}}}], "games": null}, {"id": 92698866, "state": 3, "round": 2, "fullRoundText": "Winners Round 2", "completedAt": 1755303993, "winnerId": 20883196, "slots": [{"id": "92698866-0", "entrant": {"id": 20867526, "name": "RAMS | RussianJesus", "participants": [{"id": 19201681, "gamerTag": "RussianJesus", "prefix": "RAMS", "user": {"location": {"city": "Atlanta", "state": "GA", "country": "United States"}}, "player": {"id": 1140567, "gamerTag": "RussianJesus", "prefix": "RAMS", "user": {"location": {"city": "Atlanta", "state": "GA", "country": "United States"}}}}]}, "standing": {"placement": 2, "stats": {"score": {"value": 0}}}}, {"id": "92698866-1", "entrant": {"id": 20883196, "name": "RM | WFF | Cyax~", "participants": [{"id": 19215694, "gamerTag": "Cyax~", "prefix": "RM | WFF", "user": {"location": {"city": "atlanta", "state": "GA", "country": "United States"}}, "player": {"id": 1230555, "gamerTag": "Sakruoi", "prefix": "RM | WFF", "user": {"location": {"city": "atlanta", "state": "GA", "country": "United States"}}}}]}, "standing": {"placement": 1, "stats": {"score": {"value": 2}}}}], "games": null}, {"id": 92698771, "state": 3, "round": 2, "fullRoundText": "Winners Round 2", "completedAt": 1755304103, "winnerId": 20980309, "slots": [{"id": "92698771-0", "entrant": {"id": 20980309, "name": "TnT | Sid", "participants": [{"id": 19300980, "gamerTag": "Sid", "prefix": "TnT", "user": {"location": {"city": "Powder Springs", "state": "GA", "country": "United States"}}, "player": {"id": 1229067, "gamerTag": "Sid", "prefix": "TnT", "user": {"location": {"city": "Powder Springs", "state": "GA", "country": "United States"}}}}]}, "standing": {"placement": 1, "stats": {"score": {"value": 2}}}}, {"id": "92698771-1", "entrant": {"id": 20980397, "name": "Zarek", "participants": [{"id": 19301061, "gamerTag": "Zarek", "prefix": "", "user": {"location": {"city": "Atlanta", "state": "GA", "country": "United States"}}, "player": {"id": 405682, "gamerTag": "Zarek", "prefix": "", "user": {"location": {"city": "Atlanta", "state": "GA", "country": "United States"}}}}]}, "standing": {"placement": 2, "stats": {"score": {"value": 0}}}}], "games": null}, {"id": 92707919, "state": 3, "round": -6, "fullRoundText": "Losers Final", "completedAt": 1755317417, "winnerId": 20976640, "slots": [{"id": "92707919-0", "entrant": {"id": 20976640, "name": "Nut Esports | | Geemoney$", "participants": [{"id": 19297673, "gamerTag": "Geemoney$", "prefix": "Nut Esports |", "user": {"location": {"city": "Jacksonville", "state": "FL", "country": "United States"}}, "player": {"id": 252344, "gamerTag": "Geemoney$", "prefix": "", "user": {"location": {"city": "Jacksonville", "state": "FL", "country": "United States"}}}}]}, "standing": {"placement": 1, "stats": {"score": {"value": 2}}}}, {"id": "92707919-1", "entrant": {"id": 20942487, "name": "4o4 | chooryu :)", "participants": [{"id": 19267970, "gamerTag": "chooryu :)", "prefix": "4o4", "user": {"location": {"city": "Kennesaw", "state": "GA", "country": "United States"}}, "player": {"id": 466564, "gamerTag": "chooryu :)", "prefix": "4o4", "user": {"location": {"city": "Kennesaw", "state": "GA", "country": "United States"}}}}]}, "standing": {"placement": 2, "stats": {"score": {"value": 1}}}}], "games": null}, {"id": 92698916, "state": 3, "round": -4, "fullRoundText": "Losers Round 1", "completedAt": 1755306824, "winnerId": 20867526, "slots": [{"id": "92698916-0", "entrant": {"id": 20867526, "name": "RAMS | RussianJesus", "participants": [{"id": 19201681, "gamerTag": "RussianJesus", "prefix": "RAMS", "user": {"location": {"city": "Atlanta", "state": "GA", "country": "United States"}}, "player": {"id": 1140567, "gamerTag": "RussianJesus", "prefix": "RAMS", "user": {"location": {"city": "Atlanta", "state": "GA", "country": "United States"}}}}]}, "standing": {"placement": 1, "stats": {"score": {"value": 2}}}}, {"id": "92698916-1", "entrant": {"id": 20976980, "name": "Spenzobenzo", "participants": [{"id": 19298009, "gamerTag": "Spenzobenzo", "prefix": "", "user": {"location": {"city": "Stone Mountain", "state": "GA", "country": "United States"}}, "player": {"id": 4924927, "gamerTag": "Spenzobenzo", "prefix": "", "user": {"location": {"city": "Stone Mountain", "state": "GA", "country": "United States"}}}}]}, "standing": {"placement": 2, "stats": {"score": {"value": 1}}}}], "games": null}, {"id": 92698821, "state": 3, "round": -4, "fullRoundText": "Losers Round 1", "completedAt": 1755305277, "winnerId": 20980397, "slots": [{"id": "92698821-0", "entrant": {"id": 20980397, "name": "Zarek", "participants": [{"id": 19301061, "gamerTag": "Zarek", "prefix": "", "user": {"location": {"city": "Atlanta", "state": "GA", "country": "United States"}}, "player": {"id": 405682, "gamerTag": "Zarek", "prefix": "", "user": {"location": {"city": "Atlanta", "state": "GA", "country": "United States"}}}}]}, "standing": {"placement": 1, "stats": {"score": {"value": 2}}}}, {"id": "92698821-1", "entrant": {"id": 20980595, "name": "itsmerashad", "participants": [{"id": 19301227, "gamerTag": "itsmerashad", "prefix": "", "user": null, "player": {"id": 4925484, "gamerTag": "itsmerashad", "prefix": "", "user": null}}]}, "standing": {"placement": 2, "stats": {"score": {"value": 0}}}}], "games": null}, {"id": 92698920, "state": 3, "round": -4, "fullRoundText": "Losers Round 1", "completedAt": 1755304719, "winnerId": 20980980, "slots": [{"id": "92698920-0", "entrant": {"id": 20980980, "name": "GUMP2 | RoKu", "participants": [{"id": 19301565, "gamerTag": "RoKu", "prefix": "GUMP2", "user": {"location": {"city": "Peachtree Corners", "state": "GA", "country": "United States"}}, "player": {"id": 1107285, "gamerTag": "RoKu", "prefix": "TFT", "user": {"location": {"city": "Peachtree Corners", "state": "GA", "country": "United States"}}}}]}, "standing": {"placement": 1, "stats": {"score": {"value": null}}}}, {"id": "92698920-1", "entrant": {"id": 20981120, "name": "Simple and Mean", "participants": [{"id": 19301692, "gamerTag": "Simple and Mean", "prefix": "", "user": null, "player": {"id": 4925545, "gamerTag": "Simple and Mean", "prefix": "", "user": null}}]}, "standing": {"placement": 2, "stats": {"score": {"value": -1}}}}], "games": null}, {"id": 92698825, "state": 3, "round": -4, "fullRoundText": "Losers Round 1", "completedAt": 1755306002, "winnerId": 20980200, "slots": [{"id": "92698825-0", "entrant": {"id": 20980200, "name": "Gush", "participants": [{"id": 19300909, "gamerTag": "Gush", "prefix": "", "user": {"location": {"city": "Atlanta", "state": "GA", "country": "United States"}}, "player": {"id": 1246820, "gamerTag": "Gush", "prefix": "", "user": {"location": {"city": "Atlanta", "state": "GA", "country": "United States"}}}}]}, "standing": {"placement": 1, "stats": {"score": {"value": 2}}}}, {"id": "92698825-1", "entrant": {"id": 20980267, "name": "PrivilegeTaker", "participants": [{"id": 19300957, "gamerTag": "PrivilegeTaker", "prefix": null, "user": {"location": {"city": "Stone Mountain", "state": "GA", "country": "United States"}}, "player": {"id": 4925428, "gamerTag": "PrivilegeTaker", "prefix": null, "user": {"location": {"city": "Stone Mountain", "state": "GA", "country": "United States"}}}}]}, "standing": {"placement": 2, "stats": {"score": {"value": 1}}}}], "games": null}, {"id": 92707918, "state": 3, "round": -5, "fullRoundText": "Losers Semi-Final", "completedAt": 1755317413, "winnerId": 20942487, "slots": [{"id": "92707918-0", "entrant": {"id": 20975613, "name": "Tobe", "participants": [{"id": 19296761, "gamerTag": "Tobe", "prefix": "", "user": {"location": {"city": "Buford", "state": "GA", "country": "United States"}}, "player": {"id": 1646132, "gamerTag": "Tobe", "prefix": "", "user": {"location": {"city": "Buford", "state": "GA", "country": "United States"}}}}]}, "standing": {"placement": 2, "stats": {"score": {"value": 1}}}}, {"id": "92707918-1", "entrant": {"id": 20942487, "name": "4o4 | chooryu :)", "participants": [{"id": 19267970, "gamerTag": "chooryu :)", "prefix": "4o4", "user": {"location": {"city": "Kennesaw", "state": "GA", "country": "United States"}}, "player": {"id": 466564, "gamerTag": "chooryu :)", "prefix": "4o4", "user": {"location": {"city": "Kennesaw", "state": "GA", "country": "United States"}}}}]}, "standing": {"placement": 1, "stats": {"score": {"value": 2}}}}], "games": null}]}}}