{"phase": {"seeds": {"pageInfo": {"totalPages": 1, "total": 8}, "nodes": [{"id": 36408690, "seedNum": 5, "entrant": {"id": 21126807, "name": "ToBeFrank | FF | SLAYlor Moon", "participants": [{"id": 19432500, "gamerTag": "SLAYlor Moon", "prefix": "ToBeFrank | FF", "user": {"location": {"city": "Atlanta", "state": "GA", "country": "United States"}}, "player": {"id": 267007, "gamerTag": "SLAYlor Moon", "prefix": "ToBeFrank | FF", "user": {"location": {"city": "Atlanta", "state": "GA", "country": "United States"}}}}]}}, {"id": 36414620, "seedNum": 8, "entrant": {"id": 21131725, "name": "Savant_K", "participants": [{"id": 19437222, "gamerTag": "Savant_K", "prefix": "", "user": {"location": null}, "player": {"id": 4951597, "gamerTag": "Savant_K", "prefix": "", "user": {"location": null}}}]}}, {"id": 36386135, "seedNum": 2, "entrant": {"id": 21110394, "name": "4o4 | AShavers21", "participants": [{"id": 19417958, "gamerTag": "AShavers21", "prefix": "4o4", "user": {"location": {"city": "Atlanta", "state": "GA", "country": "United States"}}, "player": {"id": 437583, "gamerTag": "AShavers21", "prefix": "4o4", "user": {"location": {"city": "Atlanta", "state": "GA", "country": "United States"}}}}]}}, {"id": 36414235, "seedNum": 6, "entrant": {"id": 21131457, "name": "martuy25", "participants": [{"id": 19436989, "gamerTag": "martuy25", "prefix": "", "user": {"location": null}, "player": {"id": 4951561, "gamerTag": "martuy25", "prefix": "", "user": {"location": null}}}]}}, {"id": 36398300, "seedNum": 4, "entrant": {"id": 21119386, "name": "SCAD | shochi", "participants": [{"id": 19425903, "gamerTag": "shochi", "prefix": "SCAD", "user": {"location": {"city": "Baton Rouge", "state": "LA", "country": "United States"}}, "player": {"id": 4947967, "gamerTag": "shochi", "prefix": "SCAD", "user": {"location": {"city": "Baton Rouge", "state": "LA", "country": "United States"}}}}]}}, {"id": 36414256, "seedNum": 7, "entrant": {"id": 21131478, "name": "Clapter", "participants": [{"id": 19437005, "gamerTag": "Clapter", "prefix": "", "user": {"location": null}, "player": {"id": 4951566, "gamerTag": "Clapter", "prefix": "", "user": {"location": null}}}]}}, {"id": 36378075, "seedNum": 1, "entrant": {"id": 21104813, "name": "WFG | ChaosDunk", "participants": [{"id": 19412853, "gamerTag": "ChaosDunk", "prefix": "WFG", "user": {"location": {"city": "Woodstock", "state": "GA", "country": "United States"}}, "player": {"id": 24721, "gamerTag": "ChaosDunk", "prefix": "WFG", "user": {"location": {"city": "Woodstock", "state": "GA", "country": "United States"}}}}]}}, {"id": 36398297, "seedNum": 3, "entrant": {"id": 21119383, "name": "Jemi Keiyns", "participants": [{"id": 19425900, "gamerTag": "Jemi Keiyns", "prefix": "", "user": {"location": {"city": null, "state": null, "country": null}}, "player": {"id": 3640628, "gamerTag": "Jemi Keiyns", "prefix": "", "user": {"location": {"city": null, "state": null, "country": null}}}}]}}]}}}