{"phase": {"seeds": {"pageInfo": {"totalPages": 1, "total": 22}, "nodes": [{"id": 35860731, "seedNum": 1, "entrant": {"id": 20781425, "name": "Ghost | NOMAR", "participants": [{"id": 19125485, "gamerTag": "NOMAR", "prefix": "Ghost", "user": {"location": {"city": "Jonesboro", "state": "GA", "country": "United States"}}, "player": {"id": 427989, "gamerTag": "NOMAR", "prefix": "Ghost", "user": {"location": {"city": "Jonesboro", "state": "GA", "country": "United States"}}}}]}}, {"id": 35860135, "seedNum": 2, "entrant": {"id": 20780929, "name": "Pokchop", "participants": [{"id": 19124886, "gamerTag": "Pokchop", "prefix": "", "user": {"location": {"city": "Atlanta", "state": "GA", "country": "United States"}}, "player": {"id": 150402, "gamerTag": "Pokchop", "prefix": "", "user": {"location": {"city": "Atlanta", "state": "GA", "country": "United States"}}}}]}}, {"id": 35859194, "seedNum": 3, "entrant": {"id": 20780219, "name": "JJBREEZE", "participants": [{"id": 19124215, "gamerTag": "JJBREEZE", "prefix": "", "user": {"location": {"city": "Atlanta", "state": "GA", "country": "United States"}}, "player": {"id": 688460, "gamerTag": "JJBREEZE", "prefix": "", "user": {"location": {"city": "Atlanta", "state": "GA", "country": "United States"}}}}]}}, {"id": 35860068, "seedNum": 7, "entrant": {"id": 20780877, "name": "Rel", "participants": [{"id": 19124836, "gamerTag": "Rel", "prefix": "", "user": {"location": {"city": "Atlanta", "state": null, "country": "United States"}}, "player": {"id": 2774889, "gamerTag": "Rel", "prefix": "", "user": {"location": {"city": "Atlanta", "state": null, "country": "United States"}}}}]}}, {"id": 35858752, "seedNum": 12, "entrant": {"id": 20779801, "name": "Eternia Corp. | HBKdoza", "participants": [{"id": 19123800, "gamerTag": "HBKdoza", "prefix": "Eternia Corp.", "user": {"location": {"city": "Decatur", "state": "GA", "country": "United States"}}, "player": {"id": 3426567, "gamerTag": "HBKdoza", "prefix": "Eternia Corp.", "user": {"location": {"city": "Decatur", "state": "GA", "country": "United States"}}}}]}}, {"id": 35854898, "seedNum": 15, "entrant": {"id": 20778107, "name": "TS | Static", "participants": [{"id": 19122218, "gamerTag": "Static", "prefix": "TS", "user": {"location": {"city": null, "state": null, "country": "United States"}}, "player": {"id": 298731, "gamerTag": "Static", "prefix": "TS", "user": {"location": {"city": null, "state": null, "country": "United States"}}}}]}}, {"id": 35861237, "seedNum": 4, "entrant": {"id": 20781783, "name": "duetosideeffects", "participants": [{"id": 19125824, "gamerTag": "duetosideeffects", "prefix": "", "user": {"location": {"city": "Atlanta", "state": "GA", "country": "United States"}}, "player": {"id": 924041, "gamerTag": "duetosideeffects", "prefix": "", "user": {"location": {"city": "Atlanta", "state": "GA", "country": "United States"}}}}]}}, {"id": 35860647, "seedNum": 5, "entrant": {"id": 20781352, "name": "Iso.Dgaf", "participants": [{"id": 19125417, "gamerTag": "Iso.Dgaf", "prefix": null, "user": {"location": {"city": "Acworth", "state": "GA", "country": "United States"}}, "player": {"id": 4285541, "gamerTag": "Iso.Dgaf", "prefix": null, "user": {"location": {"city": "Acworth", "state": "GA", "country": "United States"}}}}]}}, {"id": 35847261, "seedNum": 8, "entrant": {"id": 20774125, "name": "4o4 | KhalRhaego", "participants": [{"id": 19118443, "gamerTag": "KhalRhaego", "prefix": "4o4", "user": {"location": {"city": "Jonesboro", "state": "GA", "country": "United States"}}, "player": {"id": 4076327, "gamerTag": "KhalRhaego", "prefix": "BOLT", "user": {"location": {"city": "Jonesboro", "state": "GA", "country": "United States"}}}}]}}, {"id": 35860717, "seedNum": 9, "entrant": {"id": 20781426, "name": "REHOO", "participants": [{"id": 19125486, "gamerTag": "REHOO", "prefix": null, "user": {"location": {"city": "jonesboro", "state": "GA", "country": "United States"}}, "player": {"id": 427983, "gamerTag": "REHOO", "prefix": null, "user": {"location": {"city": "jonesboro", "state": "GA", "country": "United States"}}}}]}}, {"id": 35857749, "seedNum": 17, "entrant": {"id": 20779100, "name": "Equivox", "participants": [{"id": 19123146, "gamerTag": "Equivox", "prefix": null, "user": {"location": {"city": "Atlanta", "state": "GA", "country": "United States"}}, "player": {"id": 2011920, "gamerTag": "Equivox", "prefix": null, "user": {"location": {"city": "Atlanta", "state": "GA", "country": "United States"}}}}]}}, {"id": 35861151, "seedNum": 22, "entrant": {"id": 20781708, "name": "Momokins", "participants": [{"id": 19125757, "gamerTag": "Momokins", "prefix": "", "user": {"location": {"city": "Atlanta", "state": "GA", "country": "United States"}}, "player": {"id": 612216, "gamerTag": "Momokins", "prefix": "", "user": {"location": {"city": "Atlanta", "state": "GA", "country": "United States"}}}}]}}, {"id": 35859236, "seedNum": 10, "entrant": {"id": 20780261, "name": "Armanisaint", "participants": [{"id": 19124255, "gamerTag": "Armanisaint", "prefix": null, "user": {"location": {"city": "Roswell", "state": "GA", "country": "United States"}}, "player": {"id": 3943806, "gamerTag": "Armanisaint", "prefix": null, "user": {"location": {"city": "Roswell", "state": "GA", "country": "United States"}}}}]}}, {"id": 35854592, "seedNum": 11, "entrant": {"id": 20777948, "name": "REMY", "participants": [{"id": 19122064, "gamerTag": "REMY", "prefix": null, "user": {"location": {"city": "Mableton", "state": "GA", "country": "United States"}}, "player": {"id": 4887443, "gamerTag": "REMY", "prefix": null, "user": {"location": {"city": "Mableton", "state": "GA", "country": "United States"}}}}]}}, {"id": 35859264, "seedNum": 13, "entrant": {"id": 20780291, "name": "Myk_JUMP", "participants": [{"id": 19124288, "gamerTag": "Myk_JUMP", "prefix": "", "user": {"location": {"city": "Atlanta", "state": "GA", "country": "United States"}}, "player": {"id": 469002, "gamerTag": "Myk_JUMP", "prefix": "", "user": {"location": {"city": "Atlanta", "state": "GA", "country": "United States"}}}}]}}, {"id": 35859167, "seedNum": 19, "entrant": {"id": 20780192, "name": "Jet Midder", "participants": [{"id": 19124188, "gamerTag": "Jet Midder", "prefix": null, "user": {"location": {"city": null, "state": null, "country": null}}, "player": {"id": 2363656, "gamerTag": "Jet Dayo", "prefix": null, "user": {"location": {"city": null, "state": null, "country": null}}}}]}}, {"id": 35837152, "seedNum": 6, "entrant": {"id": 20767881, "name": "StrataJay", "participants": [{"id": 19113106, "gamerTag": "StrataJay", "prefix": "", "user": {"location": {"city": "Grayson", "state": "GA", "country": "United States"}}, "player": {"id": 1112189, "gamerTag": "StrataJay", "prefix": "", "user": {"location": {"city": "Grayson", "state": "GA", "country": "United States"}}}}]}}, {"id": 35854844, "seedNum": 14, "entrant": {"id": 20778063, "name": "StreetGamer | IPlaygay", "participants": [{"id": 19122173, "gamerTag": "IPlaygay", "prefix": "StreetGamer", "user": {"location": {"city": "Atlanta", "state": "GA", "country": "United States"}}, "player": {"id": 1533578, "gamerTag": "QUICKTAKETHISL", "prefix": "Street", "user": {"location": {"city": "Atlanta", "state": "GA", "country": "United States"}}}}]}}, {"id": 35855286, "seedNum": 16, "entrant": {"id": 20778350, "name": "Greed", "participants": [{"id": 19122448, "gamerTag": "Greed", "prefix": "", "user": {"location": {"city": "Atlanta", "state": "GA", "country": "United States"}}, "player": {"id": 907329, "gamerTag": "Greed", "prefix": "", "user": {"location": {"city": "Atlanta", "state": "GA", "country": "United States"}}}}]}}, {"id": 35858480, "seedNum": 18, "entrant": {"id": 20779690, "name": "PrimeStone", "participants": [{"id": 19123692, "gamerTag": "PrimeStone", "prefix": null, "user": {"location": {"city": "Loganville", "state": "GA", "country": "United States"}}, "player": {"id": 1130909, "gamerTag": "PrimeStone", "prefix": null, "user": {"location": {"city": "Loganville", "state": "GA", "country": "United States"}}}}]}}, {"id": 35859366, "seedNum": 20, "entrant": {"id": 20780351, "name": "USAF | ATL | Juynni", "participants": [{"id": 19124342, "gamerTag": "Juynni", "prefix": "USAF | ATL", "user": {"location": {"city": "Atlanta", "state": "GA", "country": "United States"}}, "player": {"id": 1601885, "gamerTag": "Juynni", "prefix": "USAF | ATL", "user": {"location": {"city": "Atlanta", "state": "GA", "country": "United States"}}}}]}}, {"id": 35860953, "seedNum": 21, "entrant": {"id": 20781594, "name": "YoungTaco", "participants": [{"id": 19125648, "gamerTag": "YoungTaco", "prefix": "", "user": {"location": {"city": null, "state": "GA", "country": "United States"}}, "player": {"id": 1239045, "gamerTag": "YoungTaco", "prefix": "", "user": {"location": {"city": null, "state": "GA", "country": "United States"}}}}]}}]}}}