{"event": {"sets": {"pageInfo": {"totalPages": 4, "total": 54}, "nodes": [{"id": 94224090, "state": 3, "round": 6, "fullRoundText": "Grand Final", "completedAt": 1758608295, "winnerId": 21351574, "slots": [{"id": "94224090-0", "entrant": {"id": 21351574, "name": "Colbol", "participants": [{"id": 19628100, "gamerTag": "Colbol", "prefix": "", "user": {"location": {"city": "Tucker", "state": "GA", "country": "United States"}}, "player": {"id": 1009, "gamerTag": "Colbol", "prefix": "", "user": {"location": {"city": "Tucker", "state": "GA", "country": "United States"}}}}]}, "standing": {"placement": 1, "stats": {"score": {"value": 3}}}}, {"id": "94224090-1", "entrant": {"id": 21338369, "name": "vivesthesia", "participants": [{"id": 19615890, "gamerTag": "vivesthesia", "prefix": null, "user": {"location": {"city": "Atlanta", "state": "GA", "country": "United States"}}, "player": {"id": 4395171, "gamerTag": "vivesthesia", "prefix": null, "user": {"location": {"city": "Atlanta", "state": "GA", "country": "United States"}}}}]}, "standing": {"placement": 2, "stats": {"score": {"value": 0}}}}], "games": null}, {"id": 94224089, "state": 3, "round": 5, "fullRoundText": "Winners Final", "completedAt": 1758593924, "winnerId": 21351574, "slots": [{"id": "94224089-0", "entrant": {"id": 21351574, "name": "Colbol", "participants": [{"id": 19628100, "gamerTag": "Colbol", "prefix": "", "user": {"location": {"city": "Tucker", "state": "GA", "country": "United States"}}, "player": {"id": 1009, "gamerTag": "Colbol", "prefix": "", "user": {"location": {"city": "Tucker", "state": "GA", "country": "United States"}}}}]}, "standing": {"placement": 1, "stats": {"score": {"value": 3}}}}, {"id": "94224089-1", "entrant": {"id": 21338369, "name": "vivesthesia", "participants": [{"id": 19615890, "gamerTag": "vivesthesia", "prefix": null, "user": {"location": {"city": "Atlanta", "state": "GA", "country": "United States"}}, "player": {"id": 4395171, "gamerTag": "vivesthesia", "prefix": null, "user": {"location": {"city": "Atlanta", "state": "GA", "country": "United States"}}}}]}, "standing": {"placement": 2, "stats": {"score": {"value": 2}}}}], "games": null}, {"id": 94224153, "state": 3, "round": -10, "fullRoundText": "Losers Final", "completedAt": 1758608291, "winnerId": 21338369, "slots": [{"id": "94224153-0", "entrant": {"id": 21338369, "name": "vivesthesia", "participants": [{"id": 19615890, "gamerTag": "vivesthesia", "prefix": null, "user": {"location": {"city": "Atlanta", "state": "GA", "country": "United States"}}, "player": {"id": 4395171, "gamerTag": "vivesthesia", "prefix": null, "user": {"location": {"city": "Atlanta", "state": "GA", "country": "United States"}}}}]}, "standing": {"placement": 1, "stats": {"score": {"value": 3}}}}, {"id": "94224153-1", "entrant": {"id": 21350164, "name": "skyguy | Chris Danger", "participants": [{"id": 19626777, "gamerTag": "Chris Danger", "prefix": "skyguy", "user": {"location": {"city": "Atlanta", "state": "GA", "country": "United States"}}, "player": {"id": 2808268, "gamerTag": "Chris Danger", "prefix": "skyguy", "user": {"location": {"city": "Atlanta", "state": "GA", "country": "United States"}}}}]}, "standing": {"placement": 2, "stats": {"score": {"value": 1}}}}], "games": null}, {"id": 94224152, "state": 3, "round": -9, "fullRoundText": "Losers Semi-Final", "completedAt": 1758608288, "winnerId": 21350164, "slots": [{"id": "94224152-0", "entrant": {"id": 21350164, "name": "skyguy | Chris Danger", "participants": [{"id": 19626777, "gamerTag": "Chris Danger", "prefix": "skyguy", "user": {"location": {"city": "Atlanta", "state": "GA", "country": "United States"}}, "player": {"id": 2808268, "gamerTag": "Chris Danger", "prefix": "skyguy", "user": {"location": {"city": "Atlanta", "state": "GA", "country": "United States"}}}}]}, "standing": {"placement": 1, "stats": {"score": {"value": 3}}}}, {"id": "94224152-1", "entrant": {"id": 21351302, "name": "cardd", "participants": [{"id": 19627845, "gamerTag": "cardd", "prefix": "", "user": {"location": {"city": "ATL", "state": "GA", "country": "United States"}}, "player": {"id": 34781, "gamerTag": "cardd", "prefix": "", "user": {"location": {"city": "ATL", "state": "GA", "country": "United States"}}}}]}, "standing": {"placement": 2, "stats": {"score": {"value": 2}}}}], "games": null}, {"id": 94224087, "state": 3, "round": 4, "fullRoundText": "Winners Semi-Final", "completedAt": 1758592627, "winnerId": 21351574, "slots": [{"id": "94224087-0", "entrant": {"id": 21351574, "name": "Colbol", "participants": [{"id": 19628100, "gamerTag": "Colbol", "prefix": "", "user": {"location": {"city": "Tucker", "state": "GA", "country": "United States"}}, "player": {"id": 1009, "gamerTag": "Colbol", "prefix": "", "user": {"location": {"city": "Tucker", "state": "GA", "country": "United States"}}}}]}, "standing": {"placement": 1, "stats": {"score": {"value": 3}}}}, {"id": "94224087-1", "entrant": {"id": 21351302, "name": "cardd", "participants": [{"id": 19627845, "gamerTag": "cardd", "prefix": "", "user": {"location": {"city": "ATL", "state": "GA", "country": "United States"}}, "player": {"id": 34781, "gamerTag": "cardd", "prefix": "", "user": {"location": {"city": "ATL", "state": "GA", "country": "United States"}}}}]}, "standing": {"placement": 2, "stats": {"score": {"value": 0}}}}], "games": null}, {"id": 94224088, "state": 3, "round": 4, "fullRoundText": "Winners Semi-Final", "completedAt": 1758592630, "winnerId": 21338369, "slots": [{"id": "94224088-0", "entrant": {"id": 21338369, "name": "vivesthesia", "participants": [{"id": 19615890, "gamerTag": "vivesthesia", "prefix": null, "user": {"location": {"city": "Atlanta", "state": "GA", "country": "United States"}}, "player": {"id": 4395171, "gamerTag": "vivesthesia", "prefix": null, "user": {"location": {"city": "Atlanta", "state": "GA", "country": "United States"}}}}]}, "standing": {"placement": 1, "stats": {"score": {"value": 3}}}}, {"id": "94224088-1", "entrant": {"id": 21351576, "name": "69TacoTuesday69", "participants": [{"id": 19628104, "gamerTag": "69TacoTuesday69", "prefix": "", "user": {"location": {"city": "Atlanta", "state": "GA", "country": "United States"}}, "player": {"id": 158130, "gamerTag": "69TacoTuesday69", "prefix": "", "user": {"location": {"city": "Atlanta", "state": "GA", "country": "United States"}}}}]}, "standing": {"placement": 2, "stats": {"score": {"value": 2}}}}], "games": null}, {"id": 94224150, "state": 3, "round": -8, "fullRoundText": "Losers Quarter-Final", "completedAt": 1758594284, "winnerId": 21350164, "slots": [{"id": "94224150-0", "entrant": {"id": 21351576, "name": "69TacoTuesday69", "participants": [{"id": 19628104, "gamerTag": "69TacoTuesday69", "prefix": "", "user": {"location": {"city": "Atlanta", "state": "GA", "country": "United States"}}, "player": {"id": 158130, "gamerTag": "69TacoTuesday69", "prefix": "", "user": {"location": {"city": "Atlanta", "state": "GA", "country": "United States"}}}}]}, "standing": {"placement": 2, "stats": {"score": {"value": 0}}}}, {"id": "94224150-1", "entrant": {"id": 21350164, "name": "skyguy | Chris Danger", "participants": [{"id": 19626777, "gamerTag": "Chris Danger", "prefix": "skyguy", "user": {"location": {"city": "Atlanta", "state": "GA", "country": "United States"}}, "player": {"id": 2808268, "gamerTag": "Chris Danger", "prefix": "skyguy", "user": {"location": {"city": "Atlanta", "state": "GA", "country": "United States"}}}}]}, "standing": {"placement": 1, "stats": {"score": {"value": 3}}}}], "games": null}, {"id": 94224151, "state": 3, "round": -8, "fullRoundText": "Losers Quarter-Final", "completedAt": 1758593918, "winnerId": 21351302, "slots": [{"id": "94224151-0", "entrant": {"id": 21351302, "name": "cardd", "participants": [{"id": 19627845, "gamerTag": "cardd", "prefix": "", "user": {"location": {"city": "ATL", "state": "GA", "country": "United States"}}, "player": {"id": 34781, "gamerTag": "cardd", "prefix": "", "user": {"location": {"city": "ATL", "state": "GA", "country": "United States"}}}}]}, "standing": {"placement": 1, "stats": {"score": {"value": 3}}}}, {"id": "94224151-1", "entrant": {"id": 21299628, "name": "N/a | C$", "participants": [{"id": 19582141, "gamerTag": "C$", "prefix": "N/a", "user": {"location": null}, "player": {"id": 228175, "gamerTag": "C$", "prefix": "N/a", "user": {"location": null}}}]}, "standing": {"placement": 2, "stats": {"score": {"value": 1}}}}], "games": [{"id": 32802258, "orderNum": 1, "winnerId": 21351302, "entrant1Score": null, "entrant2Score": 0, "stage": null, "selections": [{"id": 48385218, "selectionType": "CHARACTER", "selectionValue": 4, "entrant": {"id": 21299628}, "character": {"id": 4, "name": "Dr. Mario"}}, {"id": 48385219, "selectionType": "CHARACTER", "selectionValue": 8, "entrant": {"id": 21351302}, "character": {"id": 8, "name": "Ice Climbers"}}]}, {"id": 32802259, "orderNum": 2, "winnerId": 21299628, "entrant1Score": 0, "entrant2Score": null, "stage": null, "selections": [{"id": 48385220, "selectionType": "CHARACTER", "selectionValue": 2, "entrant": {"id": 21299628}, "character": {"id": 2, "name": "Captain Falcon"}}, {"id": 48385221, "selectionType": "CHARACTER", "selectionValue": 3, "entrant": {"id": 21351302}, "character": {"id": 3, "name": "Donkey Kong"}}]}, {"id": 32802260, "orderNum": 3, "winnerId": 21351302, "entrant1Score": null, "entrant2Score": 0, "stage": null, "selections": [{"id": 48385222, "selectionType": "CHARACTER", "selectionValue": 14, "entrant": {"id": 21299628}, "character": {"id": 14, "name": "Marth"}}, {"id": 48385223, "selectionType": "CHARACTER", "selectionValue": 8, "entrant": {"id": 21351302}, "character": {"id": 8, "name": "Ice Climbers"}}]}, {"id": 32802261, "orderNum": 4, "winnerId": 21351302, "entrant1Score": null, "entrant2Score": 0, "stage": null, "selections": [{"id": 48385224, "selectionType": "CHARACTER", "selectionValue": 6, "entrant": {"id": 21299628}, "character": {"id": 6, "name": "Fox"}}, {"id": 48385225, "selectionType": "CHARACTER", "selectionValue": 8, "entrant": {"id": 21351302}, "character": {"id": 8, "name": "Ice Climbers"}}]}]}, {"id": 94224148, "state": 3, "round": -7, "fullRoundText": "Losers Round 5", "completedAt": 1758593929, "winnerId": 21350164, "slots": [{"id": "94224148-0", "entrant": {"id": 21350164, "name": "skyguy | Chris Danger", "participants": [{"id": 19626777, "gamerTag": "Chris Danger", "prefix": "skyguy", "user": {"location": {"city": "Atlanta", "state": "GA", "country": "United States"}}, "player": {"id": 2808268, "gamerTag": "Chris Danger", "prefix": "skyguy", "user": {"location": {"city": "Atlanta", "state": "GA", "country": "United States"}}}}]}, "standing": {"placement": 1, "stats": {"score": {"value": 3}}}}, {"id": "94224148-1", "entrant": {"id": 21301573, "name": "Wolven", "participants": [{"id": 19583618, "gamerTag": "Wolven", "prefix": null, "user": {"location": {"city": "Atlanta", "state": "GA", "country": "United States"}}, "player": {"id": 126978, "gamerTag": "Wolven", "prefix": null, "user": {"location": {"city": "Atlanta", "state": "GA", "country": "United States"}}}}]}, "standing": {"placement": 2, "stats": {"score": {"value": 2}}}}], "games": null}, {"id": 94224149, "state": 3, "round": -7, "fullRoundText": "Losers Round 5", "completedAt": 1758592916, "winnerId": 21299628, "slots": [{"id": "94224149-0", "entrant": {"id": 21299349, "name": "diremaykr", "participants": [{"id": 19581894, "gamerTag": "diremaykr", "prefix": "", "user": {"location": {"city": "Buford", "state": "GA", "country": "United States"}}, "player": {"id": 3207366, "gamerTag": "diremaykr", "prefix": "", "user": {"location": {"city": "Buford", "state": "GA", "country": "United States"}}}}]}, "standing": {"placement": 2, "stats": {"score": {"value": 2}}}}, {"id": "94224149-1", "entrant": {"id": 21299628, "name": "N/a | C$", "participants": [{"id": 19582141, "gamerTag": "C$", "prefix": "N/a", "user": {"location": null}, "player": {"id": 228175, "gamerTag": "C$", "prefix": "N/a", "user": {"location": null}}}]}, "standing": {"placement": 1, "stats": {"score": {"value": 3}}}}], "games": null}, {"id": 94224083, "state": 3, "round": 3, "fullRoundText": "Winners Quarter-Final", "completedAt": 1758590524, "winnerId": 21351574, "slots": [{"id": "94224083-0", "entrant": {"id": 21351574, "name": "Colbol", "participants": [{"id": 19628100, "gamerTag": "Colbol", "prefix": "", "user": {"location": {"city": "Tucker", "state": "GA", "country": "United States"}}, "player": {"id": 1009, "gamerTag": "Colbol", "prefix": "", "user": {"location": {"city": "Tucker", "state": "GA", "country": "United States"}}}}]}, "standing": {"placement": 1, "stats": {"score": {"value": 3}}}}, {"id": "94224083-1", "entrant": {"id": 21337942, "name": "Monolithic", "participants": [{"id": 19615487, "gamerTag": "Monolithic", "prefix": "", "user": {"location": {"city": "", "state": "GA", "country": "United States"}}, "player": {"id": 1926775, "gamerTag": "Monolithic", "prefix": "", "user": {"location": {"city": "", "state": "GA", "country": "United States"}}}}]}, "standing": {"placement": 2, "stats": {"score": {"value": 1}}}}], "games": [{"id": 32800197, "orderNum": 1, "winnerId": 21351574, "entrant1Score": null, "entrant2Score": 0, "stage": null, "selections": [{"id": 48381959, "selectionType": "CHARACTER", "selectionValue": 6, "entrant": {"id": 21351574}, "character": {"id": 6, "name": "Fox"}}, {"id": 48381960, "selectionType": "CHARACTER", "selectionValue": 8, "entrant": {"id": 21337942}, "character": {"id": 8, "name": "Ice Climbers"}}]}, {"id": 32800198, "orderNum": 2, "winnerId": 21337942, "entrant1Score": 0, "entrant2Score": null, "stage": null, "selections": [{"id": 48381961, "selectionType": "CHARACTER", "selectionValue": 6, "entrant": {"id": 21351574}, "character": {"id": 6, "name": "Fox"}}, {"id": 48381962, "selectionType": "CHARACTER", "selectionValue": 8, "entrant": {"id": 21337942}, "character": {"id": 8, "name": "Ice Climbers"}}]}, {"id": 32800199, "orderNum": 3, "winnerId": 21351574, "entrant1Score": null, "entrant2Score": 0, "stage": null, "selections": [{"id": 48381963, "selectionType": "CHARACTER", "selectionValue": 6, "entrant": {"id": 21351574}, "character": {"id": 6, "name": "Fox"}}, {"id": 48381964, "selectionType": "CHARACTER", "selectionValue": 8, "entrant": {"id": 21337942}, "character": {"id": 8, "name": "Ice Climbers"}}]}, {"id": 32800200, "orderNum": 4, "winnerId": 21351574, "entrant1Score": null, "entrant2Score": 0, "stage": null, "selections": [{"id": 48381965, "selectionType": "CHARACTER", "selectionValue": 6, "entrant": {"id": 21351574}, "character": {"id": 6, "name": "Fox"}}, {"id": 48381966, "selectionType": "CHARACTER", "selectionValue": 8, "entrant": {"id": 21337942}, "character": {"id": 8, "name": "Ice Climbers"}}]}]}, {"id": 94224084, "state": 3, "round": 3, "fullRoundText": "Winners Quarter-Final", "completedAt": 1758589509, "winnerId": 21351302, "slots": [{"id": "94224084-0", "entrant": {"id": 21350164, "name": "skyguy | Chris Danger", "participants": [{"id": 19626777, "gamerTag": "Chris Danger", "prefix": "skyguy", "user": {"location": {"city": "Atlanta", "state": "GA", "country": "United States"}}, "player": {"id": 2808268, "gamerTag": "Chris Danger", "prefix": "skyguy", "user": {"location": {"city": "Atlanta", "state": "GA", "country": "United States"}}}}]}, "standing": {"placement": 2, "stats": {"score": {"value": 2}}}}, {"id": "94224084-1", "entrant": {"id": 21351302, "name": "cardd", "participants": [{"id": 19627845, "gamerTag": "cardd", "prefix": "", "user": {"location": {"city": "ATL", "state": "GA", "country": "United States"}}, "player": {"id": 34781, "gamerTag": "cardd", "prefix": "", "user": {"location": {"city": "ATL", "state": "GA", "country": "United States"}}}}]}, "standing": {"placement": 1, "stats": {"score": {"value": 3}}}}], "games": [{"id": 32799247, "orderNum": 1, "winnerId": 21350164, "entrant1Score": null, "entrant2Score": 0, "stage": null, "selections": [{"id": 48380360, "selectionType": "CHARACTER", "selectionValue": 6, "entrant": {"id": 21350164}, "character": {"id": 6, "name": "Fox"}}, {"id": 48380361, "selectionType": "CHARACTER", "selectionValue": 8, "entrant": {"id": 21351302}, "character": {"id": 8, "name": "Ice Climbers"}}]}, {"id": 32799248, "orderNum": 2, "winnerId": 21351302, "entrant1Score": 0, "entrant2Score": null, "stage": null, "selections": [{"id": 48380362, "selectionType": "CHARACTER", "selectionValue": 6, "entrant": {"id": 21350164}, "character": {"id": 6, "name": "Fox"}}, {"id": 48380363, "selectionType": "CHARACTER", "selectionValue": 8, "entrant": {"id": 21351302}, "character": {"id": 8, "name": "Ice Climbers"}}]}, {"id": 32799249, "orderNum": 3, "winnerId": 21350164, "entrant1Score": null, "entrant2Score": 0, "stage": null, "selections": [{"id": 48380364, "selectionType": "CHARACTER", "selectionValue": 6, "entrant": {"id": 21350164}, "character": {"id": 6, "name": "Fox"}}, {"id": 48380365, "selectionType": "CHARACTER", "selectionValue": 8, "entrant": {"id": 21351302}, "character": {"id": 8, "name": "Ice Climbers"}}]}, {"id": 32799250, "orderNum": 4, "winnerId": 21351302, "entrant1Score": 0, "entrant2Score": null, "stage": null, "selections": [{"id": 48380366, "selectionType": "CHARACTER", "selectionValue": 6, "entrant": {"id": 21350164}, "character": {"id": 6, "name": "Fox"}}, {"id": 48380367, "selectionType": "CHARACTER", "selectionValue": 8, "entrant": {"id": 21351302}, "character": {"id": 8, "name": "Ice Climbers"}}]}, {"id": 32799251, "orderNum": 5, "winnerId": 21351302, "entrant1Score": 0, "entrant2Score": null, "stage": null, "selections": [{"id": 48380368, "selectionType": "CHARACTER", "selectionValue": 6, "entrant": {"id": 21350164}, "character": {"id": 6, "name": "Fox"}}, {"id": 48380369, "selectionType": "CHARACTER", "selectionValue": 8, "entrant": {"id": 21351302}, "character": {"id": 8, "name": "Ice Climbers"}}]}]}, {"id": 94224085, "state": 3, "round": 3, "fullRoundText": "Winners Quarter-Final", "completedAt": 1758590397, "winnerId": 21338369, "slots": [{"id": "94224085-0", "entrant": {"id": 21338369, "name": "vivesthesia", "participants": [{"id": 19615890, "gamerTag": "vivesthesia", "prefix": null, "user": {"location": {"city": "Atlanta", "state": "GA", "country": "United States"}}, "player": {"id": 4395171, "gamerTag": "vivesthesia", "prefix": null, "user": {"location": {"city": "Atlanta", "state": "GA", "country": "United States"}}}}]}, "standing": {"placement": 1, "stats": {"score": {"value": 3}}}}, {"id": "94224085-1", "entrant": {"id": 21350089, "name": "Tipped Off | GAwes", "participants": [{"id": 19622848, "gamerTag": "GAwes", "prefix": "Tipped Off", "user": {"location": {"city": "Decatur", "state": "GA", "country": "United States"}}, "player": {"id": 19690, "gamerTag": "GAwes", "prefix": "Tipped Off", "user": {"location": {"city": "Decatur", "state": "GA", "country": "United States"}}}}]}, "standing": {"placement": 2, "stats": {"score": {"value": 0}}}}], "games": [{"id": 32800045, "orderNum": 1, "winnerId": 21338369, "entrant1Score": null, "entrant2Score": 0, "stage": null, "selections": [{"id": 48381739, "selectionType": "CHARACTER", "selectionValue": 6, "entrant": {"id": 21338369}, "character": {"id": 6, "name": "Fox"}}, {"id": 48381740, "selectionType": "CHARACTER", "selectionValue": 2, "entrant": {"id": 21350089}, "character": {"id": 2, "name": "Captain Falcon"}}]}, {"id": 32800046, "orderNum": 2, "winnerId": 21338369, "entrant1Score": null, "entrant2Score": 0, "stage": null, "selections": [{"id": 48381741, "selectionType": "CHARACTER", "selectionValue": 6, "entrant": {"id": 21338369}, "character": {"id": 6, "name": "Fox"}}, {"id": 48381742, "selectionType": "CHARACTER", "selectionValue": 2, "entrant": {"id": 21350089}, "character": {"id": 2, "name": "Captain Falcon"}}]}, {"id": 32800047, "orderNum": 3, "winnerId": 21338369, "entrant1Score": null, "entrant2Score": 0, "stage": null, "selections": [{"id": 48381743, "selectionType": "CHARACTER", "selectionValue": 6, "entrant": {"id": 21338369}, "character": {"id": 6, "name": "Fox"}}, {"id": 48381744, "selectionType": "CHARACTER", "selectionValue": 2, "entrant": {"id": 21350089}, "character": {"id": 2, "name": "Captain Falcon"}}]}]}, {"id": 94224086, "state": 3, "round": 3, "fullRoundText": "Winners Quarter-Final", "completedAt": 1758590811, "winnerId": 21351576, "slots": [{"id": "94224086-0", "entrant": {"id": 21350508, "name": "Nero", "participants": [{"id": 19627099, "gamerTag": "Nero", "prefix": "", "user": {"location": {"city": "Calgary", "state": "AB", "country": "Canada"}}, "player": {"id": 175669, "gamerTag": "Nero", "prefix": "", "user": {"location": {"city": "Calgary", "state": "AB", "country": "Canada"}}}}]}, "standing": {"placement": 2, "stats": {"score": {"value": 2}}}}, {"id": "94224086-1", "entrant": {"id": 21351576, "name": "69TacoTuesday69", "participants": [{"id": 19628104, "gamerTag": "69TacoTuesday69", "prefix": "", "user": {"location": {"city": "Atlanta", "state": "GA", "country": "United States"}}, "player": {"id": 158130, "gamerTag": "69TacoTuesday69", "prefix": "", "user": {"location": {"city": "Atlanta", "state": "GA", "country": "United States"}}}}]}, "standing": {"placement": 1, "stats": {"score": {"value": 3}}}}], "games": [{"id": 32800416, "orderNum": 1, "winnerId": 21350508, "entrant1Score": null, "entrant2Score": 0, "stage": null, "selections": [{"id": 48382283, "selectionType": "CHARACTER", "selectionValue": 5, "entrant": {"id": 21350508}, "character": {"id": 5, "name": "Falco"}}, {"id": 48382284, "selectionType": "CHARACTER", "selectionValue": 6, "entrant": {"id": 21351576}, "character": {"id": 6, "name": "Fox"}}]}, {"id": 32800417, "orderNum": 2, "winnerId": 21351576, "entrant1Score": 0, "entrant2Score": null, "stage": null, "selections": [{"id": 48382285, "selectionType": "CHARACTER", "selectionValue": 5, "entrant": {"id": 21350508}, "character": {"id": 5, "name": "Falco"}}, {"id": 48382286, "selectionType": "CHARACTER", "selectionValue": 6, "entrant": {"id": 21351576}, "character": {"id": 6, "name": "Fox"}}]}, {"id": 32800418, "orderNum": 3, "winnerId": 21350508, "entrant1Score": null, "entrant2Score": 0, "stage": null, "selections": [{"id": 48382287, "selectionType": "CHARACTER", "selectionValue": 5, "entrant": {"id": 21350508}, "character": {"id": 5, "name": "Falco"}}, {"id": 48382288, "selectionType": "CHARACTER", "selectionValue": 6, "entrant": {"id": 21351576}, "character": {"id": 6, "name": "Fox"}}]}, {"id": 32800419, "orderNum": 4, "winnerId": 21351576, "entrant1Score": 0, "entrant2Score": null, "stage": null, "selections": [{"id": 48382289, "selectionType": "CHARACTER", "selectionValue": 5, "entrant": {"id": 21350508}, "character": {"id": 5, "name": "Falco"}}, {"id": 48382290, "selectionType": "CHARACTER", "selectionValue": 6, "entrant": {"id": 21351576}, "character": {"id": 6, "name": "Fox"}}]}, {"id": 32800420, "orderNum": 5, "winnerId": 21351576, "entrant1Score": 0, "entrant2Score": null, "stage": null, "selections": [{"id": 48382291, "selectionType": "CHARACTER", "selectionValue": 5, "entrant": {"id": 21350508}, "character": {"id": 5, "name": "Falco"}}, {"id": 48382292, "selectionType": "CHARACTER", "selectionValue": 6, "entrant": {"id": 21351576}, "character": {"id": 6, "name": "Fox"}}]}]}, {"id": 94224144, "state": 3, "round": -6, "fullRoundText": "Losers Round 4", "completedAt": 1758592635, "winnerId": 21350164, "slots": [{"id": "94224144-0", "entrant": {"id": 21350164, "name": "skyguy | Chris Danger", "participants": [{"id": 19626777, "gamerTag": "Chris Danger", "prefix": "skyguy", "user": {"location": {"city": "Atlanta", "state": "GA", "country": "United States"}}, "player": {"id": 2808268, "gamerTag": "Chris Danger", "prefix": "skyguy", "user": {"location": {"city": "Atlanta", "state": "GA", "country": "United States"}}}}]}, "standing": {"placement": 1, "stats": {"score": {"value": 3}}}}, {"id": "94224144-1", "entrant": {"id": 21348497, "name": "cheeks", "participants": [{"id": 19625255, "gamerTag": "cheeks", "prefix": "", "user": {"location": {"city": "Greenville", "state": "SC", "country": "United States"}}, "player": {"id": 2168044, "gamerTag": "cheeks", "prefix": "", "user": {"location": {"city": "Greenville", "state": "SC", "country": "United States"}}}}]}, "standing": {"placement": 2, "stats": {"score": {"value": 1}}}}], "games": null}]}}}