{"phase": {"seeds": {"pageInfo": {"totalPages": 1, "total": 14}, "nodes": [{"id": 35618426, "seedNum": 1, "entrant": {"id": 20621515, "name": "KumaDusk", "participants": [{"id": 18983757, "gamerTag": "KumaDusk", "prefix": "", "user": {"location": {"city": "Lawrenceville", "state": "GA", "country": "United States"}}, "player": {"id": 253909, "gamerTag": "KumaDusk", "prefix": "", "user": {"location": {"city": "Lawrenceville", "state": "GA", "country": "United States"}}}}]}}, {"id": 35618467, "seedNum": 2, "entrant": {"id": 20621556, "name": "Tobe", "participants": [{"id": 18983792, "gamerTag": "Tobe", "prefix": "", "user": {"location": {"city": "Buford", "state": "GA", "country": "United States"}}, "player": {"id": 1646132, "gamerTag": "Tobe", "prefix": "", "user": {"location": {"city": "Buford", "state": "GA", "country": "United States"}}}}]}}, {"id": 35618399, "seedNum": 5, "entrant": {"id": 20621488, "name": "Dubz", "participants": [{"id": 18983732, "gamerTag": "Dubz", "prefix": null, "user": {"location": {"city": "Grayson", "state": "GA", "country": "United States"}}, "player": {"id": 22583, "gamerTag": "Dubz", "prefix": "", "user": {"location": {"city": "Grayson", "state": "GA", "country": "United States"}}}}]}}, {"id": 35618394, "seedNum": 6, "entrant": {"id": 20621483, "name": "TFT | Frank", "participants": [{"id": 18983727, "gamerTag": "Frank", "prefix": "TFT", "user": {"location": {"city": "Doraville", "state": "GA", "country": "United States"}}, "player": {"id": 1227401, "gamerTag": "Terry Labonte", "prefix": "TFT", "user": {"location": {"city": "Doraville", "state": "GA", "country": "United States"}}}}]}}, {"id": 35618430, "seedNum": 3, "entrant": {"id": 20621519, "name": "STiCK", "participants": [{"id": 18983760, "gamerTag": "STiCK", "prefix": null, "user": {"location": {"city": "Woodstock", "state": "GA", "country": "United States"}}, "player": {"id": 282674, "gamerTag": "STiCK", "prefix": "GUMP2", "user": {"location": {"city": "Woodstock", "state": "GA", "country": "United States"}}}}]}}, {"id": 35618080, "seedNum": 12, "entrant": {"id": 20621378, "name": "Zarek", "participants": [{"id": 18983634, "gamerTag": "Zarek", "prefix": "", "user": {"location": {"city": "Atlanta", "state": "GA", "country": "United States"}}, "player": {"id": 405682, "gamerTag": "Zarek", "prefix": "", "user": {"location": {"city": "Atlanta", "state": "GA", "country": "United States"}}}}]}}, {"id": 35618078, "seedNum": 9, "entrant": {"id": 20621377, "name": "TnT | Monologgue", "participants": [{"id": 18983633, "gamerTag": "Monologgue", "prefix": "TnT", "user": {"location": {"city": "Atlanta", "state": "GA", "country": "United States"}}, "player": {"id": 1135679, "gamerTag": "Monologgue", "prefix": "TnT", "user": {"location": {"city": "Atlanta", "state": "GA", "country": "United States"}}}}]}}, {"id": 35618332, "seedNum": 10, "entrant": {"id": 20621435, "name": "RAMS | RussianJesus", "participants": [{"id": 18983686, "gamerTag": "RussianJesus", "prefix": "RAMS", "user": {"location": {"city": "Atlanta", "state": "GA", "country": "United States"}}, "player": {"id": 1140567, "gamerTag": "RussianJesus", "prefix": "RAMS", "user": {"location": {"city": "Atlanta", "state": "GA", "country": "United States"}}}}]}}, {"id": 35618404, "seedNum": 8, "entrant": {"id": 20621493, "name": "AshNoJoy", "participants": [{"id": 18983738, "gamerTag": "AshNoJoy", "prefix": "", "user": {"location": {"city": "Phenix City", "state": "AL", "country": "United States"}}, "player": {"id": 3141674, "gamerTag": "AshNoJoy", "prefix": "", "user": {"location": {"city": "Phenix City", "state": "AL", "country": "United States"}}}}]}}, {"id": 35618409, "seedNum": 11, "entrant": {"id": 20621498, "name": "TnT | Damp\u00e9", "participants": [{"id": 18983743, "gamerTag": "Damp\u00e9", "prefix": "TnT", "user": {"location": {"city": "Atlanta", "state": "GA", "country": "United States"}}, "player": {"id": 1170738, "gamerTag": "Damp\u00e9", "prefix": "TnT", "user": {"location": {"city": "Atlanta", "state": "GA", "country": "United States"}}}}]}}, {"id": 35618199, "seedNum": 7, "entrant": {"id": 20621384, "name": "C$ | holdmypockets", "participants": [{"id": 18983641, "gamerTag": "holdmypockets", "prefix": "C$", "user": {"location": {"city": "Fayetteville", "state": "GA", "country": "United States"}}, "player": {"id": 617199, "gamerTag": "holdmypockets", "prefix": "C$", "user": {"location": {"city": "Fayetteville", "state": "GA", "country": "United States"}}}}]}}, {"id": 35776346, "seedNum": 13, "entrant": {"id": 20733027, "name": "Jdaddy", "participants": [{"id": 19042273, "gamerTag": "Jdaddy", "prefix": null, "user": {"location": {"city": "Atlanta", "state": "GA", "country": "United States"}}, "player": {"id": 4384721, "gamerTag": "Jdaddy", "prefix": null, "user": {"location": {"city": "Atlanta", "state": "GA", "country": "United States"}}}}]}}, {"id": 35618402, "seedNum": 4, "entrant": {"id": 20621491, "name": "Barbashop", "participants": [{"id": 18983736, "gamerTag": "Barbashop", "prefix": "", "user": {"location": {"city": null, "state": null, "country": null}}, "player": {"id": 2537853, "gamerTag": "Barbashop", "prefix": "", "user": {"location": {"city": null, "state": null, "country": null}}}}]}}, {"id": 35618407, "seedNum": 14, "entrant": {"id": 20621496, "name": "TFT | BigCheese", "participants": [{"id": 18983741, "gamerTag": "BigCheese", "prefix": "TFT", "user": {"location": {"city": null, "state": null, "country": null}}, "player": {"id": 3991446, "gamerTag": "BigCheese", "prefix": "TFT", "user": {"location": {"city": null, "state": null, "country": null}}}}]}}]}}}