{"event": {"sets": {"pageInfo": {"totalPages": 2, "total": 28}, "nodes": [{"id": 94883097, "state": 3, "round": 3, "fullRoundText": "Round 3", "completedAt": 1760142113, "winnerId": 21506293, "slots": [{"id": "94883097-0", "entrant": {"id": 21506293, "name": "RM | GUMP2 | AO ASHI SEASON 2 2026", "participants": [{"id": 19763018, "gamerTag": "AO ASHI SEASON 2 2026", "prefix": "RM | GUMP2", "user": {"location": {"city": "Lawrenceville", "state": "GA", "country": "United States"}}, "player": {"id": 2409815, "gamerTag": "AO ASHI SEASON 2 2026", "prefix": "RM | GUMP2", "user": {"location": {"city": "Lawrenceville", "state": "GA", "country": "United States"}}}}]}, "standing": {"placement": 1, "stats": {"score": {"value": 2}}}}, {"id": "94883097-1", "entrant": {"id": 21515754, "name": "KSU | Subzero", "participants": [{"id": 19771561, "gamerTag": "Subzero", "prefix": "KSU", "user": {"location": {"city": "Acworth", "state": "GA", "country": "United States"}}, "player": {"id": 1808159, "gamerTag": "Subzero", "prefix": "KSU", "user": {"location": {"city": "Acworth", "state": "GA", "country": "United States"}}}}]}, "standing": {"placement": 2, "stats": {"score": {"value": 0}}}}], "games": null}, {"id": 94883098, "state": 3, "round": 3, "fullRoundText": "Round 3", "completedAt": 1760141914, "winnerId": 21512536, "slots": [{"id": "94883098-0", "entrant": {"id": 21505942, "name": "Stock Stealer | T.K.O", "participants": [{"id": 19762677, "gamerTag": "T.K.O", "prefix": "Stock Stealer", "user": {"location": {"city": "Smyrna", "state": "GA", "country": "United States"}}, "player": {"id": 4933114, "gamerTag": "T.K.O", "prefix": "Stock Stealer", "user": {"location": {"city": "Smyrna", "state": "GA", "country": "United States"}}}}]}, "standing": {"placement": 2, "stats": {"score": {"value": 0}}}}, {"id": "94883098-1", "entrant": {"id": 21512536, "name": "CHEESE", "participants": [{"id": 19768567, "gamerTag": "CHEESE", "prefix": null, "user": {"location": {"city": "Buford", "state": "GA", "country": "United States"}}, "player": {"id": 3429754, "gamerTag": "CHEESE", "prefix": null, "user": {"location": {"city": "Buford", "state": "GA", "country": "United States"}}}}]}, "standing": {"placement": 1, "stats": {"score": {"value": 2}}}}], "games": null}, {"id": 94883099, "state": 3, "round": 3, "fullRoundText": "Round 3", "completedAt": 1760139145, "winnerId": 21505958, "slots": [{"id": "94883099-0", "entrant": {"id": 21515534, "name": "KSU | MikePTM", "participants": [{"id": 19771355, "gamerTag": "MikePTM", "prefix": "KSU", "user": {"location": {"city": null, "state": null, "country": "United States"}}, "player": {"id": 3586658, "gamerTag": "MikePTM", "prefix": "KSU", "user": {"location": {"city": null, "state": null, "country": "United States"}}}}]}, "standing": {"placement": 2, "stats": {"score": {"value": 0}}}}, {"id": "94883099-1", "entrant": {"id": 21505958, "name": "carlop", "participants": [{"id": 19762689, "gamerTag": "carlop", "prefix": null, "user": {"location": {"city": "Johns Creek", "state": "GA", "country": "United States"}}, "player": {"id": 3431919, "gamerTag": "carlop", "prefix": null, "user": {"location": {"city": "Johns Creek", "state": "GA", "country": "United States"}}}}]}, "standing": {"placement": 1, "stats": {"score": {"value": 2}}}}], "games": null}, {"id": 94883100, "state": 3, "round": 3, "fullRoundText": "Round 3", "completedAt": 1760140744, "winnerId": 21505993, "slots": [{"id": "94883100-0", "entrant": {"id": 21519158, "name": "Rain~", "participants": [{"id": 19774418, "gamerTag": "Rain~", "prefix": null, "user": {"location": {"city": "Atlanta", "state": "GA", "country": "United States"}}, "player": {"id": 4240164, "gamerTag": "Rain~", "prefix": null, "user": {"location": {"city": "Atlanta", "state": "GA", "country": "United States"}}}}]}, "standing": {"placement": 2, "stats": {"score": {"value": 0}}}}, {"id": "94883100-1", "entrant": {"id": 21505993, "name": "red dot", "participants": [{"id": 19762721, "gamerTag": "red dot", "prefix": "", "user": {"location": {"city": "Milton", "state": "GA", "country": "United States"}}, "player": {"id": 1812177, "gamerTag": "red dot", "prefix": "", "user": {"location": {"city": "Milton", "state": "GA", "country": "United States"}}}}]}, "standing": {"placement": 1, "stats": {"score": {"value": 2}}}}], "games": [{"id": 33199062, "orderNum": 1, "winnerId": 21505993, "entrant1Score": 0, "entrant2Score": null, "stage": null, "selections": [{"id": 49017737, "selectionType": "CHARACTER", "selectionValue": 1410, "entrant": {"id": 21505993}, "character": {"id": 1410, "name": "Ken"}}, {"id": 49017738, "selectionType": "CHARACTER", "selectionValue": 1329, "entrant": {"id": 21519158}, "character": {"id": 1329, "name": "Sheik"}}]}, {"id": 33199063, "orderNum": 2, "winnerId": 21505993, "entrant1Score": 0, "entrant2Score": null, "stage": null, "selections": [{"id": 49017739, "selectionType": "CHARACTER", "selectionValue": 1410, "entrant": {"id": 21505993}, "character": {"id": 1410, "name": "Ken"}}, {"id": 49017740, "selectionType": "CHARACTER", "selectionValue": 1316, "entrant": {"id": 21519158}, "character": {"id": 1316, "name": "Palutena"}}]}]}, {"id": 94883093, "state": 3, "round": 2, "fullRoundText": "Round 2", "completedAt": 1760140463, "winnerId": 21506293, "slots": [{"id": "94883093-0", "entrant": {"id": 21506293, "name": "RM | GUMP2 | AO ASHI SEASON 2 2026", "participants": [{"id": 19763018, "gamerTag": "AO ASHI SEASON 2 2026", "prefix": "RM | GUMP2", "user": {"location": {"city": "Lawrenceville", "state": "GA", "country": "United States"}}, "player": {"id": 2409815, "gamerTag": "AO ASHI SEASON 2 2026", "prefix": "RM | GUMP2", "user": {"location": {"city": "Lawrenceville", "state": "GA", "country": "United States"}}}}]}, "standing": {"placement": 1, "stats": {"score": {"value": 2}}}}, {"id": "94883093-1", "entrant": {"id": 21505942, "name": "Stock Stealer | T.K.O", "participants": [{"id": 19762677, "gamerTag": "T.K.O", "prefix": "Stock Stealer", "user": {"location": {"city": "Smyrna", "state": "GA", "country": "United States"}}, "player": {"id": 4933114, "gamerTag": "T.K.O", "prefix": "Stock Stealer", "user": {"location": {"city": "Smyrna", "state": "GA", "country": "United States"}}}}]}, "standing": {"placement": 2, "stats": {"score": {"value": 0}}}}], "games": null}, {"id": 94883094, "state": 3, "round": 2, "fullRoundText": "Round 2", "completedAt": 1760139692, "winnerId": 21515754, "slots": [{"id": "94883094-0", "entrant": {"id": 21515534, "name": "KSU | MikePTM", "participants": [{"id": 19771355, "gamerTag": "MikePTM", "prefix": "KSU", "user": {"location": {"city": null, "state": null, "country": "United States"}}, "player": {"id": 3586658, "gamerTag": "MikePTM", "prefix": "KSU", "user": {"location": {"city": null, "state": null, "country": "United States"}}}}]}, "standing": {"placement": 2, "stats": {"score": {"value": 0}}}}, {"id": "94883094-1", "entrant": {"id": 21515754, "name": "KSU | Subzero", "participants": [{"id": 19771561, "gamerTag": "Subzero", "prefix": "KSU", "user": {"location": {"city": "Acworth", "state": "GA", "country": "United States"}}, "player": {"id": 1808159, "gamerTag": "Subzero", "prefix": "KSU", "user": {"location": {"city": "Acworth", "state": "GA", "country": "United States"}}}}]}, "standing": {"placement": 1, "stats": {"score": {"value": 2}}}}], "games": [{"id": 33197802, "orderNum": 1, "winnerId": 21515754, "entrant1Score": 0, "entrant2Score": null, "stage": null, "selections": [{"id": 49015904, "selectionType": "CHARACTER", "selectionValue": 1273, "entrant": {"id": 21515534}, "character": {"id": 1273, "name": "Bowser"}}, {"id": 49015905, "selectionType": "CHARACTER", "selectionValue": 1341, "entrant": {"id": 21515754}, "character": {"id": 1341, "name": "Zero Suit Samus"}}]}, {"id": 33197803, "orderNum": 2, "winnerId": 21515754, "entrant1Score": 0, "entrant2Score": null, "stage": null, "selections": [{"id": 49015906, "selectionType": "CHARACTER", "selectionValue": 1273, "entrant": {"id": 21515534}, "character": {"id": 1273, "name": "Bowser"}}, {"id": 49015907, "selectionType": "CHARACTER", "selectionValue": 1316, "entrant": {"id": 21515754}, "character": {"id": 1316, "name": "Palutena"}}]}]}, {"id": 94883095, "state": 3, "round": 2, "fullRoundText": "Round 2", "completedAt": 1760139439, "winnerId": 21512536, "slots": [{"id": "94883095-0", "entrant": {"id": 21519158, "name": "Rain~", "participants": [{"id": 19774418, "gamerTag": "Rain~", "prefix": null, "user": {"location": {"city": "Atlanta", "state": "GA", "country": "United States"}}, "player": {"id": 4240164, "gamerTag": "Rain~", "prefix": null, "user": {"location": {"city": "Atlanta", "state": "GA", "country": "United States"}}}}]}, "standing": {"placement": 2, "stats": {"score": {"value": 0}}}}, {"id": "94883095-1", "entrant": {"id": 21512536, "name": "CHEESE", "participants": [{"id": 19768567, "gamerTag": "CHEESE", "prefix": null, "user": {"location": {"city": "Buford", "state": "GA", "country": "United States"}}, "player": {"id": 3429754, "gamerTag": "CHEESE", "prefix": null, "user": {"location": {"city": "Buford", "state": "GA", "country": "United States"}}}}]}, "standing": {"placement": 1, "stats": {"score": {"value": 2}}}}], "games": null}, {"id": 94883096, "state": 3, "round": 2, "fullRoundText": "Round 2", "completedAt": 1760140065, "winnerId": 21505958, "slots": [{"id": "94883096-0", "entrant": {"id": 21505993, "name": "red dot", "participants": [{"id": 19762721, "gamerTag": "red dot", "prefix": "", "user": {"location": {"city": "Milton", "state": "GA", "country": "United States"}}, "player": {"id": 1812177, "gamerTag": "red dot", "prefix": "", "user": {"location": {"city": "Milton", "state": "GA", "country": "United States"}}}}]}, "standing": {"placement": 2, "stats": {"score": {"value": 0}}}}, {"id": "94883096-1", "entrant": {"id": 21505958, "name": "carlop", "participants": [{"id": 19762689, "gamerTag": "carlop", "prefix": null, "user": {"location": {"city": "Johns Creek", "state": "GA", "country": "United States"}}, "player": {"id": 3431919, "gamerTag": "carlop", "prefix": null, "user": {"location": {"city": "Johns Creek", "state": "GA", "country": "United States"}}}}]}, "standing": {"placement": 1, "stats": {"score": {"value": 2}}}}], "games": null}, {"id": 94883089, "state": 3, "round": 1, "fullRoundText": "Round 1", "completedAt": 1760138786, "winnerId": 21506293, "slots": [{"id": "94883089-0", "entrant": {"id": 21506293, "name": "RM | GUMP2 | AO ASHI SEASON 2 2026", "participants": [{"id": 19763018, "gamerTag": "AO ASHI SEASON 2 2026", "prefix": "RM | GUMP2", "user": {"location": {"city": "Lawrenceville", "state": "GA", "country": "United States"}}, "player": {"id": 2409815, "gamerTag": "AO ASHI SEASON 2 2026", "prefix": "RM | GUMP2", "user": {"location": {"city": "Lawrenceville", "state": "GA", "country": "United States"}}}}]}, "standing": {"placement": 1, "stats": {"score": {"value": 2}}}}, {"id": "94883089-1", "entrant": {"id": 21515534, "name": "KSU | MikePTM", "participants": [{"id": 19771355, "gamerTag": "MikePTM", "prefix": "KSU", "user": {"location": {"city": null, "state": null, "country": "United States"}}, "player": {"id": 3586658, "gamerTag": "MikePTM", "prefix": "KSU", "user": {"location": {"city": null, "state": null, "country": "United States"}}}}]}, "standing": {"placement": 2, "stats": {"score": {"value": 0}}}}], "games": null}, {"id": 94883090, "state": 3, "round": 1, "fullRoundText": "Round 1", "completedAt": 1760142460, "winnerId": 21519158, "slots": [{"id": "94883090-0", "entrant": {"id": 21519158, "name": "Rain~", "participants": [{"id": 19774418, "gamerTag": "Rain~", "prefix": null, "user": {"location": {"city": "Atlanta", "state": "GA", "country": "United States"}}, "player": {"id": 4240164, "gamerTag": "Rain~", "prefix": null, "user": {"location": {"city": "Atlanta", "state": "GA", "country": "United States"}}}}]}, "standing": {"placement": 1, "stats": {"score": {"value": 2}}}}, {"id": "94883090-1", "entrant": {"id": 21505942, "name": "Stock Stealer | T.K.O", "participants": [{"id": 19762677, "gamerTag": "T.K.O", "prefix": "Stock Stealer", "user": {"location": {"city": "Smyrna", "state": "GA", "country": "United States"}}, "player": {"id": 4933114, "gamerTag": "T.K.O", "prefix": "Stock Stealer", "user": {"location": {"city": "Smyrna", "state": "GA", "country": "United States"}}}}]}, "standing": {"placement": 2, "stats": {"score": {"value": 0}}}}], "games": [{"id": 33201193, "orderNum": 1, "winnerId": 21519158, "entrant1Score": null, "entrant2Score": 0, "stage": null, "selections": [{"id": 49020778, "selectionType": "CHARACTER", "selectionValue": 1297, "entrant": {"id": 21505942}, "character": {"id": 1297, "name": "Little Mac"}}, {"id": 49020779, "selectionType": "CHARACTER", "selectionValue": 1301, "entrant": {"id": 21519158}, "character": {"id": 1301, "name": "Luigi"}}]}, {"id": 33201194, "orderNum": 2, "winnerId": 21519158, "entrant1Score": null, "entrant2Score": 0, "stage": null, "selections": [{"id": 49020780, "selectionType": "CHARACTER", "selectionValue": 1297, "entrant": {"id": 21505942}, "character": {"id": 1297, "name": "Little Mac"}}, {"id": 49020781, "selectionType": "CHARACTER", "selectionValue": 1301, "entrant": {"id": 21519158}, "character": {"id": 1301, "name": "Luigi"}}]}]}, {"id": 94883091, "state": 3, "round": 1, "fullRoundText": "Round 1", "completedAt": 1760139017, "winnerId": 21505993, "slots": [{"id": "94883091-0", "entrant": {"id": 21505993, "name": "red dot", "participants": [{"id": 19762721, "gamerTag": "red dot", "prefix": "", "user": {"location": {"city": "Milton", "state": "GA", "country": "United States"}}, "player": {"id": 1812177, "gamerTag": "red dot", "prefix": "", "user": {"location": {"city": "Milton", "state": "GA", "country": "United States"}}}}]}, "standing": {"placement": 1, "stats": {"score": {"value": 2}}}}, {"id": "94883091-1", "entrant": {"id": 21515754, "name": "KSU | Subzero", "participants": [{"id": 19771561, "gamerTag": "Subzero", "prefix": "KSU", "user": {"location": {"city": "Acworth", "state": "GA", "country": "United States"}}, "player": {"id": 1808159, "gamerTag": "Subzero", "prefix": "KSU", "user": {"location": {"city": "Acworth", "state": "GA", "country": "United States"}}}}]}, "standing": {"placement": 2, "stats": {"score": {"value": 1}}}}], "games": [{"id": 33197107, "orderNum": 1, "winnerId": 21515754, "entrant1Score": 0, "entrant2Score": 0, "stage": null, "selections": [{"id": 49014841, "selectionType": "CHARACTER", "selectionValue": 1410, "entrant": {"id": 21505993}, "character": {"id": 1410, "name": "Ken"}}, {"id": 49014842, "selectionType": "CHARACTER", "selectionValue": 1795, "entrant": {"id": 21515754}, "character": {"id": 1795, "name": "Pyra & Mythra"}}]}, {"id": 33197108, "orderNum": 2, "winnerId": 21505993, "entrant1Score": null, "entrant2Score": 0, "stage": null, "selections": [{"id": 49014843, "selectionType": "CHARACTER", "selectionValue": 1410, "entrant": {"id": 21505993}, "character": {"id": 1410, "name": "Ken"}}, {"id": 49014844, "selectionType": "CHARACTER", "selectionValue": 1795, "entrant": {"id": 21515754}, "character": {"id": 1795, "name": "Pyra & Mythra"}}]}, {"id": 33197109, "orderNum": 3, "winnerId": 21505993, "entrant1Score": null, "entrant2Score": 0, "stage": null, "selections": [{"id": 49014845, "selectionType": "CHARACTER", "selectionValue": 1410, "entrant": {"id": 21505993}, "character": {"id": 1410, "name": "Ken"}}, {"id": 49014846, "selectionType": "CHARACTER", "selectionValue": 1795, "entrant": {"id": 21515754}, "character": {"id": 1795, "name": "Pyra & Mythra"}}]}]}, {"id": 94883092, "state": 3, "round": 1, "fullRoundText": "Round 1", "completedAt": 1760138781, "winnerId": 21505958, "slots": [{"id": "94883092-0", "entrant": {"id": 21505958, "name": "carlop", "participants": [{"id": 19762689, "gamerTag": "carlop", "prefix": null, "user": {"location": {"city": "Johns Creek", "state": "GA", "country": "United States"}}, "player": {"id": 3431919, "gamerTag": "carlop", "prefix": null, "user": {"location": {"city": "Johns Creek", "state": "GA", "country": "United States"}}}}]}, "standing": {"placement": 1, "stats": {"score": {"value": 2}}}}, {"id": "94883092-1", "entrant": {"id": 21512536, "name": "CHEESE", "participants": [{"id": 19768567, "gamerTag": "CHEESE", "prefix": null, "user": {"location": {"city": "Buford", "state": "GA", "country": "United States"}}, "player": {"id": 3429754, "gamerTag": "CHEESE", "prefix": null, "user": {"location": {"city": "Buford", "state": "GA", "country": "United States"}}}}]}, "standing": {"placement": 2, "stats": {"score": {"value": 0}}}}], "games": null}, {"id": 94883104, "state": 2, "round": 4, "fullRoundText": "Round 4", "completedAt": null, "winnerId": null, "slots": [{"id": "94883104-0", "entrant": {"id": 21515534, "name": "KSU | MikePTM", "participants": [{"id": 19771355, "gamerTag": "MikePTM", "prefix": "KSU", "user": {"location": {"city": null, "state": null, "country": "United States"}}, "player": {"id": 3586658, "gamerTag": "MikePTM", "prefix": "KSU", "user": {"location": {"city": null, "state": null, "country": "United States"}}}}]}, "standing": {"placement": 2, "stats": {"score": {"value": null}}}}, {"id": "94883104-1", "entrant": {"id": 21519158, "name": "Rain~", "participants": [{"id": 19774418, "gamerTag": "Rain~", "prefix": null, "user": {"location": {"city": "Atlanta", "state": "GA", "country": "United States"}}, "player": {"id": 4240164, "gamerTag": "Rain~", "prefix": null, "user": {"location": {"city": "Atlanta", "state": "GA", "country": "United States"}}}}]}, "standing": {"placement": 2, "stats": {"score": {"value": null}}}}], "games": null}]}}}