{"phase": {"seeds": {"pageInfo": {"totalPages": 1, "total": 11}, "nodes": [{"id": 36439811, "seedNum": 1, "entrant": {"id": 21147403, "name": "Pokchop", "participants": [{"id": 19451118, "gamerTag": "Pokchop", "prefix": null, "user": {"location": {"city": "Atlanta", "state": "GA", "country": "United States"}}, "player": {"id": 150402, "gamerTag": "Pokchop", "prefix": "", "user": {"location": {"city": "Atlanta", "state": "GA", "country": "United States"}}}}]}}, {"id": 36779660, "seedNum": 2, "entrant": {"id": 21380312, "name": "Sativicaa", "participants": [{"id": 19653809, "gamerTag": "Sativicaa", "prefix": "", "user": {"location": {"city": "Atlanta", "state": null, "country": "United States"}}, "player": {"id": 1706244, "gamerTag": "Sativicaa", "prefix": "", "user": {"location": {"city": "Atlanta", "state": null, "country": "United States"}}}}]}}, {"id": 36773447, "seedNum": 3, "entrant": {"id": 21375796, "name": "O.N.2", "participants": [{"id": 19649791, "gamerTag": "O.N.2", "prefix": "", "user": {"location": {"city": "SNELLVILLE", "state": "GA", "country": "United States"}}, "player": {"id": 1042436, "gamerTag": "O.N.2", "prefix": "", "user": {"location": {"city": "SNELLVILLE", "state": "GA", "country": "United States"}}}}]}}, {"id": 36730655, "seedNum": 10, "entrant": {"id": 21345602, "name": "BMG | Lil Capped", "participants": [{"id": 19622649, "gamerTag": "Lil Capped", "prefix": "BMG", "user": {"location": {"city": "Atlanta", "state": "GA", "country": "United States"}}, "player": {"id": 263559, "gamerTag": "Lil Capped", "prefix": "BMG", "user": {"location": {"city": "Atlanta", "state": "GA", "country": "United States"}}}}]}}, {"id": 36725743, "seedNum": 4, "entrant": {"id": 21342132, "name": "BOLT | KhalRhaego", "participants": [{"id": 19619295, "gamerTag": "KhalRhaego", "prefix": "BOLT", "user": {"location": {"city": "Jonesboro", "state": "GA", "country": "United States"}}, "player": {"id": 4076327, "gamerTag": "KhalRhaego", "prefix": "BOLT", "user": {"location": {"city": "Jonesboro", "state": "GA", "country": "United States"}}}}]}}, {"id": 36762101, "seedNum": 5, "entrant": {"id": 21367353, "name": "100% | juice", "participants": [{"id": 19642233, "gamerTag": "juice", "prefix": "100%", "user": {"location": {"city": "atlanta", "state": "GA", "country": "United States"}}, "player": {"id": 146905, "gamerTag": "juice", "prefix": "100%", "user": {"location": {"city": "atlanta", "state": "GA", "country": "United States"}}}}]}}, {"id": 36734886, "seedNum": 6, "entrant": {"id": 21348972, "name": "Buddy3k", "participants": [{"id": 19625680, "gamerTag": "Buddy3k", "prefix": "", "user": {"location": {"city": "Atlanta", "state": "GA", "country": "United States"}}, "player": {"id": 4443794, "gamerTag": "Buddy3k", "prefix": "", "user": {"location": {"city": "Atlanta", "state": "GA", "country": "United States"}}}}]}}, {"id": 36515587, "seedNum": 8, "entrant": {"id": 21198010, "name": "yeat | bussdowncelery", "participants": [{"id": 19495045, "gamerTag": "bussdowncelery", "prefix": "yeat", "user": {"location": {"city": "Atlanta", "state": "GA", "country": "United States"}}, "player": {"id": 2794623, "gamerTag": "bussdowncelery", "prefix": "yeat", "user": {"location": {"city": "Atlanta", "state": "GA", "country": "United States"}}}}]}}, {"id": 36268260, "seedNum": 7, "entrant": {"id": 21031439, "name": "Nurikami", "participants": [{"id": 19346572, "gamerTag": "Nurikami", "prefix": null, "user": {"location": {"city": "Sandy Springs", "state": "GA", "country": "United States"}}, "player": {"id": 2894467, "gamerTag": "Nurikami", "prefix": null, "user": {"location": {"city": "Sandy Springs", "state": "GA", "country": "United States"}}}}]}}, {"id": 36583080, "seedNum": 9, "entrant": {"id": 21243852, "name": "FFonFFon", "participants": [{"id": 19535786, "gamerTag": "FFonFFon", "prefix": "", "user": {"location": {"city": "Lithonia", "state": "GA", "country": "United States"}}, "player": {"id": 4972213, "gamerTag": "FFonFFon", "prefix": "", "user": {"location": {"city": "Lithonia", "state": "GA", "country": "United States"}}}}]}}, {"id": 36782615, "seedNum": 11, "entrant": {"id": 21382127, "name": "MILLANO", "participants": [{"id": 19655353, "gamerTag": "MILLANO", "prefix": "", "user": null, "player": {"id": 4125846, "gamerTag": "MILLANO", "prefix": "", "user": null}}]}}]}}}