{"phase": {"seeds": {"pageInfo": {"totalPages": 1, "total": 12}, "nodes": [{"id": 35765779, "seedNum": 1, "entrant": {"id": 20726241, "name": "vivesthesia", "participants": [{"id": 19074552, "gamerTag": "vivesthesia", "prefix": null, "user": {"location": {"city": "Atlanta", "state": "GA", "country": "United States"}}, "player": {"id": 4395171, "gamerTag": "vivesthesia", "prefix": null, "user": {"location": {"city": "Atlanta", "state": "GA", "country": "United States"}}}}]}}, {"id": 35772114, "seedNum": 3, "entrant": {"id": 20730507, "name": "Karan", "participants": [{"id": 19078191, "gamerTag": "Karan", "prefix": "", "user": {"location": {"city": "Atlanta", "state": "GA", "country": "United States"}}, "player": {"id": 35472, "gamerTag": "Karan", "prefix": "", "user": {"location": {"city": "Atlanta", "state": "GA", "country": "United States"}}}}]}}, {"id": 35765908, "seedNum": 2, "entrant": {"id": 20726362, "name": "audrey", "participants": [{"id": 19074622, "gamerTag": "audrey", "prefix": null, "user": {"location": {"city": "Dunwoody", "state": "GA", "country": "United States"}}, "player": {"id": 1335864, "gamerTag": "audrey", "prefix": null, "user": {"location": {"city": "Dunwoody", "state": "GA", "country": "United States"}}}}]}}, {"id": 35772014, "seedNum": 4, "entrant": {"id": 20730444, "name": "skyguy | Lover", "participants": [{"id": 19078137, "gamerTag": "Lover", "prefix": "skyguy", "user": {"location": {"city": "Atlanta", "state": "GA", "country": "United States"}}, "player": {"id": 53805, "gamerTag": "Lover", "prefix": "skyguy", "user": {"location": {"city": "Atlanta", "state": "GA", "country": "United States"}}}}]}}, {"id": 35776521, "seedNum": 6, "entrant": {"id": 20733161, "name": "citizendog", "participants": [{"id": 19080518, "gamerTag": "citizendog", "prefix": "", "user": {"location": {"city": "Monroe", "state": "GA", "country": "United States"}}, "player": {"id": 176325, "gamerTag": "citizendog", "prefix": "", "user": {"location": {"city": "Monroe", "state": "GA", "country": "United States"}}}}]}}, {"id": 35719572, "seedNum": 8, "entrant": {"id": 20693247, "name": "noided", "participants": [{"id": 19045862, "gamerTag": "noided", "prefix": "", "user": {"location": {"city": "Atlanta", "state": "GA", "country": "United States"}}, "player": {"id": 2586521, "gamerTag": "noided", "prefix": "", "user": {"location": {"city": "Atlanta", "state": "GA", "country": "United States"}}}}]}}, {"id": 35775090, "seedNum": 7, "entrant": {"id": 20731844, "name": "Mouse", "participants": [{"id": 19079387, "gamerTag": "Mouse", "prefix": "", "user": {"location": {"city": "Atlanta", "state": "GA", "country": "United States"}}, "player": {"id": 264732, "gamerTag": "Mouse", "prefix": "", "user": {"location": {"city": "Atlanta", "state": "GA", "country": "United States"}}}}]}}, {"id": 35777216, "seedNum": 10, "entrant": {"id": 20733757, "name": "MSU | transrights420", "participants": [{"id": 19081006, "gamerTag": "transrights420", "prefix": "MSU", "user": {"location": {"city": "Starkville", "state": "MS", "country": "United States"}}, "player": {"id": 1479899, "gamerTag": "transrights420", "prefix": "", "user": {"location": {"city": "Starkville", "state": "MS", "country": "United States"}}}}]}}, {"id": 35775976, "seedNum": 5, "entrant": {"id": 20732679, "name": "Ronan", "participants": [{"id": 19080097, "gamerTag": "Ronan", "prefix": "", "user": {"location": {"city": "Atlanta", "state": "GA", "country": "United States"}}, "player": {"id": 147384, "gamerTag": "Ronan", "prefix": "", "user": {"location": {"city": "Atlanta", "state": "GA", "country": "United States"}}}}]}}, {"id": 35779056, "seedNum": 9, "entrant": {"id": 20734915, "name": "tommy samus", "participants": [{"id": 19081913, "gamerTag": "tommy samus", "prefix": "", "user": null, "player": {"id": 4873753, "gamerTag": "tommy samus", "prefix": "", "user": null}}]}}, {"id": 35775102, "seedNum": 11, "entrant": {"id": 20731856, "name": "2BEERSANDIMTRON", "participants": [{"id": 19079397, "gamerTag": "2BEERSANDIMTRON", "prefix": null, "user": {"location": {"city": null, "state": "GA", "country": "United States"}}, "player": {"id": 3041721, "gamerTag": "2BEERSANDIMTRON", "prefix": null, "user": {"location": {"city": null, "state": "GA", "country": "United States"}}}}]}}, {"id": 35774755, "seedNum": 12, "entrant": {"id": 20731712, "name": "TPS | cryptonic", "participants": [{"id": 19079269, "gamerTag": "cryptonic", "prefix": "TPS", "user": {"location": {"city": "Kennesaw", "state": "GA", "country": "United States"}}, "player": {"id": 3422494, "gamerTag": "$CAITLIN", "prefix": "TPS", "user": {"location": {"city": "Kennesaw", "state": "GA", "country": "United States"}}}}]}}]}}}