{"event": {"sets": {"pageInfo": {"totalPages": 6, "total": 76}, "nodes": [{"id": 93192872, "state": 3, "round": -6, "fullRoundText": "Losers Round 3", "completedAt": 1756431343, "winnerId": 21100984, "slots": [{"id": "93192872-0", "entrant": {"id": 21100984, "name": "Cake", "participants": [{"id": 19409364, "gamerTag": "Cake", "prefix": "", "user": {"location": {"city": "Dallas", "state": "AL", "country": "United States"}}, "player": {"id": 1046075, "gamerTag": "Cake", "prefix": "", "user": {"location": {"city": "Dallas", "state": "AL", "country": "United States"}}}}]}, "standing": {"placement": 1, "stats": {"score": {"value": 2}}}}, {"id": "93192872-1", "entrant": {"id": 21104559, "name": "UTO|WhaLey | Kingwifi", "participants": [{"id": 19412674, "gamerTag": "Kingwifi", "prefix": "UTO|WhaLey", "user": {"location": {"city": "Stone Mountain", "state": "GA", "country": "United States"}}, "player": {"id": 2016149, "gamerTag": "Whaley", "prefix": "KSU|UTO|BLZE", "user": {"location": {"city": "Stone Mountain", "state": "GA", "country": "United States"}}}}]}, "standing": {"placement": 2, "stats": {"score": {"value": 0}}}}], "games": null}, {"id": 93192873, "state": 3, "round": -6, "fullRoundText": "Losers Round 3", "completedAt": 1756431542, "winnerId": 21104015, "slots": [{"id": "93192873-0", "entrant": {"id": 21104015, "name": "Dragonned", "participants": [{"id": 19412195, "gamerTag": "Dragonned", "prefix": "", "user": {"location": {"city": "Fayetteville", "state": "GA", "country": "United States"}}, "player": {"id": 979040, "gamerTag": "Dragonned", "prefix": "", "user": {"location": {"city": "Fayetteville", "state": "GA", "country": "United States"}}}}]}, "standing": {"placement": 1, "stats": {"score": {"value": 2}}}}, {"id": "93192873-1", "entrant": {"id": 21102919, "name": "Bagel", "participants": [{"id": 19411198, "gamerTag": "Bagel", "prefix": "", "user": {"location": {"city": "Atlanta", "state": "GA", "country": "United States"}}, "player": {"id": 1794753, "gamerTag": "Bagel", "prefix": "", "user": {"location": {"city": "Atlanta", "state": "GA", "country": "United States"}}}}]}, "standing": {"placement": 2, "stats": {"score": {"value": 0}}}}], "games": null}, {"id": 93192874, "state": 3, "round": -6, "fullRoundText": "Losers Round 3", "completedAt": 1756433269, "winnerId": 21104169, "slots": [{"id": "93192874-0", "entrant": {"id": 21104169, "name": "KumaDusk", "participants": [{"id": 19412328, "gamerTag": "KumaDusk", "prefix": "", "user": {"location": {"city": "Lawrenceville", "state": "GA", "country": "United States"}}, "player": {"id": 253909, "gamerTag": "KumaDusk", "prefix": "", "user": {"location": {"city": "Lawrenceville", "state": "GA", "country": "United States"}}}}]}, "standing": {"placement": 1, "stats": {"score": {"value": 2}}}}, {"id": "93192874-1", "entrant": {"id": 21103011, "name": "Rain~", "participants": [{"id": 19411283, "gamerTag": "Rain~", "prefix": null, "user": {"location": {"city": "Atlanta", "state": "GA", "country": "United States"}}, "player": {"id": 4240164, "gamerTag": "Rain~", "prefix": null, "user": {"location": {"city": "Atlanta", "state": "GA", "country": "United States"}}}}]}, "standing": {"placement": 2, "stats": {"score": {"value": 0}}}}], "games": null}, {"id": 93192875, "state": 3, "round": -6, "fullRoundText": "Losers Round 3", "completedAt": 1756431488, "winnerId": 21103107, "slots": [{"id": "93192875-0", "entrant": {"id": 21103107, "name": "MilesisBae", "participants": [{"id": 19411364, "gamerTag": "MilesisBae", "prefix": "", "user": {"location": {"city": "Richmond", "state": "VA", "country": "United States"}}, "player": {"id": 1218383, "gamerTag": "MilesisBae", "prefix": "", "user": {"location": {"city": "Richmond", "state": "VA", "country": "United States"}}}}]}, "standing": {"placement": 1, "stats": {"score": {"value": 2}}}}, {"id": "93192875-1", "entrant": {"id": 21102492, "name": "GUMP2 | JankTrees!", "participants": [{"id": 19410809, "gamerTag": "JankTrees!", "prefix": "GUMP2", "user": {"location": {"city": "Cartersville", "state": "GA", "country": "United States"}}, "player": {"id": 35695, "gamerTag": "JankTrees!", "prefix": "GUMP2", "user": {"location": {"city": "Cartersville", "state": "GA", "country": "United States"}}}}]}, "standing": {"placement": 2, "stats": {"score": {"value": 1}}}}], "games": null}, {"id": 93192876, "state": 3, "round": -6, "fullRoundText": "Losers Round 3", "completedAt": 1756430904, "winnerId": 21077910, "slots": [{"id": "93192876-0", "entrant": {"id": 21077910, "name": "Ave~", "participants": [{"id": 19388610, "gamerTag": "Ave~", "prefix": "", "user": {"location": {"city": null, "state": null, "country": null}}, "player": {"id": 38830, "gamerTag": "Ave~", "prefix": "", "user": {"location": {"city": null, "state": null, "country": null}}}}]}, "standing": {"placement": 1, "stats": {"score": {"value": 2}}}}, {"id": "93192876-1", "entrant": {"id": 21103687, "name": "carlop", "participants": [{"id": 19411893, "gamerTag": "carlop", "prefix": null, "user": {"location": {"city": "Johns Creek", "state": "GA", "country": "United States"}}, "player": {"id": 3431919, "gamerTag": "carlop", "prefix": null, "user": {"location": {"city": "Johns Creek", "state": "GA", "country": "United States"}}}}]}, "standing": {"placement": 2, "stats": {"score": {"value": 0}}}}], "games": null}, {"id": 93192877, "state": 3, "round": -6, "fullRoundText": "Losers Round 3", "completedAt": 1756431731, "winnerId": 21099804, "slots": [{"id": "93192877-0", "entrant": {"id": 21099804, "name": "RM | GUMP2 | Kr!stal:0", "participants": [{"id": 19408301, "gamerTag": "Kr!stal:0", "prefix": "RM | GUMP2", "user": {"location": {"city": "Lawrenceville", "state": "GA", "country": "United States"}}, "player": {"id": 2409815, "gamerTag": "AO ASHI SEASON 2 2026", "prefix": "RM | GUMP2", "user": {"location": {"city": "Lawrenceville", "state": "GA", "country": "United States"}}}}]}, "standing": {"placement": 1, "stats": {"score": {"value": 2}}}}, {"id": "93192877-1", "entrant": {"id": 21103350, "name": "GUMP2 | Woz but evil", "participants": [{"id": 19411598, "gamerTag": "Woz but evil", "prefix": "GUMP2", "user": {"location": {"city": "Avondale Estates", "state": "GA", "country": "United States"}}, "player": {"id": 225744, "gamerTag": "Z I C O", "prefix": "GUMP2", "user": {"location": {"city": "Avondale Estates", "state": "GA", "country": "United States"}}}}]}, "standing": {"placement": 2, "stats": {"score": {"value": 1}}}}], "games": [{"id": 32212002, "orderNum": 1, "winnerId": 21103350, "entrant1Score": 0, "entrant2Score": null, "stage": null, "selections": [{"id": 47472144, "selectionType": "CHARACTER", "selectionValue": 1766, "entrant": {"id": 21099804}, "character": {"id": 1766, "name": "Steve"}}, {"id": 47472145, "selectionType": "CHARACTER", "selectionValue": 1294, "entrant": {"id": 21103350}, "character": {"id": 1294, "name": "King Dedede"}}]}, {"id": 32212003, "orderNum": 2, "winnerId": 21099804, "entrant1Score": null, "entrant2Score": 0, "stage": null, "selections": [{"id": 47472146, "selectionType": "CHARACTER", "selectionValue": 1766, "entrant": {"id": 21099804}, "character": {"id": 1766, "name": "Steve"}}, {"id": 47472147, "selectionType": "CHARACTER", "selectionValue": 1294, "entrant": {"id": 21103350}, "character": {"id": 1294, "name": "King Dedede"}}]}, {"id": 32212004, "orderNum": 3, "winnerId": 21099804, "entrant1Score": null, "entrant2Score": 0, "stage": null, "selections": [{"id": 47472148, "selectionType": "CHARACTER", "selectionValue": 1766, "entrant": {"id": 21099804}, "character": {"id": 1766, "name": "Steve"}}, {"id": 47472149, "selectionType": "CHARACTER", "selectionValue": 1294, "entrant": {"id": 21103350}, "character": {"id": 1294, "name": "King Dedede"}}]}]}, {"id": 93192878, "state": 3, "round": -6, "fullRoundText": "Losers Round 3", "completedAt": 1756432179, "winnerId": 21103281, "slots": [{"id": "93192878-0", "entrant": {"id": 21103281, "name": "MBS | Vivid", "participants": [{"id": 19411533, "gamerTag": "Vivid", "prefix": "MBS", "user": {"location": {"city": "Atl", "state": "GA", "country": "United States"}}, "player": {"id": 499333, "gamerTag": "Vivid", "prefix": "MBS", "user": {"location": {"city": "Atl", "state": "GA", "country": "United States"}}}}]}, "standing": {"placement": 1, "stats": {"score": {"value": 2}}}}, {"id": "93192878-1", "entrant": {"id": 21104447, "name": "Juncineroar", "participants": [{"id": 19412583, "gamerTag": "Juncineroar", "prefix": "", "user": {"location": {"city": "Atlanta", "state": "GA", "country": "United States"}}, "player": {"id": 208790, "gamerTag": "Juncineroar", "prefix": "", "user": {"location": {"city": "Atlanta", "state": "GA", "country": "United States"}}}}]}, "standing": {"placement": 2, "stats": {"score": {"value": 0}}}}], "games": null}, {"id": 93192879, "state": 3, "round": -6, "fullRoundText": "Losers Round 3", "completedAt": 1756431518, "winnerId": 21104029, "slots": [{"id": "93192879-0", "entrant": {"id": 21103418, "name": "PH | Nimbus", "participants": [{"id": 19411658, "gamerTag": "Nimbus", "prefix": "PH", "user": {"location": {"city": "Roswell", "state": "GA", "country": "United States"}}, "player": {"id": 36462, "gamerTag": "Nimbus", "prefix": "PH", "user": {"location": {"city": "Roswell", "state": "GA", "country": "United States"}}}}]}, "standing": {"placement": 2, "stats": {"score": {"value": 1}}}}, {"id": "93192879-1", "entrant": {"id": 21104029, "name": "CFL | Benji", "participants": [{"id": 19412207, "gamerTag": "Benji", "prefix": "CFL", "user": {"location": {"city": "Orlando", "state": "FL", "country": "United States"}}, "player": {"id": 2990255, "gamerTag": "Benji", "prefix": "CFL", "user": {"location": {"city": "Orlando", "state": "FL", "country": "United States"}}}}]}, "standing": {"placement": 1, "stats": {"score": {"value": 2}}}}], "games": null}, {"id": 93192864, "state": 3, "round": -5, "fullRoundText": "Losers Round 2", "completedAt": 1756430728, "winnerId": 21104559, "slots": [{"id": "93192864-0", "entrant": {"id": 21103660, "name": "Mentayy", "participants": [{"id": 19411872, "gamerTag": "Mentayy", "prefix": "", "user": {"location": {"city": null, "state": "GA", "country": "United States"}}, "player": {"id": 2586911, "gamerTag": "Mentayy", "prefix": "", "user": {"location": {"city": null, "state": "GA", "country": "United States"}}}}]}, "standing": {"placement": 2, "stats": {"score": {"value": 1}}}}, {"id": "93192864-1", "entrant": {"id": 21104559, "name": "UTO|WhaLey | Kingwifi", "participants": [{"id": 19412674, "gamerTag": "Kingwifi", "prefix": "UTO|WhaLey", "user": {"location": {"city": "Stone Mountain", "state": "GA", "country": "United States"}}, "player": {"id": 2016149, "gamerTag": "Whaley", "prefix": "KSU|UTO|BLZE", "user": {"location": {"city": "Stone Mountain", "state": "GA", "country": "United States"}}}}]}, "standing": {"placement": 1, "stats": {"score": {"value": 2}}}}], "games": [{"id": 32211233, "orderNum": 1, "winnerId": 21104559, "entrant1Score": 0, "entrant2Score": null, "stage": null, "selections": [{"id": 47470871, "selectionType": "CHARACTER", "selectionValue": 1326, "entrant": {"id": 21103660}, "character": {"id": 1326, "name": "Roy"}}, {"id": 47470872, "selectionType": "CHARACTER", "selectionValue": 1777, "entrant": {"id": 21104559}, "character": {"id": 1777, "name": "Sephiroth"}}]}, {"id": 32211234, "orderNum": 2, "winnerId": 21103660, "entrant1Score": null, "entrant2Score": 0, "stage": null, "selections": [{"id": 47470873, "selectionType": "CHARACTER", "selectionValue": 1326, "entrant": {"id": 21103660}, "character": {"id": 1326, "name": "Roy"}}, {"id": 47470874, "selectionType": "CHARACTER", "selectionValue": 1777, "entrant": {"id": 21104559}, "character": {"id": 1777, "name": "Sephiroth"}}]}, {"id": 32211235, "orderNum": 3, "winnerId": 21104559, "entrant1Score": 0, "entrant2Score": null, "stage": null, "selections": [{"id": 47470875, "selectionType": "CHARACTER", "selectionValue": 1326, "entrant": {"id": 21103660}, "character": {"id": 1326, "name": "Roy"}}, {"id": 47470876, "selectionType": "CHARACTER", "selectionValue": 1294, "entrant": {"id": 21104559}, "character": {"id": 1294, "name": "King Dedede"}}]}]}, {"id": 93192865, "state": 3, "round": -5, "fullRoundText": "Losers Round 2", "completedAt": 1756430893, "winnerId": 21102919, "slots": [{"id": "93192865-0", "entrant": {"id": 21103636, "name": "VA | StreetDzine", "participants": [{"id": 19411853, "gamerTag": "StreetDzine", "prefix": "VA", "user": {"location": {"city": null, "state": null, "country": "United States"}}, "player": {"id": 989587, "gamerTag": "StreetDzine", "prefix": "VA", "user": {"location": {"city": null, "state": null, "country": "United States"}}}}]}, "standing": {"placement": 2, "stats": {"score": {"value": 1}}}}, {"id": "93192865-1", "entrant": {"id": 21102919, "name": "Bagel", "participants": [{"id": 19411198, "gamerTag": "Bagel", "prefix": "", "user": {"location": {"city": "Atlanta", "state": "GA", "country": "United States"}}, "player": {"id": 1794753, "gamerTag": "Bagel", "prefix": "", "user": {"location": {"city": "Atlanta", "state": "GA", "country": "United States"}}}}]}, "standing": {"placement": 1, "stats": {"score": {"value": 2}}}}], "games": [{"id": 32211370, "orderNum": 1, "winnerId": 21102919, "entrant1Score": 0, "entrant2Score": null, "stage": null, "selections": [{"id": 47471122, "selectionType": "CHARACTER", "selectionValue": 1277, "entrant": {"id": 21102919}, "character": {"id": 1277, "name": "Daisy"}}, {"id": 47471123, "selectionType": "CHARACTER", "selectionValue": 1276, "entrant": {"id": 21103636}, "character": {"id": 1276, "name": "Corrin"}}]}, {"id": 32211371, "orderNum": 2, "winnerId": 21103636, "entrant1Score": null, "entrant2Score": 0, "stage": null, "selections": [{"id": 47471124, "selectionType": "CHARACTER", "selectionValue": 1277, "entrant": {"id": 21102919}, "character": {"id": 1277, "name": "Daisy"}}, {"id": 47471125, "selectionType": "CHARACTER", "selectionValue": 1276, "entrant": {"id": 21103636}, "character": {"id": 1276, "name": "Corrin"}}]}, {"id": 32211372, "orderNum": 3, "winnerId": 21102919, "entrant1Score": 0, "entrant2Score": null, "stage": null, "selections": [{"id": 47471126, "selectionType": "CHARACTER", "selectionValue": 1277, "entrant": {"id": 21102919}, "character": {"id": 1277, "name": "Daisy"}}, {"id": 47471127, "selectionType": "CHARACTER", "selectionValue": 1276, "entrant": {"id": 21103636}, "character": {"id": 1276, "name": "Corrin"}}]}]}, {"id": 93192866, "state": 3, "round": -5, "fullRoundText": "Losers Round 2", "completedAt": 1756430369, "winnerId": 21103011, "slots": [{"id": "93192866-0", "entrant": {"id": 21103345, "name": "red dot", "participants": [{"id": 19411593, "gamerTag": "red dot", "prefix": "", "user": {"location": {"city": "Milton", "state": "GA", "country": "United States"}}, "player": {"id": 1812177, "gamerTag": "red dot", "prefix": "", "user": {"location": {"city": "Milton", "state": "GA", "country": "United States"}}}}]}, "standing": {"placement": 2, "stats": {"score": {"value": 0}}}}, {"id": "93192866-1", "entrant": {"id": 21103011, "name": "Rain~", "participants": [{"id": 19411283, "gamerTag": "Rain~", "prefix": null, "user": {"location": {"city": "Atlanta", "state": "GA", "country": "United States"}}, "player": {"id": 4240164, "gamerTag": "Rain~", "prefix": null, "user": {"location": {"city": "Atlanta", "state": "GA", "country": "United States"}}}}]}, "standing": {"placement": 1, "stats": {"score": {"value": 2}}}}], "games": null}, {"id": 93192867, "state": 3, "round": -5, "fullRoundText": "Losers Round 2", "completedAt": 1756430539, "winnerId": 21102492, "slots": [{"id": "93192867-0", "entrant": {"id": 21102492, "name": "GUMP2 | JankTrees!", "participants": [{"id": 19410809, "gamerTag": "JankTrees!", "prefix": "GUMP2", "user": {"location": {"city": "Cartersville", "state": "GA", "country": "United States"}}, "player": {"id": 35695, "gamerTag": "JankTrees!", "prefix": "GUMP2", "user": {"location": {"city": "Cartersville", "state": "GA", "country": "United States"}}}}]}, "standing": {"placement": 1, "stats": {"score": {"value": 2}}}}, {"id": "93192867-1", "entrant": {"id": 21099646, "name": "KSU | Subzero", "participants": [{"id": 19408148, "gamerTag": "Subzero", "prefix": "KSU", "user": {"location": {"city": "Acworth", "state": "GA", "country": "United States"}}, "player": {"id": 1808159, "gamerTag": "Subzero", "prefix": "KSU", "user": {"location": {"city": "Acworth", "state": "GA", "country": "United States"}}}}]}, "standing": {"placement": 2, "stats": {"score": {"value": 0}}}}], "games": null}, {"id": 93192868, "state": 3, "round": -5, "fullRoundText": "Losers Round 2", "completedAt": 1756429509, "winnerId": 21103687, "slots": [{"id": "93192868-0", "entrant": {"id": 21102406, "name": "4o4 | Sh33rZ", "participants": [{"id": 19410725, "gamerTag": "Sh33rZ", "prefix": "4o4", "user": {"location": {"city": "alpharetta", "state": "GA", "country": "United States"}}, "player": {"id": 3640465, "gamerTag": "Sh33rZ", "prefix": "4o4", "user": {"location": {"city": "alpharetta", "state": "GA", "country": "United States"}}}}]}, "standing": {"placement": 2, "stats": {"score": {"value": 0}}}}, {"id": "93192868-1", "entrant": {"id": 21103687, "name": "carlop", "participants": [{"id": 19411893, "gamerTag": "carlop", "prefix": null, "user": {"location": {"city": "Johns Creek", "state": "GA", "country": "United States"}}, "player": {"id": 3431919, "gamerTag": "carlop", "prefix": null, "user": {"location": {"city": "Johns Creek", "state": "GA", "country": "United States"}}}}]}, "standing": {"placement": 1, "stats": {"score": {"value": 2}}}}], "games": null}, {"id": 93192869, "state": 3, "round": -5, "fullRoundText": "Losers Round 2", "completedAt": 1756430617, "winnerId": 21103350, "slots": [{"id": "93192869-0", "entrant": {"id": 21103350, "name": "GUMP2 | Woz but evil", "participants": [{"id": 19411598, "gamerTag": "Woz but evil", "prefix": "GUMP2", "user": {"location": {"city": "Avondale Estates", "state": "GA", "country": "United States"}}, "player": {"id": 225744, "gamerTag": "Z I C O", "prefix": "GUMP2", "user": {"location": {"city": "Avondale Estates", "state": "GA", "country": "United States"}}}}]}, "standing": {"placement": 1, "stats": {"score": {"value": 2}}}}, {"id": "93192869-1", "entrant": {"id": 21078274, "name": "jack | jazzman", "participants": [{"id": 19388919, "gamerTag": "jazzman", "prefix": "jack", "user": {"location": {"city": "Athens", "state": "GA", "country": "United States"}}, "player": {"id": 3883272, "gamerTag": "jazzman", "prefix": "jack", "user": {"location": {"city": "Athens", "state": "GA", "country": "United States"}}}}]}, "standing": {"placement": 2, "stats": {"score": {"value": 1}}}}], "games": null}, {"id": 93192870, "state": 3, "round": -5, "fullRoundText": "Losers Round 2", "completedAt": 1756431214, "winnerId": 21104447, "slots": [{"id": "93192870-0", "entrant": {"id": 21103376, "name": "Pleeploploop", "participants": [{"id": 19411622, "gamerTag": "Pleeploploop", "prefix": "", "user": {"location": {"city": "Snellville", "state": null, "country": "United States"}}, "player": {"id": 1739676, "gamerTag": "Pleeploploop", "prefix": "", "user": {"location": {"city": "Snellville", "state": null, "country": "United States"}}}}]}, "standing": {"placement": 2, "stats": {"score": {"value": 0}}}}, {"id": "93192870-1", "entrant": {"id": 21104447, "name": "Juncineroar", "participants": [{"id": 19412583, "gamerTag": "Juncineroar", "prefix": "", "user": {"location": {"city": "Atlanta", "state": "GA", "country": "United States"}}, "player": {"id": 208790, "gamerTag": "Juncineroar", "prefix": "", "user": {"location": {"city": "Atlanta", "state": "GA", "country": "United States"}}}}]}, "standing": {"placement": 1, "stats": {"score": {"value": 2}}}}], "games": null}]}}}