{"event": {"sets": {"pageInfo": {"totalPages": 4, "total": 53}, "nodes": [{"id": 91543536, "state": 3, "round": 5, "fullRoundText": "Round 5", "completedAt": 1752889626, "winnerId": 20621488, "slots": [{"id": "91543536-0", "entrant": {"id": 20621377, "name": "TnT | Monologgue", "participants": [{"id": 18983633, "gamerTag": "Monologgue", "prefix": "TnT", "user": {"location": {"city": "Atlanta", "state": "GA", "country": "United States"}}, "player": {"id": 1135679, "gamerTag": "Monologgue", "prefix": "TnT", "user": {"location": {"city": "Atlanta", "state": "GA", "country": "United States"}}}}]}, "standing": {"placement": 2, "stats": {"score": {"value": 0}}}}, {"id": "91543536-1", "entrant": {"id": 20621488, "name": "Dubz", "participants": [{"id": 18983732, "gamerTag": "Dubz", "prefix": null, "user": {"location": {"city": "Grayson", "state": "GA", "country": "United States"}}, "player": {"id": 22583, "gamerTag": "Dubz", "prefix": "", "user": {"location": {"city": "Grayson", "state": "GA", "country": "United States"}}}}]}, "standing": {"placement": 1, "stats": {"score": {"value": 2}}}}], "games": null}, {"id": 91543417, "state": 3, "round": 5, "fullRoundText": "Round 5", "completedAt": 1752891235, "winnerId": 20621519, "slots": [{"id": "91543417-0", "entrant": {"id": 20621498, "name": "TnT | Damp\u00e9", "participants": [{"id": 18983743, "gamerTag": "Damp\u00e9", "prefix": "TnT", "user": {"location": {"city": "Atlanta", "state": "GA", "country": "United States"}}, "player": {"id": 1170738, "gamerTag": "Damp\u00e9", "prefix": "TnT", "user": {"location": {"city": "Atlanta", "state": "GA", "country": "United States"}}}}]}, "standing": {"placement": 2, "stats": {"score": {"value": 0}}}}, {"id": "91543417-1", "entrant": {"id": 20621519, "name": "STiCK", "participants": [{"id": 18983760, "gamerTag": "STiCK", "prefix": null, "user": {"location": {"city": "Woodstock", "state": "GA", "country": "United States"}}, "player": {"id": 282674, "gamerTag": "STiCK", "prefix": "GUMP2", "user": {"location": {"city": "Woodstock", "state": "GA", "country": "United States"}}}}]}, "standing": {"placement": 1, "stats": {"score": {"value": 2}}}}], "games": null}, {"id": 91543537, "state": 3, "round": 5, "fullRoundText": "Round 5", "completedAt": 1752884366, "winnerId": 20621378, "slots": [{"id": "91543537-0", "entrant": {"id": 20621378, "name": "Zarek", "participants": [{"id": 18983634, "gamerTag": "Zarek", "prefix": "", "user": {"location": {"city": "Atlanta", "state": "GA", "country": "United States"}}, "player": {"id": 405682, "gamerTag": "Zarek", "prefix": "", "user": {"location": {"city": "Atlanta", "state": "GA", "country": "United States"}}}}]}, "standing": {"placement": 1, "stats": {"score": {"value": null}}}}, {"id": "91543537-1", "entrant": {"id": 20621491, "name": "Barbashop", "participants": [{"id": 18983736, "gamerTag": "Barbashop", "prefix": "", "user": {"location": {"city": null, "state": null, "country": null}}, "player": {"id": 2537853, "gamerTag": "Barbashop", "prefix": "", "user": {"location": {"city": null, "state": null, "country": null}}}}]}, "standing": {"placement": 2, "stats": {"score": {"value": -1}}}}], "games": null}, {"id": 91543412, "state": 3, "round": 4, "fullRoundText": "Round 4", "completedAt": 1752891456, "winnerId": 20621556, "slots": [{"id": "91543412-0", "entrant": {"id": 20621556, "name": "Tobe", "participants": [{"id": 18983792, "gamerTag": "Tobe", "prefix": "", "user": {"location": {"city": "Buford", "state": "GA", "country": "United States"}}, "player": {"id": 1646132, "gamerTag": "Tobe", "prefix": "", "user": {"location": {"city": "Buford", "state": "GA", "country": "United States"}}}}]}, "standing": {"placement": 1, "stats": {"score": {"value": 2}}}}, {"id": "91543412-1", "entrant": {"id": 20621435, "name": "RAMS | RussianJesus", "participants": [{"id": 18983686, "gamerTag": "RussianJesus", "prefix": "RAMS", "user": {"location": {"city": "Atlanta", "state": "GA", "country": "United States"}}, "player": {"id": 1140567, "gamerTag": "RussianJesus", "prefix": "RAMS", "user": {"location": {"city": "Atlanta", "state": "GA", "country": "United States"}}}}]}, "standing": {"placement": 2, "stats": {"score": {"value": 0}}}}], "games": null}, {"id": 91543532, "state": 3, "round": 4, "fullRoundText": "Round 4", "completedAt": 1752888080, "winnerId": 20621515, "slots": [{"id": "91543532-0", "entrant": {"id": 20621515, "name": "KumaDusk", "participants": [{"id": 18983757, "gamerTag": "KumaDusk", "prefix": "", "user": {"location": {"city": "Lawrenceville", "state": "GA", "country": "United States"}}, "player": {"id": 253909, "gamerTag": "KumaDusk", "prefix": "", "user": {"location": {"city": "Lawrenceville", "state": "GA", "country": "United States"}}}}]}, "standing": {"placement": 1, "stats": {"score": {"value": 2}}}}, {"id": "91543532-1", "entrant": {"id": 20621377, "name": "TnT | Monologgue", "participants": [{"id": 18983633, "gamerTag": "Monologgue", "prefix": "TnT", "user": {"location": {"city": "Atlanta", "state": "GA", "country": "United States"}}, "player": {"id": 1135679, "gamerTag": "Monologgue", "prefix": "TnT", "user": {"location": {"city": "Atlanta", "state": "GA", "country": "United States"}}}}]}, "standing": {"placement": 2, "stats": {"score": {"value": 0}}}}], "games": null}, {"id": 91543413, "state": 3, "round": 4, "fullRoundText": "Round 4", "completedAt": 1752892513, "winnerId": 20621498, "slots": [{"id": "91543413-0", "entrant": {"id": 20621498, "name": "TnT | Damp\u00e9", "participants": [{"id": 18983743, "gamerTag": "Damp\u00e9", "prefix": "TnT", "user": {"location": {"city": "Atlanta", "state": "GA", "country": "United States"}}, "player": {"id": 1170738, "gamerTag": "Damp\u00e9", "prefix": "TnT", "user": {"location": {"city": "Atlanta", "state": "GA", "country": "United States"}}}}]}, "standing": {"placement": 1, "stats": {"score": {"value": 2}}}}, {"id": "91543413-1", "entrant": {"id": 20621384, "name": "C$ | holdmypockets", "participants": [{"id": 18983641, "gamerTag": "holdmypockets", "prefix": "C$", "user": {"location": {"city": "Fayetteville", "state": "GA", "country": "United States"}}, "player": {"id": 617199, "gamerTag": "holdmypockets", "prefix": "C$", "user": {"location": {"city": "Fayetteville", "state": "GA", "country": "United States"}}}}]}, "standing": {"placement": 2, "stats": {"score": {"value": 0}}}}], "games": null}, {"id": 91543533, "state": 3, "round": 4, "fullRoundText": "Round 4", "completedAt": 1752890150, "winnerId": 20621493, "slots": [{"id": "91543533-0", "entrant": {"id": 20621378, "name": "Zarek", "participants": [{"id": 18983634, "gamerTag": "Zarek", "prefix": "", "user": {"location": {"city": "Atlanta", "state": "GA", "country": "United States"}}, "player": {"id": 405682, "gamerTag": "Zarek", "prefix": "", "user": {"location": {"city": "Atlanta", "state": "GA", "country": "United States"}}}}]}, "standing": {"placement": 2, "stats": {"score": {"value": 0}}}}, {"id": "91543533-1", "entrant": {"id": 20621493, "name": "AshNoJoy", "participants": [{"id": 18983738, "gamerTag": "AshNoJoy", "prefix": "", "user": {"location": {"city": "Phenix City", "state": "AL", "country": "United States"}}, "player": {"id": 3141674, "gamerTag": "AshNoJoy", "prefix": "", "user": {"location": {"city": "Phenix City", "state": "AL", "country": "United States"}}}}]}, "standing": {"placement": 1, "stats": {"score": {"value": 2}}}}], "games": [{"id": 31357315, "orderNum": 1, "winnerId": 20621493, "entrant1Score": 0, "entrant2Score": 0, "stage": null, "selections": [{"id": 46146155, "selectionType": "CHARACTER", "selectionValue": 1338, "entrant": {"id": 20621378}, "character": {"id": 1338, "name": "Yoshi"}}, {"id": 46146156, "selectionType": "CHARACTER", "selectionValue": 1334, "entrant": {"id": 20621493}, "character": {"id": 1334, "name": "Villager"}}]}, {"id": 31357316, "orderNum": 2, "winnerId": 20621493, "entrant1Score": 0, "entrant2Score": 0, "stage": null, "selections": [{"id": 46146157, "selectionType": "CHARACTER", "selectionValue": 1338, "entrant": {"id": 20621378}, "character": {"id": 1338, "name": "Yoshi"}}, {"id": 46146158, "selectionType": "CHARACTER", "selectionValue": 1334, "entrant": {"id": 20621493}, "character": {"id": 1334, "name": "Villager"}}]}]}, {"id": 91543414, "state": 3, "round": 4, "fullRoundText": "Round 4", "completedAt": 1752886289, "winnerId": 20621483, "slots": [{"id": "91543414-0", "entrant": {"id": 20621496, "name": "TFT | BigCheese", "participants": [{"id": 18983741, "gamerTag": "BigCheese", "prefix": "TFT", "user": {"location": {"city": null, "state": null, "country": null}}, "player": {"id": 3991446, "gamerTag": "BigCheese", "prefix": "TFT", "user": {"location": {"city": null, "state": null, "country": null}}}}]}, "standing": {"placement": 2, "stats": {"score": {"value": 0}}}}, {"id": "91543414-1", "entrant": {"id": 20621483, "name": "TFT | Frank", "participants": [{"id": 18983727, "gamerTag": "Frank", "prefix": "TFT", "user": {"location": {"city": "Doraville", "state": "GA", "country": "United States"}}, "player": {"id": 1227401, "gamerTag": "Terry Labonte", "prefix": "TFT", "user": {"location": {"city": "Doraville", "state": "GA", "country": "United States"}}}}]}, "standing": {"placement": 1, "stats": {"score": {"value": 2}}}}], "games": null}, {"id": 91543534, "state": 3, "round": 4, "fullRoundText": "Round 4", "completedAt": 1752887925, "winnerId": 20621488, "slots": [{"id": "91543534-0", "entrant": {"id": 20733027, "name": "Jdaddy", "participants": [{"id": 19042273, "gamerTag": "Jdaddy", "prefix": null, "user": {"location": {"city": "Atlanta", "state": "GA", "country": "United States"}}, "player": {"id": 4384721, "gamerTag": "Jdaddy", "prefix": null, "user": {"location": {"city": "Atlanta", "state": "GA", "country": "United States"}}}}]}, "standing": {"placement": 2, "stats": {"score": {"value": 1}}}}, {"id": "91543534-1", "entrant": {"id": 20621488, "name": "Dubz", "participants": [{"id": 18983732, "gamerTag": "Dubz", "prefix": null, "user": {"location": {"city": "Grayson", "state": "GA", "country": "United States"}}, "player": {"id": 22583, "gamerTag": "Dubz", "prefix": "", "user": {"location": {"city": "Grayson", "state": "GA", "country": "United States"}}}}]}, "standing": {"placement": 1, "stats": {"score": {"value": 2}}}}], "games": null}, {"id": 91555478, "state": 3, "round": 3, "fullRoundText": "Grand Final", "completedAt": 1752899906, "winnerId": 20621556, "slots": [{"id": "91555478-0", "entrant": {"id": 20621515, "name": "KumaDusk", "participants": [{"id": 18983757, "gamerTag": "KumaDusk", "prefix": "", "user": {"location": {"city": "Lawrenceville", "state": "GA", "country": "United States"}}, "player": {"id": 253909, "gamerTag": "KumaDusk", "prefix": "", "user": {"location": {"city": "Lawrenceville", "state": "GA", "country": "United States"}}}}]}, "standing": {"placement": 2, "stats": {"score": {"value": 0}}}}, {"id": "91555478-1", "entrant": {"id": 20621556, "name": "Tobe", "participants": [{"id": 18983792, "gamerTag": "Tobe", "prefix": "", "user": {"location": {"city": "Buford", "state": "GA", "country": "United States"}}, "player": {"id": 1646132, "gamerTag": "Tobe", "prefix": "", "user": {"location": {"city": "Buford", "state": "GA", "country": "United States"}}}}]}, "standing": {"placement": 1, "stats": {"score": {"value": 3}}}}], "games": null}, {"id": 91555479, "state": 3, "round": 3, "fullRoundText": "Grand Final Reset", "completedAt": 1752899911, "winnerId": 20621556, "slots": [{"id": "91555479-0", "entrant": {"id": 20621556, "name": "Tobe", "participants": [{"id": 18983792, "gamerTag": "Tobe", "prefix": "", "user": {"location": {"city": "Buford", "state": "GA", "country": "United States"}}, "player": {"id": 1646132, "gamerTag": "Tobe", "prefix": "", "user": {"location": {"city": "Buford", "state": "GA", "country": "United States"}}}}]}, "standing": {"placement": 1, "stats": {"score": {"value": 3}}}}, {"id": "91555479-1", "entrant": {"id": 20621515, "name": "KumaDusk", "participants": [{"id": 18983757, "gamerTag": "KumaDusk", "prefix": "", "user": {"location": {"city": "Lawrenceville", "state": "GA", "country": "United States"}}, "player": {"id": 253909, "gamerTag": "KumaDusk", "prefix": "", "user": {"location": {"city": "Lawrenceville", "state": "GA", "country": "United States"}}}}]}, "standing": {"placement": 2, "stats": {"score": {"value": 0}}}}], "games": null}, {"id": 91543409, "state": 3, "round": 3, "fullRoundText": "Round 3", "completedAt": 1752887829, "winnerId": 20621556, "slots": [{"id": "91543409-0", "entrant": {"id": 20621556, "name": "Tobe", "participants": [{"id": 18983792, "gamerTag": "Tobe", "prefix": "", "user": {"location": {"city": "Buford", "state": "GA", "country": "United States"}}, "player": {"id": 1646132, "gamerTag": "Tobe", "prefix": "", "user": {"location": {"city": "Buford", "state": "GA", "country": "United States"}}}}]}, "standing": {"placement": 1, "stats": {"score": {"value": 2}}}}, {"id": "91543409-1", "entrant": {"id": 20621498, "name": "TnT | Damp\u00e9", "participants": [{"id": 18983743, "gamerTag": "Damp\u00e9", "prefix": "TnT", "user": {"location": {"city": "Atlanta", "state": "GA", "country": "United States"}}, "player": {"id": 1170738, "gamerTag": "Damp\u00e9", "prefix": "TnT", "user": {"location": {"city": "Atlanta", "state": "GA", "country": "United States"}}}}]}, "standing": {"placement": 2, "stats": {"score": {"value": 1}}}}], "games": null}, {"id": 91543529, "state": 3, "round": 3, "fullRoundText": "Round 3", "completedAt": 1752887121, "winnerId": 20621515, "slots": [{"id": "91543529-0", "entrant": {"id": 20621515, "name": "KumaDusk", "participants": [{"id": 18983757, "gamerTag": "KumaDusk", "prefix": "", "user": {"location": {"city": "Lawrenceville", "state": "GA", "country": "United States"}}, "player": {"id": 253909, "gamerTag": "KumaDusk", "prefix": "", "user": {"location": {"city": "Lawrenceville", "state": "GA", "country": "United States"}}}}]}, "standing": {"placement": 1, "stats": {"score": {"value": 2}}}}, {"id": "91543529-1", "entrant": {"id": 20621378, "name": "Zarek", "participants": [{"id": 18983634, "gamerTag": "Zarek", "prefix": "", "user": {"location": {"city": "Atlanta", "state": "GA", "country": "United States"}}, "player": {"id": 405682, "gamerTag": "Zarek", "prefix": "", "user": {"location": {"city": "Atlanta", "state": "GA", "country": "United States"}}}}]}, "standing": {"placement": 2, "stats": {"score": {"value": 1}}}}], "games": [{"id": 31354917, "orderNum": 1, "winnerId": 20621378, "entrant1Score": 0, "entrant2Score": null, "stage": {"id": 378, "name": "Pok\u00e9mon Stadium 2"}, "selections": [{"id": 46141785, "selectionType": "CHARACTER", "selectionValue": 1315, "entrant": {"id": 20621378}, "character": {"id": 1315, "name": "Pac-Man"}}, {"id": 46141786, "selectionType": "CHARACTER", "selectionValue": 1405, "entrant": {"id": 20621515}, "character": {"id": 1405, "name": "Mr. Game & Watch"}}]}, {"id": 31354918, "orderNum": 2, "winnerId": 20621515, "entrant1Score": null, "entrant2Score": 0, "stage": {"id": 484, "name": "Small Battlefield"}, "selections": [{"id": 46141787, "selectionType": "CHARACTER", "selectionValue": 1315, "entrant": {"id": 20621378}, "character": {"id": 1315, "name": "Pac-Man"}}, {"id": 46141788, "selectionType": "CHARACTER", "selectionValue": 1405, "entrant": {"id": 20621515}, "character": {"id": 1405, "name": "Mr. Game & Watch"}}]}, {"id": 31354919, "orderNum": 3, "winnerId": 20621515, "entrant1Score": null, "entrant2Score": 0, "stage": {"id": 397, "name": "Town and City"}, "selections": [{"id": 46141789, "selectionType": "CHARACTER", "selectionValue": 1315, "entrant": {"id": 20621378}, "character": {"id": 1315, "name": "Pac-Man"}}, {"id": 46141790, "selectionType": "CHARACTER", "selectionValue": 1405, "entrant": {"id": 20621515}, "character": {"id": 1405, "name": "Mr. Game & Watch"}}]}]}, {"id": 91543410, "state": 3, "round": 3, "fullRoundText": "Round 3", "completedAt": 1752888522, "winnerId": 20621496, "slots": [{"id": "91543410-0", "entrant": {"id": 20621496, "name": "TFT | BigCheese", "participants": [{"id": 18983741, "gamerTag": "BigCheese", "prefix": "TFT", "user": {"location": {"city": null, "state": null, "country": null}}, "player": {"id": 3991446, "gamerTag": "BigCheese", "prefix": "TFT", "user": {"location": {"city": null, "state": null, "country": null}}}}]}, "standing": {"placement": 1, "stats": {"score": {"value": 2}}}}, {"id": "91543410-1", "entrant": {"id": 20621435, "name": "RAMS | RussianJesus", "participants": [{"id": 18983686, "gamerTag": "RussianJesus", "prefix": "RAMS", "user": {"location": {"city": "Atlanta", "state": "GA", "country": "United States"}}, "player": {"id": 1140567, "gamerTag": "RussianJesus", "prefix": "RAMS", "user": {"location": {"city": "Atlanta", "state": "GA", "country": "United States"}}}}]}, "standing": {"placement": 2, "stats": {"score": {"value": 0}}}}], "games": null}, {"id": 91543530, "state": 3, "round": 3, "fullRoundText": "Round 3", "completedAt": 1752888406, "winnerId": 20621377, "slots": [{"id": "91543530-0", "entrant": {"id": 20733027, "name": "Jdaddy", "participants": [{"id": 19042273, "gamerTag": "Jdaddy", "prefix": null, "user": {"location": {"city": "Atlanta", "state": "GA", "country": "United States"}}, "player": {"id": 4384721, "gamerTag": "Jdaddy", "prefix": null, "user": {"location": {"city": "Atlanta", "state": "GA", "country": "United States"}}}}]}, "standing": {"placement": 2, "stats": {"score": {"value": 1}}}}, {"id": "91543530-1", "entrant": {"id": 20621377, "name": "TnT | Monologgue", "participants": [{"id": 18983633, "gamerTag": "Monologgue", "prefix": "TnT", "user": {"location": {"city": "Atlanta", "state": "GA", "country": "United States"}}, "player": {"id": 1135679, "gamerTag": "Monologgue", "prefix": "TnT", "user": {"location": {"city": "Atlanta", "state": "GA", "country": "United States"}}}}]}, "standing": {"placement": 1, "stats": {"score": {"value": 2}}}}], "games": null}]}}}