{"phase": {"seeds": {"pageInfo": {"totalPages": 1, "total": 6}, "nodes": [{"id": 35992224, "seedNum": 1, "entrant": {"id": 20862755, "name": "TheNickXV", "participants": [{"id": 19197510, "gamerTag": "TheNickXV", "prefix": "", "user": {"location": {"city": null, "state": "GA", "country": "United States"}}, "player": {"id": 1100033, "gamerTag": "TheNickXV", "prefix": "", "user": {"location": {"city": null, "state": "GA", "country": "United States"}}}}]}}, {"id": 36238022, "seedNum": 3, "entrant": {"id": 21013270, "name": "riverr", "participants": [{"id": 19330192, "gamerTag": "riverr", "prefix": "", "user": {"location": {"city": null, "state": null, "country": null}}, "player": {"id": 3523989, "gamerTag": "riverr", "prefix": "", "user": {"location": {"city": null, "state": null, "country": null}}}}]}}, {"id": 35992871, "seedNum": 6, "entrant": {"id": 20863235, "name": "Alex828", "participants": [{"id": 19197963, "gamerTag": "Alex828", "prefix": "", "user": {"location": {"city": "Valdosta", "state": "GA", "country": "United States"}}, "player": {"id": 1630146, "gamerTag": "Alex828", "prefix": "", "user": {"location": {"city": "Valdosta", "state": "GA", "country": "United States"}}}}]}}, {"id": 36055453, "seedNum": 4, "entrant": {"id": 20901446, "name": "RJ2077", "participants": [{"id": 19231372, "gamerTag": "RJ2077", "prefix": null, "user": {"location": {"city": "Newton", "state": "GA", "country": "United States"}}, "player": {"id": 4453997, "gamerTag": "RJ2077", "prefix": null, "user": {"location": {"city": "Newton", "state": "GA", "country": "United States"}}}}]}}, {"id": 36299433, "seedNum": 2, "entrant": {"id": 21053179, "name": "CoachHendo59", "participants": [{"id": 19366392, "gamerTag": "CoachHendo59", "prefix": "", "user": null, "player": {"id": 4937327, "gamerTag": "CoachHendo59", "prefix": "", "user": null}}]}}, {"id": 36021543, "seedNum": 5, "entrant": {"id": 20878189, "name": "crimFANN", "participants": [{"id": 19210991, "gamerTag": "crimFANN", "prefix": "", "user": {"location": {"city": "Valdosta", "state": "GA", "country": "United States"}}, "player": {"id": 2366169, "gamerTag": "crimFANN", "prefix": "", "user": {"location": {"city": "Valdosta", "state": "GA", "country": "United States"}}}}]}}]}}}