{"event": {"sets": {"pageInfo": {"totalPages": 22, "total": 318}, "nodes": [{"id": 92227518, "state": 3, "round": -6, "fullRoundText": "Losers Round 3", "completedAt": 1754170376, "winnerId": 20554478, "slots": [{"id": "92227518-0", "entrant": {"id": 20554478, "name": "Cake", "participants": [{"id": 18925007, "gamerTag": "Cake", "prefix": "", "user": {"location": {"city": "Dallas", "state": "AL", "country": "United States"}}, "player": {"id": 1046075, "gamerTag": "Cake", "prefix": "", "user": {"location": {"city": "Dallas", "state": "AL", "country": "United States"}}}}]}, "standing": {"placement": 1, "stats": {"score": {"value": 2}}}}, {"id": "92227518-1", "entrant": {"id": 20843201, "name": "MONEY | ImNoPro", "participants": [{"id": 19180001, "gamerTag": "ImNoPro", "prefix": "MONEY", "user": {"location": {"city": "Calhoun", "state": "GA", "country": "United States"}}, "player": {"id": 2149803, "gamerTag": "ImNoPro", "prefix": "MONEY", "user": {"location": {"city": "Calhoun", "state": "GA", "country": "United States"}}}}]}, "standing": {"placement": 2, "stats": {"score": {"value": 0}}}}], "games": null}, {"id": 92227756, "state": 3, "round": -6, "fullRoundText": "Losers Round 3", "completedAt": 1754179411, "winnerId": 20488353, "slots": [{"id": "92227756-0", "entrant": {"id": 20488353, "name": "Cromat", "participants": [{"id": 18867338, "gamerTag": "Cromat", "prefix": "", "user": {"location": {"city": "Savannah", "state": "GA", "country": "United States"}}, "player": {"id": 3055798, "gamerTag": "Cromat", "prefix": "", "user": {"location": {"city": "Savannah", "state": "GA", "country": "United States"}}}}]}, "standing": {"placement": 1, "stats": {"score": {"value": 2}}}}, {"id": "92227756-1", "entrant": {"id": 20611006, "name": "REAL | JoseJFB", "participants": [{"id": 18974125, "gamerTag": "JoseJFB", "prefix": "REAL", "user": {"location": {"city": "Atlanta", "state": "GA", "country": "United States"}}, "player": {"id": 29578, "gamerTag": "JoseJFB", "prefix": "REAL", "user": {"location": {"city": "Atlanta", "state": "GA", "country": "United States"}}}}]}, "standing": {"placement": 2, "stats": {"score": {"value": 1}}}}], "games": null}, {"id": 92227327, "state": 3, "round": -6, "fullRoundText": "Losers Round 3", "completedAt": 1754171522, "winnerId": 20498466, "slots": [{"id": "92227327-0", "entrant": {"id": 20498466, "name": "Yonko", "participants": [{"id": 18876446, "gamerTag": "Yonko", "prefix": "", "user": {"location": {"city": "Birmingham", "state": "AL", "country": "United States"}}, "player": {"id": 2453334, "gamerTag": "Yonko", "prefix": "", "user": {"location": {"city": "Birmingham", "state": "AL", "country": "United States"}}}}]}, "standing": {"placement": 1, "stats": {"score": {"value": 2}}}}, {"id": "92227327-1", "entrant": {"id": 20488008, "name": "Sacred", "participants": [{"id": 18867157, "gamerTag": "Sacred", "prefix": "", "user": {"location": {"city": null, "state": null, "country": "United States"}}, "player": {"id": 1007555, "gamerTag": "Sacred", "prefix": "", "user": {"location": {"city": null, "state": null, "country": "United States"}}}}]}, "standing": {"placement": 2, "stats": {"score": {"value": 1}}}}], "games": null}, {"id": 92227969, "state": 3, "round": -6, "fullRoundText": "Losers Round 3", "completedAt": 1754177106, "winnerId": 20566667, "slots": [{"id": "92227969-0", "entrant": {"id": 20566667, "name": "UNCG | Chugs", "participants": [{"id": 18935801, "gamerTag": "Chugs", "prefix": "UNCG", "user": {"location": {"city": "Winston-Salem", "state": "NC", "country": "United States"}}, "player": {"id": 1820508, "gamerTag": "Chugs", "prefix": "UNCG", "user": {"location": {"city": "Winston-Salem", "state": "NC", "country": "United States"}}}}]}, "standing": {"placement": 1, "stats": {"score": {"value": 2}}}}, {"id": "92227969-1", "entrant": {"id": 20842149, "name": "FANN", "participants": [{"id": 19178967, "gamerTag": "FANN", "prefix": "", "user": {"location": {"city": "Valdosta", "state": "GA", "country": "United States"}}, "player": {"id": 2366169, "gamerTag": "crimFANN", "prefix": "", "user": {"location": {"city": "Valdosta", "state": "GA", "country": "United States"}}}}]}, "standing": {"placement": 2, "stats": {"score": {"value": 0}}}}], "games": null}, {"id": 92227757, "state": 3, "round": -6, "fullRoundText": "Losers Round 3", "completedAt": 1754179702, "winnerId": 20615765, "slots": [{"id": "92227757-0", "entrant": {"id": 20615765, "name": "RM | GUMP2 | Kr!stal:0", "participants": [{"id": 18978540, "gamerTag": "Kr!stal:0", "prefix": "RM | GUMP2", "user": {"location": {"city": "Lawrenceville", "state": "GA", "country": "United States"}}, "player": {"id": 2409815, "gamerTag": "AO ASHI SEASON 2 2026", "prefix": "RM | GUMP2", "user": {"location": {"city": "Lawrenceville", "state": "GA", "country": "United States"}}}}]}, "standing": {"placement": 1, "stats": {"score": {"value": 2}}}}, {"id": "92227757-1", "entrant": {"id": 20499634, "name": "sushinap", "participants": [{"id": 18877287, "gamerTag": "sushinap", "prefix": "", "user": {"location": {"city": "BIRMINGHAM", "state": "AL", "country": "United States"}}, "player": {"id": 1092449, "gamerTag": "sushinap", "prefix": "", "user": {"location": {"city": "BIRMINGHAM", "state": "AL", "country": "United States"}}}}]}, "standing": {"placement": 2, "stats": {"score": {"value": 0}}}}], "games": null}, {"id": 92227328, "state": 3, "round": -6, "fullRoundText": "Losers Round 3", "completedAt": 1754171084, "winnerId": 20501806, "slots": [{"id": "92227328-0", "entrant": {"id": 20501806, "name": "GUMP2 | STiCK", "participants": [{"id": 18879245, "gamerTag": "STiCK", "prefix": "GUMP2", "user": {"location": {"city": "Woodstock", "state": "GA", "country": "United States"}}, "player": {"id": 282674, "gamerTag": "STiCK", "prefix": "GUMP2", "user": {"location": {"city": "Woodstock", "state": "GA", "country": "United States"}}}}]}, "standing": {"placement": 1, "stats": {"score": {"value": 2}}}}, {"id": "92227328-1", "entrant": {"id": 20535710, "name": "Coraz\u00f3nCodi", "participants": [{"id": 18909366, "gamerTag": "Coraz\u00f3nCodi", "prefix": "", "user": {"location": {"city": "Stockbridge", "state": "GA", "country": "United States"}}, "player": {"id": 295892, "gamerTag": "Coraz\u00f3nCodi", "prefix": "", "user": {"location": {"city": "Stockbridge", "state": "GA", "country": "United States"}}}}]}, "standing": {"placement": 2, "stats": {"score": {"value": 0}}}}], "games": null}, {"id": 92227519, "state": 3, "round": -6, "fullRoundText": "Losers Round 3", "completedAt": 1754170903, "winnerId": 20674489, "slots": [{"id": "92227519-0", "entrant": {"id": 20773742, "name": "Raven!", "participants": [{"id": 19118186, "gamerTag": "Raven!", "prefix": "", "user": {"location": {"city": "Toney", "state": "AL", "country": "United States"}}, "player": {"id": 3698114, "gamerTag": "Raven!", "prefix": "MTSU | MONO", "user": {"location": {"city": "Toney", "state": "AL", "country": "United States"}}}}]}, "standing": {"placement": 2, "stats": {"score": {"value": 1}}}}, {"id": "92227519-1", "entrant": {"id": 20674489, "name": "Transcendent", "participants": [{"id": 19029548, "gamerTag": "Transcendent", "prefix": "", "user": {"location": {"city": "Lawrenceville", "state": "GA", "country": "United States"}}, "player": {"id": 1671724, "gamerTag": "Transcendent", "prefix": "", "user": {"location": {"city": "Lawrenceville", "state": "GA", "country": "United States"}}}}]}, "standing": {"placement": 1, "stats": {"score": {"value": 2}}}}], "games": null}, {"id": 92227758, "state": 3, "round": -6, "fullRoundText": "Losers Round 3", "completedAt": 1754178744, "winnerId": 20488160, "slots": [{"id": "92227758-0", "entrant": {"id": 20488160, "name": "GUMP2 | Spider", "participants": [{"id": 18867233, "gamerTag": "Spider", "prefix": "GUMP2", "user": {"location": {"city": "Atlanta", "state": "GA", "country": "United States"}}, "player": {"id": 691176, "gamerTag": "Spider", "prefix": "GUMP2", "user": {"location": {"city": "Atlanta", "state": "GA", "country": "United States"}}}}]}, "standing": {"placement": 1, "stats": {"score": {"value": 2}}}}, {"id": "92227758-1", "entrant": {"id": 20653366, "name": "WFF | Happy", "participants": [{"id": 19011376, "gamerTag": "Happy", "prefix": "WFF", "user": {"location": {"city": "Peachtree CIty", "state": "GA", "country": "United States"}}, "player": {"id": 1383907, "gamerTag": "Happy", "prefix": "WFF", "user": {"location": {"city": "Peachtree CIty", "state": "GA", "country": "United States"}}}}]}, "standing": {"placement": 2, "stats": {"score": {"value": 0}}}}], "games": null}, {"id": 92227970, "state": 3, "round": -6, "fullRoundText": "Losers Round 3", "completedAt": 1754177159, "winnerId": 20488065, "slots": [{"id": "92227970-0", "entrant": {"id": 20488065, "name": "Nut Esports | | Geemoney$", "participants": [{"id": 18867205, "gamerTag": "Geemoney$", "prefix": "Nut Esports |", "user": {"location": {"city": "Jacksonville", "state": "FL", "country": "United States"}}, "player": {"id": 252344, "gamerTag": "Geemoney$", "prefix": "", "user": {"location": {"city": "Jacksonville", "state": "FL", "country": "United States"}}}}]}, "standing": {"placement": 1, "stats": {"score": {"value": 2}}}}, {"id": "92227970-1", "entrant": {"id": 20488255, "name": "Burlum", "participants": [{"id": 18867260, "gamerTag": "Burlum", "prefix": "", "user": {"location": {"city": "Lithia Springs", "state": "GA", "country": "United States"}}, "player": {"id": 397537, "gamerTag": "Burlum", "prefix": "", "user": {"location": {"city": "Lithia Springs", "state": "GA", "country": "United States"}}}}]}, "standing": {"placement": 2, "stats": {"score": {"value": 0}}}}], "games": null}, {"id": 92227329, "state": 3, "round": -6, "fullRoundText": "Losers Round 3", "completedAt": 1754171611, "winnerId": 20644087, "slots": [{"id": "92227329-0", "entrant": {"id": 20644087, "name": "Coven | REM!!!", "participants": [{"id": 19003323, "gamerTag": "REM!!!", "prefix": "Coven", "user": {"location": {"city": "Norcross", "state": "MS", "country": "United States"}}, "player": {"id": 4726196, "gamerTag": "REM!!!", "prefix": "Coven", "user": {"location": {"city": "Norcross", "state": "MS", "country": "United States"}}}}]}, "standing": {"placement": 1, "stats": {"score": {"value": 2}}}}, {"id": "92227329-1", "entrant": {"id": 20717425, "name": "HOPE | Sung Jinwoo", "participants": [{"id": 19066790, "gamerTag": "Sung Jinwoo", "prefix": "HOPE", "user": {"location": {"city": "Atlanta", "state": "GA", "country": "United States"}}, "player": {"id": 595350, "gamerTag": "Sung Jinwoo", "prefix": "HOPE", "user": {"location": {"city": "Atlanta", "state": "GA", "country": "United States"}}}}]}, "standing": {"placement": 2, "stats": {"score": {"value": 0}}}}], "games": null}, {"id": 92227520, "state": 3, "round": -6, "fullRoundText": "Losers Round 3", "completedAt": 1754170950, "winnerId": 20709932, "slots": [{"id": "92227520-0", "entrant": {"id": 20709932, "name": "MBS | Vivid", "participants": [{"id": 19060437, "gamerTag": "Vivid", "prefix": "MBS", "user": {"location": {"city": "Atl", "state": "GA", "country": "United States"}}, "player": {"id": 499333, "gamerTag": "Vivid", "prefix": "MBS", "user": {"location": {"city": "Atl", "state": "GA", "country": "United States"}}}}]}, "standing": {"placement": 1, "stats": {"score": {"value": 2}}}}, {"id": "92227520-1", "entrant": {"id": 20557775, "name": "SPANDEX", "participants": [{"id": 18927984, "gamerTag": "SPANDEX", "prefix": "", "user": {"location": {"city": "Bahama", "state": "NC", "country": "United States"}}, "player": {"id": 1467671, "gamerTag": "SPANDEX", "prefix": "", "user": {"location": {"city": "Bahama", "state": "NC", "country": "United States"}}}}]}, "standing": {"placement": 2, "stats": {"score": {"value": 1}}}}], "games": null}, {"id": 92227330, "state": 3, "round": -6, "fullRoundText": "Losers Round 3", "completedAt": 1754171652, "winnerId": 20778023, "slots": [{"id": "92227330-0", "entrant": {"id": 20778023, "name": "Barbashop", "participants": [{"id": 19122132, "gamerTag": "Barbashop", "prefix": "", "user": {"location": {"city": null, "state": null, "country": null}}, "player": {"id": 2537853, "gamerTag": "Barbashop", "prefix": "", "user": {"location": {"city": null, "state": null, "country": null}}}}]}, "standing": {"placement": 1, "stats": {"score": {"value": 2}}}}, {"id": "92227330-1", "entrant": {"id": 20827624, "name": "Zarek", "participants": [{"id": 19166290, "gamerTag": "Zarek", "prefix": "", "user": {"location": {"city": "Atlanta", "state": "GA", "country": "United States"}}, "player": {"id": 405682, "gamerTag": "Zarek", "prefix": "", "user": {"location": {"city": "Atlanta", "state": "GA", "country": "United States"}}}}]}, "standing": {"placement": 2, "stats": {"score": {"value": 0}}}}], "games": null}, {"id": 92227759, "state": 3, "round": -6, "fullRoundText": "Losers Round 3", "completedAt": 1754179186, "winnerId": 20726269, "slots": [{"id": "92227759-0", "entrant": {"id": 20516612, "name": "CoolCactuS", "participants": [{"id": 18892328, "gamerTag": "CoolCactuS", "prefix": null, "user": {"location": {"city": null, "state": null, "country": "United States"}}, "player": {"id": 1885346, "gamerTag": "CoolCactuS", "prefix": "CV", "user": {"location": {"city": null, "state": null, "country": "United States"}}}}]}, "standing": {"placement": 2, "stats": {"score": {"value": 1}}}}, {"id": "92227759-1", "entrant": {"id": 20726269, "name": "Sehbai", "participants": [{"id": 19074573, "gamerTag": "Sehbai", "prefix": "", "user": {"location": {"city": "Oxford", "state": "AL", "country": "United States"}}, "player": {"id": 2181360, "gamerTag": "Sehbai", "prefix": "", "user": {"location": {"city": "Oxford", "state": "AL", "country": "United States"}}}}]}, "standing": {"placement": 1, "stats": {"score": {"value": 2}}}}], "games": null}, {"id": 92227521, "state": 3, "round": -6, "fullRoundText": "Losers Round 3", "completedAt": 1754170906, "winnerId": 20490328, "slots": [{"id": "92227521-0", "entrant": {"id": 20490328, "name": "Nia", "participants": [{"id": 18869058, "gamerTag": "Nia", "prefix": null, "user": {"location": {"city": "Buford", "state": "GA", "country": "United States"}}, "player": {"id": 428070, "gamerTag": "Nia", "prefix": null, "user": {"location": {"city": "Buford", "state": "GA", "country": "United States"}}}}]}, "standing": {"placement": 1, "stats": {"score": {"value": 2}}}}, {"id": "92227521-1", "entrant": {"id": 20492179, "name": "Daiyan", "participants": [{"id": 18870720, "gamerTag": "Daiyan", "prefix": "", "user": {"location": {"city": "Lawrenceville", "state": "GA", "country": "United States"}}, "player": {"id": 1059715, "gamerTag": "Daiyan", "prefix": "", "user": {"location": {"city": "Lawrenceville", "state": "GA", "country": "United States"}}}}]}, "standing": {"placement": 2, "stats": {"score": {"value": 0}}}}], "games": null}, {"id": 92227971, "state": 3, "round": -6, "fullRoundText": "Losers Round 3", "completedAt": 1754177917, "winnerId": 20488054, "slots": [{"id": "92227971-0", "entrant": {"id": 20488054, "name": "GUMP2 | JankTrees!", "participants": [{"id": 18867197, "gamerTag": "JankTrees!", "prefix": "GUMP2", "user": {"location": {"city": "Cartersville", "state": "GA", "country": "United States"}}, "player": {"id": 35695, "gamerTag": "JankTrees!", "prefix": "GUMP2", "user": {"location": {"city": "Cartersville", "state": "GA", "country": "United States"}}}}]}, "standing": {"placement": 1, "stats": {"score": {"value": 2}}}}, {"id": "92227971-1", "entrant": {"id": 20721826, "name": "TCS BTV | Knockoutjoe", "participants": [{"id": 19070831, "gamerTag": "Knockoutjoe", "prefix": "TCS BTV", "user": {"location": {"city": "Antioch", "state": "TN", "country": "United States"}}, "player": {"id": 2741707, "gamerTag": "Knockoutjoe", "prefix": "TCS BTV", "user": {"location": {"city": "Antioch", "state": "TN", "country": "United States"}}}}]}, "standing": {"placement": 2, "stats": {"score": {"value": 0}}}}], "games": null}]}}}