{"phase": {"seeds": {"pageInfo": {"totalPages": 1, "total": 7}, "nodes": [{"id": 36290161, "seedNum": 1, "entrant": {"id": 21046839, "name": "SRN | Games & Flames", "participants": [{"id": 19360738, "gamerTag": "Games & Flames", "prefix": "SRN", "user": {"location": {"city": "Jonesboro", "state": null, "country": "United States"}}, "player": {"id": 1768109, "gamerTag": "Games & Flames", "prefix": "SRN", "user": {"location": {"city": "Jonesboro", "state": null, "country": "United States"}}}}]}}, {"id": 36298882, "seedNum": 2, "entrant": {"id": 21052675, "name": "SmokePudding", "participants": [{"id": 19365948, "gamerTag": "SmokePudding", "prefix": "", "user": {"location": {"city": "Riverdale", "state": "GA", "country": "United States"}}, "player": {"id": 281776, "gamerTag": "SmokePudding", "prefix": "", "user": {"location": {"city": "Riverdale", "state": "GA", "country": "United States"}}}}]}}, {"id": 36301374, "seedNum": 4, "entrant": {"id": 21054692, "name": "BP | GuyFighter", "participants": [{"id": 19367699, "gamerTag": "GuyFighter", "prefix": "BP", "user": {"location": {"city": null, "state": "GA", "country": "United States"}}, "player": {"id": 288975, "gamerTag": "GuyFighter", "prefix": "BP", "user": {"location": {"city": null, "state": "GA", "country": "United States"}}}}]}}, {"id": 36299280, "seedNum": 5, "entrant": {"id": 21053057, "name": "ZB | wolfy", "participants": [{"id": 19366293, "gamerTag": "wolfy", "prefix": "ZB", "user": {"location": {"city": "Tyrone", "state": "GA", "country": "United States"}}, "player": {"id": 295981, "gamerTag": "wolfy", "prefix": "ZB", "user": {"location": {"city": "Tyrone", "state": "GA", "country": "United States"}}}}]}}, {"id": 36197094, "seedNum": 3, "entrant": {"id": 20986401, "name": "CR2 | baronkorvo", "participants": [{"id": 19305802, "gamerTag": "baronkorvo", "prefix": "CR2", "user": {"location": {"city": "Bethlehem", "state": "GA", "country": "United States"}}, "player": {"id": 1186009, "gamerTag": "baronkorvo", "prefix": "CR2", "user": {"location": {"city": "Bethlehem", "state": "GA", "country": "United States"}}}}]}}, {"id": 36199322, "seedNum": 6, "entrant": {"id": 20987861, "name": "ZB | Sanaito", "participants": [{"id": 19307057, "gamerTag": "Sanaito", "prefix": "ZB", "user": {"location": {"city": "Fayetteville", "state": "GA", "country": "United States"}}, "player": {"id": 12761, "gamerTag": "Sanaito", "prefix": "ZB", "user": {"location": {"city": "Fayetteville", "state": "GA", "country": "United States"}}}}]}}, {"id": 36289003, "seedNum": 7, "entrant": {"id": 21045847, "name": "DBQ | Kami", "participants": [{"id": 19359943, "gamerTag": "Kami", "prefix": "DBQ", "user": {"location": {"city": "Fayetteville", "state": "GA", "country": "United States"}}, "player": {"id": 1183115, "gamerTag": "Kami", "prefix": "DBQ", "user": {"location": {"city": "Fayetteville", "state": "GA", "country": "United States"}}}}]}}]}}}