{"event": {"sets": {"pageInfo": {"totalPages": 6, "total": 76}, "nodes": [{"id": 93440262, "state": 3, "round": -8, "fullRoundText": "Losers Round 5", "completedAt": 1756951707, "winnerId": 21162001, "slots": [{"id": "93440262-0", "entrant": {"id": 21162001, "name": "GCH | slaughterwall", "participants": [{"id": 19463824, "gamerTag": "slaughterwall", "prefix": "GCH", "user": {"location": {"city": "Atlanta", "state": "GA", "country": "United States"}}, "player": {"id": 1104452, "gamerTag": "slaughterwall", "prefix": "GCH", "user": {"location": {"city": "Atlanta", "state": "GA", "country": "United States"}}}}]}, "standing": {"placement": 1, "stats": {"score": {"value": 2}}}}, {"id": "93440262-1", "entrant": {"id": 21162371, "name": "Iso.Dgaf", "participants": [{"id": 19464156, "gamerTag": "Iso.Dgaf", "prefix": null, "user": {"location": {"city": "Acworth", "state": "GA", "country": "United States"}}, "player": {"id": 4285541, "gamerTag": "Iso.Dgaf", "prefix": null, "user": {"location": {"city": "Acworth", "state": "GA", "country": "United States"}}}}]}, "standing": {"placement": 2, "stats": {"score": {"value": 0}}}}], "games": null}, {"id": 93440263, "state": 3, "round": -8, "fullRoundText": "Losers Round 5", "completedAt": 1756951545, "winnerId": 21162780, "slots": [{"id": "93440263-0", "entrant": {"id": 21157925, "name": "BOLT | KhalRhaego", "participants": [{"id": 19460136, "gamerTag": "KhalRhaego", "prefix": "BOLT", "user": {"location": {"city": "Jonesboro", "state": "GA", "country": "United States"}}, "player": {"id": 4076327, "gamerTag": "KhalRhaego", "prefix": "BOLT", "user": {"location": {"city": "Jonesboro", "state": "GA", "country": "United States"}}}}]}, "standing": {"placement": 2, "stats": {"score": {"value": 0}}}}, {"id": "93440263-1", "entrant": {"id": 21162780, "name": "LogieBear", "participants": [{"id": 19464507, "gamerTag": "LogieBear", "prefix": "", "user": {"location": {"city": "Snellville", "state": "GA", "country": "United States"}}, "player": {"id": 3809706, "gamerTag": "LogieBear", "prefix": "", "user": {"location": {"city": "Snellville", "state": "GA", "country": "United States"}}}}]}, "standing": {"placement": 1, "stats": {"score": {"value": 2}}}}], "games": null}, {"id": 93440264, "state": 3, "round": -8, "fullRoundText": "Losers Round 5", "completedAt": 1756952204, "winnerId": 21161329, "slots": [{"id": "93440264-0", "entrant": {"id": 21161329, "name": "Rel", "participants": [{"id": 19463236, "gamerTag": "Rel", "prefix": "", "user": {"location": {"city": "Atlanta", "state": null, "country": "United States"}}, "player": {"id": 2774889, "gamerTag": "Rel", "prefix": "", "user": {"location": {"city": "Atlanta", "state": null, "country": "United States"}}}}]}, "standing": {"placement": 1, "stats": {"score": {"value": 2}}}}, {"id": "93440264-1", "entrant": {"id": 21159170, "name": "Azarlith", "participants": [{"id": 19461309, "gamerTag": "Azarlith", "prefix": "", "user": {"location": {"city": "Lawrenceville", "state": null, "country": "United States"}}, "player": {"id": 3444743, "gamerTag": "Azarlith", "prefix": "", "user": {"location": {"city": "Lawrenceville", "state": null, "country": "United States"}}}}]}, "standing": {"placement": 2, "stats": {"score": {"value": 0}}}}], "games": null}, {"id": 93440257, "state": 3, "round": -7, "fullRoundText": "Losers Round 4", "completedAt": 1756950446, "winnerId": 21157267, "slots": [{"id": "93440257-0", "entrant": {"id": 21161523, "name": "Pokchop", "participants": [{"id": 19463419, "gamerTag": "Pokchop", "prefix": "", "user": {"location": {"city": "Atlanta", "state": "GA", "country": "United States"}}, "player": {"id": 150402, "gamerTag": "Pokchop", "prefix": "", "user": {"location": {"city": "Atlanta", "state": "GA", "country": "United States"}}}}]}, "standing": {"placement": 2, "stats": {"score": {"value": 1}}}}, {"id": "93440257-1", "entrant": {"id": 21157267, "name": "100% | juice", "participants": [{"id": 19459537, "gamerTag": "juice", "prefix": "100%", "user": {"location": {"city": "atlanta", "state": "GA", "country": "United States"}}, "player": {"id": 146905, "gamerTag": "juice", "prefix": "100%", "user": {"location": {"city": "atlanta", "state": "GA", "country": "United States"}}}}]}, "standing": {"placement": 1, "stats": {"score": {"value": 2}}}}], "games": null}, {"id": 93440258, "state": 3, "round": -7, "fullRoundText": "Losers Round 4", "completedAt": 1756951150, "winnerId": 21162371, "slots": [{"id": "93440258-0", "entrant": {"id": 21162371, "name": "Iso.Dgaf", "participants": [{"id": 19464156, "gamerTag": "Iso.Dgaf", "prefix": null, "user": {"location": {"city": "Acworth", "state": "GA", "country": "United States"}}, "player": {"id": 4285541, "gamerTag": "Iso.Dgaf", "prefix": null, "user": {"location": {"city": "Acworth", "state": "GA", "country": "United States"}}}}]}, "standing": {"placement": 1, "stats": {"score": {"value": 2}}}}, {"id": "93440258-1", "entrant": {"id": 21159240, "name": "Myk_JUMP", "participants": [{"id": 19461378, "gamerTag": "Myk_JUMP", "prefix": "", "user": {"location": {"city": "Atlanta", "state": "GA", "country": "United States"}}, "player": {"id": 469002, "gamerTag": "Myk_JUMP", "prefix": "", "user": {"location": {"city": "Atlanta", "state": "GA", "country": "United States"}}}}]}, "standing": {"placement": 2, "stats": {"score": {"value": 1}}}}], "games": null}, {"id": 93440259, "state": 3, "round": -7, "fullRoundText": "Losers Round 4", "completedAt": 1756951031, "winnerId": 21162780, "slots": [{"id": "93440259-0", "entrant": {"id": 21162780, "name": "LogieBear", "participants": [{"id": 19464507, "gamerTag": "LogieBear", "prefix": "", "user": {"location": {"city": "Snellville", "state": "GA", "country": "United States"}}, "player": {"id": 3809706, "gamerTag": "LogieBear", "prefix": "", "user": {"location": {"city": "Snellville", "state": "GA", "country": "United States"}}}}]}, "standing": {"placement": 1, "stats": {"score": {"value": 2}}}}, {"id": "93440259-1", "entrant": {"id": 21160635, "name": "Aneubys", "participants": [{"id": 19462631, "gamerTag": "Aneubys", "prefix": "", "user": {"location": {"city": "Smyrna", "state": "GA", "country": "United States"}}, "player": {"id": 3901259, "gamerTag": "Aneubys", "prefix": "", "user": {"location": {"city": "Smyrna", "state": "GA", "country": "United States"}}}}]}, "standing": {"placement": 2, "stats": {"score": {"value": 1}}}}], "games": null}, {"id": 93440260, "state": 3, "round": -7, "fullRoundText": "Losers Round 4", "completedAt": 1756951509, "winnerId": 21159170, "slots": [{"id": "93440260-0", "entrant": {"id": 21159170, "name": "Azarlith", "participants": [{"id": 19461309, "gamerTag": "Azarlith", "prefix": "", "user": {"location": {"city": "Lawrenceville", "state": null, "country": "United States"}}, "player": {"id": 3444743, "gamerTag": "Azarlith", "prefix": "", "user": {"location": {"city": "Lawrenceville", "state": null, "country": "United States"}}}}]}, "standing": {"placement": 1, "stats": {"score": {"value": 2}}}}, {"id": "93440260-1", "entrant": {"id": 21161729, "name": "Owen Dos | BlackHeart", "participants": [{"id": 19463601, "gamerTag": "BlackHeart", "prefix": "Owen Dos", "user": {"location": {"city": "Buford", "state": "GA", "country": "United States"}}, "player": {"id": 2228433, "gamerTag": "BlackHeart", "prefix": "Owen Dos", "user": {"location": {"city": "Buford", "state": "GA", "country": "United States"}}}}]}, "standing": {"placement": 2, "stats": {"score": {"value": 0}}}}], "games": null}, {"id": 93440131, "state": 3, "round": 3, "fullRoundText": "Winners Round 3", "completedAt": 1756947777, "winnerId": 21159408, "slots": [{"id": "93440131-0", "entrant": {"id": 21159408, "name": "O.N.2", "participants": [{"id": 19461531, "gamerTag": "O.N.2", "prefix": "", "user": {"location": {"city": "SNELLVILLE", "state": "GA", "country": "United States"}}, "player": {"id": 1042436, "gamerTag": "O.N.2", "prefix": "", "user": {"location": {"city": "SNELLVILLE", "state": "GA", "country": "United States"}}}}]}, "standing": {"placement": 1, "stats": {"score": {"value": 2}}}}, {"id": "93440131-1", "entrant": {"id": 21158988, "name": "Armanisaint", "participants": [{"id": 19461138, "gamerTag": "Armanisaint", "prefix": null, "user": {"location": {"city": "Roswell", "state": "GA", "country": "United States"}}, "player": {"id": 3943806, "gamerTag": "Armanisaint", "prefix": null, "user": {"location": {"city": "Roswell", "state": "GA", "country": "United States"}}}}]}, "standing": {"placement": 2, "stats": {"score": {"value": 0}}}}], "games": null}, {"id": 93440132, "state": 3, "round": 3, "fullRoundText": "Winners Round 3", "completedAt": 1756949452, "winnerId": 21161153, "slots": [{"id": "93440132-0", "entrant": {"id": 21161153, "name": "JJBREEZE", "participants": [{"id": 19463087, "gamerTag": "JJBREEZE", "prefix": "", "user": {"location": {"city": "Atlanta", "state": "GA", "country": "United States"}}, "player": {"id": 688460, "gamerTag": "JJBREEZE", "prefix": "", "user": {"location": {"city": "Atlanta", "state": "GA", "country": "United States"}}}}]}, "standing": {"placement": 1, "stats": {"score": {"value": 2}}}}, {"id": "93440132-1", "entrant": {"id": 21159631, "name": "InIt2WynneIt", "participants": [{"id": 19461731, "gamerTag": "InIt2WynneIt", "prefix": "", "user": {"location": {"city": "LAWRENCEVILLE", "state": "GA", "country": "United States"}}, "player": {"id": 260407, "gamerTag": "InIt2WynneIt", "prefix": "", "user": {"location": {"city": "LAWRENCEVILLE", "state": "GA", "country": "United States"}}}}]}, "standing": {"placement": 2, "stats": {"score": {"value": 1}}}}], "games": null}, {"id": 93440133, "state": 3, "round": 3, "fullRoundText": "Winners Round 3", "completedAt": 1756949887, "winnerId": 21157644, "slots": [{"id": "93440133-0", "entrant": {"id": 21162789, "name": "Globberman", "participants": [{"id": 19464512, "gamerTag": "Globberman", "prefix": null, "user": {"location": {"city": "Snellville", "state": "GA", "country": "United States"}}, "player": {"id": 3722235, "gamerTag": "Globberman", "prefix": null, "user": {"location": {"city": "Snellville", "state": "GA", "country": "United States"}}}}]}, "standing": {"placement": 2, "stats": {"score": {"value": 0}}}}, {"id": "93440133-1", "entrant": {"id": 21157644, "name": "Sativicaa", "participants": [{"id": 19459875, "gamerTag": "Sativicaa", "prefix": "", "user": {"location": {"city": "Atlanta", "state": null, "country": "United States"}}, "player": {"id": 1706244, "gamerTag": "Sativicaa", "prefix": "", "user": {"location": {"city": "Atlanta", "state": null, "country": "United States"}}}}]}, "standing": {"placement": 1, "stats": {"score": {"value": 2}}}}], "games": null}, {"id": 93440134, "state": 3, "round": 3, "fullRoundText": "Winners Round 3", "completedAt": 1756948700, "winnerId": 21162291, "slots": [{"id": "93440134-0", "entrant": {"id": 21162291, "name": "Ghost | NOMAR", "participants": [{"id": 19464084, "gamerTag": "NOMAR", "prefix": "Ghost", "user": {"location": {"city": "Jonesboro", "state": "GA", "country": "United States"}}, "player": {"id": 427989, "gamerTag": "NOMAR", "prefix": "Ghost", "user": {"location": {"city": "Jonesboro", "state": "GA", "country": "United States"}}}}]}, "standing": {"placement": 1, "stats": {"score": {"value": 2}}}}, {"id": "93440134-1", "entrant": {"id": 21159488, "name": "REHOO", "participants": [{"id": 19461606, "gamerTag": "REHOO", "prefix": null, "user": {"location": {"city": "jonesboro", "state": "GA", "country": "United States"}}, "player": {"id": 427983, "gamerTag": "REHOO", "prefix": null, "user": {"location": {"city": "jonesboro", "state": "GA", "country": "United States"}}}}]}, "standing": {"placement": 2, "stats": {"score": {"value": 0}}}}], "games": null}, {"id": 93440135, "state": 3, "round": 3, "fullRoundText": "Winners Round 3", "completedAt": 1756948420, "winnerId": 21162001, "slots": [{"id": "93440135-0", "entrant": {"id": 21162780, "name": "LogieBear", "participants": [{"id": 19464507, "gamerTag": "LogieBear", "prefix": "", "user": {"location": {"city": "Snellville", "state": "GA", "country": "United States"}}, "player": {"id": 3809706, "gamerTag": "LogieBear", "prefix": "", "user": {"location": {"city": "Snellville", "state": "GA", "country": "United States"}}}}]}, "standing": {"placement": 2, "stats": {"score": {"value": 1}}}}, {"id": "93440135-1", "entrant": {"id": 21162001, "name": "GCH | slaughterwall", "participants": [{"id": 19463824, "gamerTag": "slaughterwall", "prefix": "GCH", "user": {"location": {"city": "Atlanta", "state": "GA", "country": "United States"}}, "player": {"id": 1104452, "gamerTag": "slaughterwall", "prefix": "GCH", "user": {"location": {"city": "Atlanta", "state": "GA", "country": "United States"}}}}]}, "standing": {"placement": 1, "stats": {"score": {"value": 2}}}}], "games": null}, {"id": 93440128, "state": 3, "round": 3, "fullRoundText": "Winners Round 3", "completedAt": 1756948901, "winnerId": 21147406, "slots": [{"id": "93440128-0", "entrant": {"id": 21147406, "name": "Genghis D0n", "participants": [{"id": 19451120, "gamerTag": "Genghis D0n", "prefix": "", "user": {"location": {"city": "Atlanta", "state": "GA", "country": "United States"}}, "player": {"id": 724224, "gamerTag": "Genghis D0n", "prefix": "", "user": {"location": {"city": "Atlanta", "state": "GA", "country": "United States"}}}}]}, "standing": {"placement": 1, "stats": {"score": {"value": 2}}}}, {"id": "93440128-1", "entrant": {"id": 21159240, "name": "Myk_JUMP", "participants": [{"id": 19461378, "gamerTag": "Myk_JUMP", "prefix": "", "user": {"location": {"city": "Atlanta", "state": "GA", "country": "United States"}}, "player": {"id": 469002, "gamerTag": "Myk_JUMP", "prefix": "", "user": {"location": {"city": "Atlanta", "state": "GA", "country": "United States"}}}}]}, "standing": {"placement": 2, "stats": {"score": {"value": 0}}}}], "games": null}, {"id": 93440129, "state": 3, "round": 3, "fullRoundText": "Winners Round 3", "completedAt": 1756949444, "winnerId": 21157925, "slots": [{"id": "93440129-0", "entrant": {"id": 21157925, "name": "BOLT | KhalRhaego", "participants": [{"id": 19460136, "gamerTag": "KhalRhaego", "prefix": "BOLT", "user": {"location": {"city": "Jonesboro", "state": "GA", "country": "United States"}}, "player": {"id": 4076327, "gamerTag": "KhalRhaego", "prefix": "BOLT", "user": {"location": {"city": "Jonesboro", "state": "GA", "country": "United States"}}}}]}, "standing": {"placement": 1, "stats": {"score": {"value": 2}}}}, {"id": "93440129-1", "entrant": {"id": 21162371, "name": "Iso.Dgaf", "participants": [{"id": 19464156, "gamerTag": "Iso.Dgaf", "prefix": null, "user": {"location": {"city": "Acworth", "state": "GA", "country": "United States"}}, "player": {"id": 4285541, "gamerTag": "Iso.Dgaf", "prefix": null, "user": {"location": {"city": "Acworth", "state": "GA", "country": "United States"}}}}]}, "standing": {"placement": 2, "stats": {"score": {"value": 0}}}}], "games": null}, {"id": 93440130, "state": 3, "round": 3, "fullRoundText": "Winners Round 3", "completedAt": 1756949088, "winnerId": 21161329, "slots": [{"id": "93440130-0", "entrant": {"id": 21161329, "name": "Rel", "participants": [{"id": 19463236, "gamerTag": "Rel", "prefix": "", "user": {"location": {"city": "Atlanta", "state": null, "country": "United States"}}, "player": {"id": 2774889, "gamerTag": "Rel", "prefix": "", "user": {"location": {"city": "Atlanta", "state": null, "country": "United States"}}}}]}, "standing": {"placement": 1, "stats": {"score": {"value": 2}}}}, {"id": "93440130-1", "entrant": {"id": 21157267, "name": "100% | juice", "participants": [{"id": 19459537, "gamerTag": "juice", "prefix": "100%", "user": {"location": {"city": "atlanta", "state": "GA", "country": "United States"}}, "player": {"id": 146905, "gamerTag": "juice", "prefix": "100%", "user": {"location": {"city": "atlanta", "state": "GA", "country": "United States"}}}}]}, "standing": {"placement": 2, "stats": {"score": {"value": 0}}}}], "games": null}]}}}