{"phase": {"seeds": {"pageInfo": {"totalPages": 1, "total": 7}, "nodes": [{"id": 35822466, "seedNum": 1, "entrant": {"id": 20763497, "name": "frud", "participants": [{"id": 19108962, "gamerTag": "frud", "prefix": "", "user": null, "player": {"id": 4884368, "gamerTag": "frud", "prefix": "", "user": null}}]}}, {"id": 35822380, "seedNum": 3, "entrant": {"id": 20763427, "name": "drimys", "participants": [{"id": 19103824, "gamerTag": "drimys", "prefix": null, "user": {"location": {"city": "Cumming", "state": "GA", "country": "United States"}}, "player": {"id": 2436958, "gamerTag": "drimys", "prefix": null, "user": {"location": {"city": "Cumming", "state": "GA", "country": "United States"}}}}]}}, {"id": 35822665, "seedNum": 2, "entrant": {"id": 20763659, "name": "KHW | Frumps", "participants": [{"id": 19104258, "gamerTag": "Frumps", "prefix": "KHW", "user": {"location": {"city": "Greenville", "state": "SC", "country": "United States"}}, "player": {"id": 2844590, "gamerTag": "Frumps", "prefix": "KHW", "user": {"location": {"city": "Greenville", "state": "SC", "country": "United States"}}}}]}}, {"id": 35822194, "seedNum": 6, "entrant": {"id": 20763335, "name": "CaPhe", "participants": [{"id": 19103948, "gamerTag": "CaPhe", "prefix": "", "user": {"location": {"city": "Atlanta", "state": "GA", "country": "United States"}}, "player": {"id": 1219139, "gamerTag": "CaPhe", "prefix": "", "user": {"location": {"city": "Atlanta", "state": "GA", "country": "United States"}}}}]}}, {"id": 35822512, "seedNum": 4, "entrant": {"id": 20763520, "name": "TriN", "participants": [{"id": 19104074, "gamerTag": "TriN", "prefix": "", "user": {"location": {"city": "Duluth", "state": "GA", "country": "United States"}}, "player": {"id": 3807669, "gamerTag": "TriN", "prefix": "", "user": {"location": {"city": "Duluth", "state": "GA", "country": "United States"}}}}]}}, {"id": 35822422, "seedNum": 5, "entrant": {"id": 20763469, "name": "TPS | cryptonic", "participants": [{"id": 19103779, "gamerTag": "cryptonic", "prefix": "TPS", "user": {"location": {"city": "Acworth", "state": "GA", "country": "United States"}}, "player": {"id": 3422494, "gamerTag": "$CAITLIN", "prefix": "TPS", "user": {"location": {"city": "Acworth", "state": "GA", "country": "United States"}}}}]}}, {"id": 35822262, "seedNum": 7, "entrant": {"id": 20763356, "name": "friend | evil mage", "participants": [{"id": 19107432, "gamerTag": "evil mage", "prefix": "friend", "user": {"location": {"city": "Atlanta", "state": "GA", "country": "United States"}}, "player": {"id": 2788143, "gamerTag": "evil mage", "prefix": "TROLLGANG", "user": {"location": {"city": "Atlanta", "state": "GA", "country": "United States"}}}}]}}]}}}