{"phase": {"seeds": {"pageInfo": {"totalPages": 1, "total": 7}, "nodes": [{"id": 36616385, "seedNum": 4, "entrant": {"id": 21267095, "name": "Chance", "participants": [{"id": 19555474, "gamerTag": "Chance", "prefix": "", "user": {"location": {"city": "Savannah", "state": "GA", "country": "United States"}}, "player": {"id": 1442765, "gamerTag": "Chance", "prefix": "", "user": {"location": {"city": "Savannah", "state": "GA", "country": "United States"}}}}]}}, {"id": 36617266, "seedNum": 7, "entrant": {"id": 21267743, "name": "Luff", "participants": [{"id": 19555409, "gamerTag": "Luff", "prefix": null, "user": {"location": {"city": "Savannah", "state": "GA", "country": "United States"}}, "player": {"id": 4102348, "gamerTag": "Luff", "prefix": "SQ1", "user": {"location": {"city": "Savannah", "state": "GA", "country": "United States"}}}}]}}, {"id": 36616566, "seedNum": 5, "entrant": {"id": 21267266, "name": "Megaflare08", "participants": [{"id": 19555622, "gamerTag": "Megaflare08", "prefix": "", "user": {"location": {"city": "Eden", "state": "GA", "country": "United States"}}, "player": {"id": 1477124, "gamerTag": "Megaflare08", "prefix": "", "user": {"location": {"city": "Eden", "state": "GA", "country": "United States"}}}}]}}, {"id": 36613149, "seedNum": 1, "entrant": {"id": 21264603, "name": "dertdobber", "participants": [{"id": 19553468, "gamerTag": "dertdobber", "prefix": null, "user": {"location": {"city": "Savannah", "state": "GA", "country": "United States"}}, "player": {"id": 173899, "gamerTag": "dertdobber", "prefix": null, "user": {"location": {"city": "Savannah", "state": "GA", "country": "United States"}}}}]}}, {"id": 36616253, "seedNum": 3, "entrant": {"id": 21266988, "name": "Galahalex", "participants": [{"id": 19555384, "gamerTag": "Galahalex", "prefix": null, "user": {"location": {"city": "Statesboro", "state": "GA", "country": "United States"}}, "player": {"id": 3883143, "gamerTag": "Galahalex", "prefix": null, "user": {"location": {"city": "Statesboro", "state": "GA", "country": "United States"}}}}]}}, {"id": 36617040, "seedNum": 6, "entrant": {"id": 21267543, "name": "Brandon98", "participants": [{"id": 19555844, "gamerTag": "Brandon98", "prefix": "", "user": {"location": {"city": "Savannah", "state": "GA", "country": "United States"}}, "player": {"id": 3343886, "gamerTag": "Brandon98", "prefix": "", "user": {"location": {"city": "Savannah", "state": "GA", "country": "United States"}}}}]}}, {"id": 36616139, "seedNum": 2, "entrant": {"id": 21266886, "name": "SQ1 | TheFamilyPanda", "participants": [{"id": 19555287, "gamerTag": "TheFamilyPanda", "prefix": "SQ1", "user": {"location": {"city": "Savannah", "state": "GA", "country": "United States"}}, "player": {"id": 2228673, "gamerTag": "TheFamilyPanda", "prefix": "SQ1", "user": {"location": {"city": "Savannah", "state": "GA", "country": "United States"}}}}]}}]}}}