{"event": {"sets": {"pageInfo": {"totalPages": 6, "total": 76}, "nodes": [{"id": 93192749, "state": 3, "round": 2, "fullRoundText": "Winners Round 2", "completedAt": 1756429079, "winnerId": 21077910, "slots": [{"id": "93192749-0", "entrant": {"id": 21077910, "name": "Ave~", "participants": [{"id": 19388610, "gamerTag": "Ave~", "prefix": "", "user": {"location": {"city": null, "state": null, "country": null}}, "player": {"id": 38830, "gamerTag": "Ave~", "prefix": "", "user": {"location": {"city": null, "state": null, "country": null}}}}]}, "standing": {"placement": 1, "stats": {"score": {"value": 2}}}}, {"id": "93192749-1", "entrant": {"id": 21104559, "name": "UTO|WhaLey | Kingwifi", "participants": [{"id": 19412674, "gamerTag": "Kingwifi", "prefix": "UTO|WhaLey", "user": {"location": {"city": "Stone Mountain", "state": "GA", "country": "United States"}}, "player": {"id": 2016149, "gamerTag": "Whaley", "prefix": "KSU|UTO|BLZE", "user": {"location": {"city": "Stone Mountain", "state": "GA", "country": "United States"}}}}]}, "standing": {"placement": 2, "stats": {"score": {"value": 0}}}}], "games": [{"id": 32209536, "orderNum": 1, "winnerId": 21077910, "entrant1Score": null, "entrant2Score": 0, "stage": null, "selections": [{"id": 47468305, "selectionType": "CHARACTER", "selectionValue": 1311, "entrant": {"id": 21077910}, "character": {"id": 1311, "name": "Mii Brawler"}}, {"id": 47468306, "selectionType": "CHARACTER", "selectionValue": 1777, "entrant": {"id": 21104559}, "character": {"id": 1777, "name": "Sephiroth"}}]}, {"id": 32209537, "orderNum": 2, "winnerId": 21077910, "entrant1Score": null, "entrant2Score": 0, "stage": null, "selections": [{"id": 47468307, "selectionType": "CHARACTER", "selectionValue": 1311, "entrant": {"id": 21077910}, "character": {"id": 1311, "name": "Mii Brawler"}}, {"id": 47468308, "selectionType": "CHARACTER", "selectionValue": 1777, "entrant": {"id": 21104559}, "character": {"id": 1777, "name": "Sephiroth"}}]}]}, {"id": 93192750, "state": 3, "round": 2, "fullRoundText": "Winners Round 2", "completedAt": 1756428464, "winnerId": 21101750, "slots": [{"id": "93192750-0", "entrant": {"id": 21101750, "name": "GUMP2 | ToxiC", "participants": [{"id": 19410105, "gamerTag": "ToxiC", "prefix": "GUMP2", "user": {"location": {"city": "Marietta", "state": "GA", "country": "United States"}}, "player": {"id": 2585804, "gamerTag": "ToxiC", "prefix": "GUMP2", "user": {"location": {"city": "Marietta", "state": "GA", "country": "United States"}}}}]}, "standing": {"placement": 1, "stats": {"score": {"value": 2}}}}, {"id": "93192750-1", "entrant": {"id": 21103660, "name": "Mentayy", "participants": [{"id": 19411872, "gamerTag": "Mentayy", "prefix": "", "user": {"location": {"city": null, "state": "GA", "country": "United States"}}, "player": {"id": 2586911, "gamerTag": "Mentayy", "prefix": "", "user": {"location": {"city": null, "state": "GA", "country": "United States"}}}}]}, "standing": {"placement": 2, "stats": {"score": {"value": 0}}}}], "games": null}, {"id": 93192848, "state": 3, "round": -4, "fullRoundText": "Losers Round 1", "completedAt": 1756429676, "winnerId": 21103660, "slots": [{"id": "93192848-0", "entrant": {"id": 21103660, "name": "Mentayy", "participants": [{"id": 19411872, "gamerTag": "Mentayy", "prefix": "", "user": {"location": {"city": null, "state": "GA", "country": "United States"}}, "player": {"id": 2586911, "gamerTag": "Mentayy", "prefix": "", "user": {"location": {"city": null, "state": "GA", "country": "United States"}}}}]}, "standing": {"placement": 1, "stats": {"score": {"value": 2}}}}, {"id": "93192848-1", "entrant": {"id": 21103719, "name": "SIR | vivor", "participants": [{"id": 19411922, "gamerTag": "vivor", "prefix": "SIR", "user": {"location": {"city": "Atlanta", "state": "GA", "country": "United States"}}, "player": {"id": 3373990, "gamerTag": "vivor", "prefix": "SIR", "user": {"location": {"city": "Atlanta", "state": "GA", "country": "United States"}}}}]}, "standing": {"placement": 2, "stats": {"score": {"value": 0}}}}], "games": null}, {"id": 93192852, "state": 3, "round": -4, "fullRoundText": "Losers Round 1", "completedAt": 1756429629, "winnerId": 21103345, "slots": [{"id": "93192852-0", "entrant": {"id": 21103345, "name": "red dot", "participants": [{"id": 19411593, "gamerTag": "red dot", "prefix": "", "user": {"location": {"city": "Milton", "state": "GA", "country": "United States"}}, "player": {"id": 1812177, "gamerTag": "red dot", "prefix": "", "user": {"location": {"city": "Milton", "state": "GA", "country": "United States"}}}}]}, "standing": {"placement": 1, "stats": {"score": {"value": 2}}}}, {"id": "93192852-1", "entrant": {"id": 21096991, "name": "KSU | colorful\u029a\u025e", "participants": [{"id": 19405542, "gamerTag": "colorful\u029a\u025e", "prefix": "KSU", "user": {"location": {"city": "Kennesaw", "state": "GA", "country": "United States"}}, "player": {"id": 1783074, "gamerTag": "colorful\u029a\u025e", "prefix": "KSU | RM", "user": {"location": {"city": "Kennesaw", "state": "GA", "country": "United States"}}}}]}, "standing": {"placement": 2, "stats": {"score": {"value": 1}}}}], "games": [{"id": 32210155, "orderNum": 1, "winnerId": 21096991, "entrant1Score": 0, "entrant2Score": 0, "stage": null, "selections": [{"id": 47469167, "selectionType": "CHARACTER", "selectionValue": 1275, "entrant": {"id": 21096991}, "character": {"id": 1275, "name": "Cloud"}}, {"id": 47469168, "selectionType": "CHARACTER", "selectionValue": 1410, "entrant": {"id": 21103345}, "character": {"id": 1410, "name": "Ken"}}]}, {"id": 32210156, "orderNum": 2, "winnerId": 21103345, "entrant1Score": null, "entrant2Score": 0, "stage": null, "selections": [{"id": 47469169, "selectionType": "CHARACTER", "selectionValue": 1275, "entrant": {"id": 21096991}, "character": {"id": 1275, "name": "Cloud"}}, {"id": 47469170, "selectionType": "CHARACTER", "selectionValue": 1410, "entrant": {"id": 21103345}, "character": {"id": 1410, "name": "Ken"}}]}, {"id": 32210157, "orderNum": 3, "winnerId": 21103345, "entrant1Score": null, "entrant2Score": 0, "stage": null, "selections": [{"id": 47469171, "selectionType": "CHARACTER", "selectionValue": 1275, "entrant": {"id": 21096991}, "character": {"id": 1275, "name": "Cloud"}}, {"id": 47469172, "selectionType": "CHARACTER", "selectionValue": 1410, "entrant": {"id": 21103345}, "character": {"id": 1410, "name": "Ken"}}]}]}, {"id": 93192854, "state": 3, "round": -4, "fullRoundText": "Losers Round 1", "completedAt": 1756429548, "winnerId": 21102492, "slots": [{"id": "93192854-0", "entrant": {"id": 21102492, "name": "GUMP2 | JankTrees!", "participants": [{"id": 19410809, "gamerTag": "JankTrees!", "prefix": "GUMP2", "user": {"location": {"city": "Cartersville", "state": "GA", "country": "United States"}}, "player": {"id": 35695, "gamerTag": "JankTrees!", "prefix": "GUMP2", "user": {"location": {"city": "Cartersville", "state": "GA", "country": "United States"}}}}]}, "standing": {"placement": 1, "stats": {"score": {"value": 2}}}}, {"id": "93192854-1", "entrant": {"id": 21103065, "name": "AP | EdiblePine", "participants": [{"id": 19411326, "gamerTag": "EdiblePine", "prefix": "AP", "user": {"location": {"city": "Atlanta", "state": "GA", "country": "United States"}}, "player": {"id": 1648278, "gamerTag": "EdiblePine", "prefix": "AP", "user": {"location": {"city": "Atlanta", "state": "GA", "country": "United States"}}}}]}, "standing": {"placement": 2, "stats": {"score": {"value": 0}}}}], "games": null}, {"id": 93192856, "state": 3, "round": -4, "fullRoundText": "Losers Round 1", "completedAt": 1756428585, "winnerId": 21102406, "slots": [{"id": "93192856-0", "entrant": {"id": 21095530, "name": "Daiyan", "participants": [{"id": 19404386, "gamerTag": "Daiyan", "prefix": "", "user": {"location": {"city": "Lawrenceville", "state": "GA", "country": "United States"}}, "player": {"id": 1059715, "gamerTag": "Daiyan", "prefix": "", "user": {"location": {"city": "Lawrenceville", "state": "GA", "country": "United States"}}}}]}, "standing": {"placement": 2, "stats": {"score": {"value": -1}}}}, {"id": "93192856-1", "entrant": {"id": 21102406, "name": "4o4 | Sh33rZ", "participants": [{"id": 19410725, "gamerTag": "Sh33rZ", "prefix": "4o4", "user": {"location": {"city": "alpharetta", "state": "GA", "country": "United States"}}, "player": {"id": 3640465, "gamerTag": "Sh33rZ", "prefix": "4o4", "user": {"location": {"city": "alpharetta", "state": "GA", "country": "United States"}}}}]}, "standing": {"placement": 1, "stats": {"score": {"value": null}}}}], "games": null}, {"id": 93192858, "state": 3, "round": -4, "fullRoundText": "Losers Round 1", "completedAt": 1756429116, "winnerId": 21103350, "slots": [{"id": "93192858-0", "entrant": {"id": 21103350, "name": "GUMP2 | Woz but evil", "participants": [{"id": 19411598, "gamerTag": "Woz but evil", "prefix": "GUMP2", "user": {"location": {"city": "Avondale Estates", "state": "GA", "country": "United States"}}, "player": {"id": 225744, "gamerTag": "Z I C O", "prefix": "GUMP2", "user": {"location": {"city": "Avondale Estates", "state": "GA", "country": "United States"}}}}]}, "standing": {"placement": 1, "stats": {"score": {"value": 2}}}}, {"id": "93192858-1", "entrant": {"id": 21103536, "name": "Amyx", "participants": [{"id": 19411764, "gamerTag": "Amyx", "prefix": null, "user": {"location": {"city": "saint marys", "state": "GA", "country": "United States"}}, "player": {"id": 4772117, "gamerTag": "Amyx", "prefix": null, "user": {"location": {"city": "saint marys", "state": "GA", "country": "United States"}}}}]}, "standing": {"placement": 2, "stats": {"score": {"value": 0}}}}], "games": null}, {"id": 93192860, "state": 3, "round": -4, "fullRoundText": "Losers Round 1", "completedAt": 1756429479, "winnerId": 21103376, "slots": [{"id": "93192860-0", "entrant": {"id": 21101831, "name": "Free | Hue", "participants": [{"id": 19410180, "gamerTag": "Hue", "prefix": "Free", "user": {"location": {"city": "Union City", "state": "GA", "country": "United States"}}, "player": {"id": 35934, "gamerTag": "Hue", "prefix": "Free", "user": {"location": {"city": "Union City", "state": "GA", "country": "United States"}}}}]}, "standing": {"placement": 2, "stats": {"score": {"value": 0}}}}, {"id": "93192860-1", "entrant": {"id": 21103376, "name": "Pleeploploop", "participants": [{"id": 19411622, "gamerTag": "Pleeploploop", "prefix": "", "user": {"location": {"city": "Snellville", "state": null, "country": "United States"}}, "player": {"id": 1739676, "gamerTag": "Pleeploploop", "prefix": "", "user": {"location": {"city": "Snellville", "state": null, "country": "United States"}}}}]}, "standing": {"placement": 1, "stats": {"score": {"value": 2}}}}], "games": null}, {"id": 93192862, "state": 3, "round": -4, "fullRoundText": "Losers Round 1", "completedAt": 1756428802, "winnerId": 21104029, "slots": [{"id": "93192862-0", "entrant": {"id": 21104029, "name": "CFL | Benji", "participants": [{"id": 19412207, "gamerTag": "Benji", "prefix": "CFL", "user": {"location": {"city": "Orlando", "state": "FL", "country": "United States"}}, "player": {"id": 2990255, "gamerTag": "Benji", "prefix": "CFL", "user": {"location": {"city": "Orlando", "state": "FL", "country": "United States"}}}}]}, "standing": {"placement": 1, "stats": {"score": {"value": 2}}}}, {"id": "93192862-1", "entrant": {"id": 21089320, "name": "Ghost", "participants": [{"id": 19398802, "gamerTag": "Ghost", "prefix": "", "user": {"location": {"city": "Atlanta", "state": "GA", "country": "United States"}}, "player": {"id": 1804488, "gamerTag": "Ghost", "prefix": "", "user": {"location": {"city": "Atlanta", "state": "GA", "country": "United States"}}}}]}, "standing": {"placement": 2, "stats": {"score": {"value": 0}}}}], "games": null}, {"id": 93192704, "state": 3, "round": 1, "fullRoundText": "Winners Round 1", "completedAt": 1756427617, "winnerId": 21102017, "slots": [{"id": "93192704-0", "entrant": {"id": 21102017, "name": "promamamia", "participants": [{"id": 19410353, "gamerTag": "promamamia", "prefix": "", "user": {"location": {"city": "Alpharetta", "state": "GA", "country": "United States"}}, "player": {"id": 3548468, "gamerTag": "promamamia", "prefix": "", "user": {"location": {"city": "Alpharetta", "state": "GA", "country": "United States"}}}}]}, "standing": {"placement": 1, "stats": {"score": {"value": 2}}}}, {"id": "93192704-1", "entrant": {"id": 21103719, "name": "SIR | vivor", "participants": [{"id": 19411922, "gamerTag": "vivor", "prefix": "SIR", "user": {"location": {"city": "Atlanta", "state": "GA", "country": "United States"}}, "player": {"id": 3373990, "gamerTag": "vivor", "prefix": "SIR", "user": {"location": {"city": "Atlanta", "state": "GA", "country": "United States"}}}}]}, "standing": {"placement": 2, "stats": {"score": {"value": 0}}}}], "games": [{"id": 32207811, "orderNum": 1, "winnerId": 21102017, "entrant1Score": null, "entrant2Score": 0, "stage": null, "selections": [{"id": 47465985, "selectionType": "CHARACTER", "selectionValue": 1326, "entrant": {"id": 21102017}, "character": {"id": 1326, "name": "Roy"}}, {"id": 47465986, "selectionType": "CHARACTER", "selectionValue": 1328, "entrant": {"id": 21103719}, "character": {"id": 1328, "name": "Samus"}}]}, {"id": 32207812, "orderNum": 2, "winnerId": 21102017, "entrant1Score": null, "entrant2Score": 0, "stage": null, "selections": [{"id": 47465987, "selectionType": "CHARACTER", "selectionValue": 1326, "entrant": {"id": 21102017}, "character": {"id": 1326, "name": "Roy"}}, {"id": 47465988, "selectionType": "CHARACTER", "selectionValue": 1328, "entrant": {"id": 21103719}, "character": {"id": 1328, "name": "Samus"}}]}]}, {"id": 93192712, "state": 3, "round": 1, "fullRoundText": "Winners Round 1", "completedAt": 1756428273, "winnerId": 21078274, "slots": [{"id": "93192712-0", "entrant": {"id": 21096991, "name": "KSU | colorful\u029a\u025e", "participants": [{"id": 19405542, "gamerTag": "colorful\u029a\u025e", "prefix": "KSU", "user": {"location": {"city": "Kennesaw", "state": "GA", "country": "United States"}}, "player": {"id": 1783074, "gamerTag": "colorful\u029a\u025e", "prefix": "KSU | RM", "user": {"location": {"city": "Kennesaw", "state": "GA", "country": "United States"}}}}]}, "standing": {"placement": 2, "stats": {"score": {"value": 1}}}}, {"id": "93192712-1", "entrant": {"id": 21078274, "name": "jack | jazzman", "participants": [{"id": 19388919, "gamerTag": "jazzman", "prefix": "jack", "user": {"location": {"city": "Athens", "state": "GA", "country": "United States"}}, "player": {"id": 3883272, "gamerTag": "jazzman", "prefix": "jack", "user": {"location": {"city": "Athens", "state": "GA", "country": "United States"}}}}]}, "standing": {"placement": 1, "stats": {"score": {"value": 2}}}}], "games": [{"id": 32208593, "orderNum": 1, "winnerId": 21078274, "entrant1Score": 0, "entrant2Score": 0, "stage": null, "selections": [{"id": 47466997, "selectionType": "CHARACTER", "selectionValue": 1305, "entrant": {"id": 21078274}, "character": {"id": 1305, "name": "Mega Man"}}, {"id": 47466998, "selectionType": "CHARACTER", "selectionValue": 1275, "entrant": {"id": 21096991}, "character": {"id": 1275, "name": "Cloud"}}]}, {"id": 32208594, "orderNum": 2, "winnerId": 21096991, "entrant1Score": 0, "entrant2Score": 0, "stage": null, "selections": [{"id": 47466780, "selectionType": "CHARACTER", "selectionValue": 1305, "entrant": {"id": 21096991}, "character": {"id": 1305, "name": "Mega Man"}}, {"id": 47466999, "selectionType": "CHARACTER", "selectionValue": 1275, "entrant": {"id": 21078274}, "character": {"id": 1275, "name": "Cloud"}}]}, {"id": 32208595, "orderNum": 3, "winnerId": 21078274, "entrant1Score": 0, "entrant2Score": 0, "stage": null, "selections": [{"id": 47467000, "selectionType": "CHARACTER", "selectionValue": 1305, "entrant": {"id": 21078274}, "character": {"id": 1305, "name": "Mega Man"}}, {"id": 47467001, "selectionType": "CHARACTER", "selectionValue": 1275, "entrant": {"id": 21096991}, "character": {"id": 1275, "name": "Cloud"}}]}]}, {"id": 93192716, "state": 3, "round": 1, "fullRoundText": "Winners Round 1", "completedAt": 1756427553, "winnerId": 21103687, "slots": [{"id": "93192716-0", "entrant": {"id": 21103687, "name": "carlop", "participants": [{"id": 19411893, "gamerTag": "carlop", "prefix": null, "user": {"location": {"city": "Johns Creek", "state": "GA", "country": "United States"}}, "player": {"id": 3431919, "gamerTag": "carlop", "prefix": null, "user": {"location": {"city": "Johns Creek", "state": "GA", "country": "United States"}}}}]}, "standing": {"placement": 1, "stats": {"score": {"value": 2}}}}, {"id": "93192716-1", "entrant": {"id": 21103065, "name": "AP | EdiblePine", "participants": [{"id": 19411326, "gamerTag": "EdiblePine", "prefix": "AP", "user": {"location": {"city": "Atlanta", "state": "GA", "country": "United States"}}, "player": {"id": 1648278, "gamerTag": "EdiblePine", "prefix": "AP", "user": {"location": {"city": "Atlanta", "state": "GA", "country": "United States"}}}}]}, "standing": {"placement": 2, "stats": {"score": {"value": 0}}}}], "games": null}, {"id": 93192720, "state": 3, "round": 1, "fullRoundText": "Winners Round 1", "completedAt": 1756428391, "winnerId": 21099646, "slots": [{"id": "93192720-0", "entrant": {"id": 21099646, "name": "KSU | Subzero", "participants": [{"id": 19408148, "gamerTag": "Subzero", "prefix": "KSU", "user": {"location": {"city": "Acworth", "state": "GA", "country": "United States"}}, "player": {"id": 1808159, "gamerTag": "Subzero", "prefix": "KSU", "user": {"location": {"city": "Acworth", "state": "GA", "country": "United States"}}}}]}, "standing": {"placement": 1, "stats": {"score": {"value": 2}}}}, {"id": "93192720-1", "entrant": {"id": 21102406, "name": "4o4 | Sh33rZ", "participants": [{"id": 19410725, "gamerTag": "Sh33rZ", "prefix": "4o4", "user": {"location": {"city": "alpharetta", "state": "GA", "country": "United States"}}, "player": {"id": 3640465, "gamerTag": "Sh33rZ", "prefix": "4o4", "user": {"location": {"city": "alpharetta", "state": "GA", "country": "United States"}}}}]}, "standing": {"placement": 2, "stats": {"score": {"value": 1}}}}], "games": null}, {"id": 93192724, "state": 3, "round": 1, "fullRoundText": "Winners Round 1", "completedAt": 1756428208, "winnerId": 21103011, "slots": [{"id": "93192724-0", "entrant": {"id": 21103011, "name": "Rain~", "participants": [{"id": 19411283, "gamerTag": "Rain~", "prefix": null, "user": {"location": {"city": "Atlanta", "state": "GA", "country": "United States"}}, "player": {"id": 4240164, "gamerTag": "Rain~", "prefix": null, "user": {"location": {"city": "Atlanta", "state": "GA", "country": "United States"}}}}]}, "standing": {"placement": 1, "stats": {"score": {"value": 2}}}}, {"id": "93192724-1", "entrant": {"id": 21103536, "name": "Amyx", "participants": [{"id": 19411764, "gamerTag": "Amyx", "prefix": null, "user": {"location": {"city": "saint marys", "state": "GA", "country": "United States"}}, "player": {"id": 4772117, "gamerTag": "Amyx", "prefix": null, "user": {"location": {"city": "saint marys", "state": "GA", "country": "United States"}}}}]}, "standing": {"placement": 2, "stats": {"score": {"value": 0}}}}], "games": null}, {"id": 93192728, "state": 3, "round": 1, "fullRoundText": "Winners Round 1", "completedAt": 1756428228, "winnerId": 21102919, "slots": [{"id": "93192728-0", "entrant": {"id": 21102919, "name": "Bagel", "participants": [{"id": 19411198, "gamerTag": "Bagel", "prefix": "", "user": {"location": {"city": "Atlanta", "state": "GA", "country": "United States"}}, "player": {"id": 1794753, "gamerTag": "Bagel", "prefix": "", "user": {"location": {"city": "Atlanta", "state": "GA", "country": "United States"}}}}]}, "standing": {"placement": 1, "stats": {"score": {"value": 2}}}}, {"id": "93192728-1", "entrant": {"id": 21103376, "name": "Pleeploploop", "participants": [{"id": 19411622, "gamerTag": "Pleeploploop", "prefix": "", "user": {"location": {"city": "Snellville", "state": null, "country": "United States"}}, "player": {"id": 1739676, "gamerTag": "Pleeploploop", "prefix": "", "user": {"location": {"city": "Snellville", "state": null, "country": "United States"}}}}]}, "standing": {"placement": 2, "stats": {"score": {"value": 1}}}}], "games": null}]}}}