{"event": {"sets": {"pageInfo": {"totalPages": 2, "total": 16}, "nodes": [{"id": 94408708, "state": 3, "round": 5, "fullRoundText": "Grand Final", "completedAt": 1759009071, "winnerId": 21375085, "slots": [{"id": "94408708-0", "entrant": {"id": 21375085, "name": "Foam Root", "participants": [{"id": 19649153, "gamerTag": "Foam Root", "prefix": null, "user": {"location": {"city": "Covington", "state": "GA", "country": "United States"}}, "player": {"id": 541222, "gamerTag": "Foam Root", "prefix": "", "user": {"location": {"city": "Covington", "state": "GA", "country": "United States"}}}}]}, "standing": {"placement": 1, "stats": {"score": {"value": 3}}}}, {"id": "94408708-1", "entrant": {"id": 21392801, "name": "Espadah | ReaperNoLimit", "participants": [{"id": 19664600, "gamerTag": "ReaperNoLimit", "prefix": "Espadah", "user": {"location": {"city": "Warner robbins", "state": "GA", "country": "United States"}}, "player": {"id": 1650376, "gamerTag": "ReaperNoLimit", "prefix": "Espadah", "user": {"location": {"city": "Warner robbins", "state": "GA", "country": "United States"}}}}]}, "standing": {"placement": 2, "stats": {"score": {"value": 0}}}}], "games": null}, {"id": 94408707, "state": 3, "round": 4, "fullRoundText": "Winners Final", "completedAt": 1759007237, "winnerId": 21375085, "slots": [{"id": "94408707-0", "entrant": {"id": 21375085, "name": "Foam Root", "participants": [{"id": 19649153, "gamerTag": "Foam Root", "prefix": null, "user": {"location": {"city": "Covington", "state": "GA", "country": "United States"}}, "player": {"id": 541222, "gamerTag": "Foam Root", "prefix": "", "user": {"location": {"city": "Covington", "state": "GA", "country": "United States"}}}}]}, "standing": {"placement": 1, "stats": {"score": {"value": 3}}}}, {"id": "94408707-1", "entrant": {"id": 21392801, "name": "Espadah | ReaperNoLimit", "participants": [{"id": 19664600, "gamerTag": "ReaperNoLimit", "prefix": "Espadah", "user": {"location": {"city": "Warner robbins", "state": "GA", "country": "United States"}}, "player": {"id": 1650376, "gamerTag": "ReaperNoLimit", "prefix": "Espadah", "user": {"location": {"city": "Warner robbins", "state": "GA", "country": "United States"}}}}]}, "standing": {"placement": 2, "stats": {"score": {"value": 0}}}}], "games": null}, {"id": 94408739, "state": 3, "round": -8, "fullRoundText": "Losers Final", "completedAt": 1759008582, "winnerId": 21392801, "slots": [{"id": "94408739-0", "entrant": {"id": 21392801, "name": "Espadah | ReaperNoLimit", "participants": [{"id": 19664600, "gamerTag": "ReaperNoLimit", "prefix": "Espadah", "user": {"location": {"city": "Warner robbins", "state": "GA", "country": "United States"}}, "player": {"id": 1650376, "gamerTag": "ReaperNoLimit", "prefix": "Espadah", "user": {"location": {"city": "Warner robbins", "state": "GA", "country": "United States"}}}}]}, "standing": {"placement": 1, "stats": {"score": {"value": 3}}}}, {"id": "94408739-1", "entrant": {"id": 21397193, "name": "Noodle", "participants": [{"id": 19668288, "gamerTag": "Noodle", "prefix": "", "user": {"location": {"city": "McDonough", "state": "GA", "country": "United States"}}, "player": {"id": 3029288, "gamerTag": "Noodle", "prefix": "", "user": {"location": {"city": "McDonough", "state": "GA", "country": "United States"}}}}]}, "standing": {"placement": 2, "stats": {"score": {"value": 1}}}}], "games": null}, {"id": 94408738, "state": 3, "round": -7, "fullRoundText": "Losers Semi-Final", "completedAt": 1759007909, "winnerId": 21397193, "slots": [{"id": "94408738-0", "entrant": {"id": 21397193, "name": "Noodle", "participants": [{"id": 19668288, "gamerTag": "Noodle", "prefix": "", "user": {"location": {"city": "McDonough", "state": "GA", "country": "United States"}}, "player": {"id": 3029288, "gamerTag": "Noodle", "prefix": "", "user": {"location": {"city": "McDonough", "state": "GA", "country": "United States"}}}}]}, "standing": {"placement": 1, "stats": {"score": {"value": 2}}}}, {"id": "94408738-1", "entrant": {"id": 21397172, "name": "ZB | Gerard", "participants": [{"id": 19668273, "gamerTag": "Gerard", "prefix": "ZB", "user": null, "player": {"id": 3241865, "gamerTag": "Gerard", "prefix": "ZB", "user": null}}]}, "standing": {"placement": 2, "stats": {"score": {"value": 1}}}}], "games": null}, {"id": 94408705, "state": 3, "round": 3, "fullRoundText": "Winners Semi-Final", "completedAt": 1759006346, "winnerId": 21375085, "slots": [{"id": "94408705-0", "entrant": {"id": 21397193, "name": "Noodle", "participants": [{"id": 19668288, "gamerTag": "Noodle", "prefix": "", "user": {"location": {"city": "McDonough", "state": "GA", "country": "United States"}}, "player": {"id": 3029288, "gamerTag": "Noodle", "prefix": "", "user": {"location": {"city": "McDonough", "state": "GA", "country": "United States"}}}}]}, "standing": {"placement": 2, "stats": {"score": {"value": 1}}}}, {"id": "94408705-1", "entrant": {"id": 21375085, "name": "Foam Root", "participants": [{"id": 19649153, "gamerTag": "Foam Root", "prefix": null, "user": {"location": {"city": "Covington", "state": "GA", "country": "United States"}}, "player": {"id": 541222, "gamerTag": "Foam Root", "prefix": "", "user": {"location": {"city": "Covington", "state": "GA", "country": "United States"}}}}]}, "standing": {"placement": 1, "stats": {"score": {"value": 2}}}}], "games": null}, {"id": 94408706, "state": 3, "round": 3, "fullRoundText": "Winners Semi-Final", "completedAt": 1759006841, "winnerId": 21392801, "slots": [{"id": "94408706-0", "entrant": {"id": 21392801, "name": "Espadah | ReaperNoLimit", "participants": [{"id": 19664600, "gamerTag": "ReaperNoLimit", "prefix": "Espadah", "user": {"location": {"city": "Warner robbins", "state": "GA", "country": "United States"}}, "player": {"id": 1650376, "gamerTag": "ReaperNoLimit", "prefix": "Espadah", "user": {"location": {"city": "Warner robbins", "state": "GA", "country": "United States"}}}}]}, "standing": {"placement": 1, "stats": {"score": {"value": 2}}}}, {"id": "94408706-1", "entrant": {"id": 21397172, "name": "ZB | Gerard", "participants": [{"id": 19668273, "gamerTag": "Gerard", "prefix": "ZB", "user": null, "player": {"id": 3241865, "gamerTag": "Gerard", "prefix": "ZB", "user": null}}]}, "standing": {"placement": 2, "stats": {"score": {"value": 0}}}}], "games": null}, {"id": 94408736, "state": 3, "round": -6, "fullRoundText": "Losers Quarter-Final", "completedAt": 1759006801, "winnerId": 21397193, "slots": [{"id": "94408736-0", "entrant": {"id": 21397193, "name": "Noodle", "participants": [{"id": 19668288, "gamerTag": "Noodle", "prefix": "", "user": {"location": {"city": "McDonough", "state": "GA", "country": "United States"}}, "player": {"id": 3029288, "gamerTag": "Noodle", "prefix": "", "user": {"location": {"city": "McDonough", "state": "GA", "country": "United States"}}}}]}, "standing": {"placement": 1, "stats": {"score": {"value": 2}}}}, {"id": "94408736-1", "entrant": {"id": 21399242, "name": "Mom92", "participants": [{"id": 19669962, "gamerTag": "Mom92", "prefix": null, "user": {"location": {"city": "Columbus", "state": "GA", "country": "United States"}}, "player": {"id": 138735, "gamerTag": "Mom92", "prefix": null, "user": {"location": {"city": "Columbus", "state": "GA", "country": "United States"}}}}]}, "standing": {"placement": 2, "stats": {"score": {"value": 0}}}}], "games": null}, {"id": 94408737, "state": 3, "round": -6, "fullRoundText": "Losers Quarter-Final", "completedAt": 1759007442, "winnerId": 21397172, "slots": [{"id": "94408737-0", "entrant": {"id": 21397172, "name": "ZB | Gerard", "participants": [{"id": 19668273, "gamerTag": "Gerard", "prefix": "ZB", "user": null, "player": {"id": 3241865, "gamerTag": "Gerard", "prefix": "ZB", "user": null}}]}, "standing": {"placement": 1, "stats": {"score": {"value": 2}}}}, {"id": "94408737-1", "entrant": {"id": 21399786, "name": "Station", "participants": [{"id": 19668088, "gamerTag": "Station", "prefix": "", "user": {"location": {"city": null, "state": null, "country": "United States"}}, "player": {"id": 3944248, "gamerTag": "Station", "prefix": "", "user": {"location": {"city": null, "state": null, "country": "United States"}}}}]}, "standing": {"placement": 2, "stats": {"score": {"value": 1}}}}], "games": null}, {"id": 94408734, "state": 3, "round": -5, "fullRoundText": "Losers Round 2", "completedAt": 1759006411, "winnerId": 21399242, "slots": [{"id": "94408734-0", "entrant": {"id": 21304126, "name": "Skate", "participants": [{"id": 19585807, "gamerTag": "Skate", "prefix": null, "user": {"location": {"city": null, "state": null, "country": "United States"}}, "player": {"id": 4045198, "gamerTag": "Skate", "prefix": null, "user": {"location": {"city": null, "state": null, "country": "United States"}}}}]}, "standing": {"placement": 2, "stats": {"score": {"value": 1}}}}, {"id": "94408734-1", "entrant": {"id": 21399242, "name": "Mom92", "participants": [{"id": 19669962, "gamerTag": "Mom92", "prefix": null, "user": {"location": {"city": "Columbus", "state": "GA", "country": "United States"}}, "player": {"id": 138735, "gamerTag": "Mom92", "prefix": null, "user": {"location": {"city": "Columbus", "state": "GA", "country": "United States"}}}}]}, "standing": {"placement": 1, "stats": {"score": {"value": 2}}}}], "games": null}, {"id": 94408735, "state": 3, "round": -5, "fullRoundText": "Losers Round 2", "completedAt": 1759006391, "winnerId": 21399786, "slots": [{"id": "94408735-0", "entrant": {"id": 21398742, "name": "Michael", "participants": [{"id": 19669560, "gamerTag": "Michael", "prefix": "", "user": {"location": {"city": null, "state": null, "country": "United States"}}, "player": {"id": 4996270, "gamerTag": "Michael", "prefix": "", "user": {"location": {"city": null, "state": null, "country": "United States"}}}}]}, "standing": {"placement": 2, "stats": {"score": {"value": 1}}}}, {"id": "94408735-1", "entrant": {"id": 21399786, "name": "Station", "participants": [{"id": 19668088, "gamerTag": "Station", "prefix": "", "user": {"location": {"city": null, "state": null, "country": "United States"}}, "player": {"id": 3944248, "gamerTag": "Station", "prefix": "", "user": {"location": {"city": null, "state": null, "country": "United States"}}}}]}, "standing": {"placement": 1, "stats": {"score": {"value": 2}}}}], "games": null}, {"id": 94408701, "state": 3, "round": 2, "fullRoundText": "Winners Quarter-Final", "completedAt": 1759005264, "winnerId": 21397193, "slots": [{"id": "94408701-0", "entrant": {"id": 21397193, "name": "Noodle", "participants": [{"id": 19668288, "gamerTag": "Noodle", "prefix": "", "user": {"location": {"city": "McDonough", "state": "GA", "country": "United States"}}, "player": {"id": 3029288, "gamerTag": "Noodle", "prefix": "", "user": {"location": {"city": "McDonough", "state": "GA", "country": "United States"}}}}]}, "standing": {"placement": 1, "stats": {"score": {"value": 2}}}}, {"id": "94408701-1", "entrant": {"id": 21399786, "name": "Station", "participants": [{"id": 19668088, "gamerTag": "Station", "prefix": "", "user": {"location": {"city": null, "state": null, "country": "United States"}}, "player": {"id": 3944248, "gamerTag": "Station", "prefix": "", "user": {"location": {"city": null, "state": null, "country": "United States"}}}}]}, "standing": {"placement": 2, "stats": {"score": {"value": 0}}}}], "games": null}, {"id": 94408702, "state": 3, "round": 2, "fullRoundText": "Winners Quarter-Final", "completedAt": 1759005047, "winnerId": 21375085, "slots": [{"id": "94408702-0", "entrant": {"id": 21375085, "name": "Foam Root", "participants": [{"id": 19649153, "gamerTag": "Foam Root", "prefix": null, "user": {"location": {"city": "Covington", "state": "GA", "country": "United States"}}, "player": {"id": 541222, "gamerTag": "Foam Root", "prefix": "", "user": {"location": {"city": "Covington", "state": "GA", "country": "United States"}}}}]}, "standing": {"placement": 1, "stats": {"score": {"value": 2}}}}, {"id": "94408702-1", "entrant": {"id": 21398742, "name": "Michael", "participants": [{"id": 19669560, "gamerTag": "Michael", "prefix": "", "user": {"location": {"city": null, "state": null, "country": "United States"}}, "player": {"id": 4996270, "gamerTag": "Michael", "prefix": "", "user": {"location": {"city": null, "state": null, "country": "United States"}}}}]}, "standing": {"placement": 2, "stats": {"score": {"value": 1}}}}], "games": null}, {"id": 94408703, "state": 3, "round": 2, "fullRoundText": "Winners Quarter-Final", "completedAt": 1759005731, "winnerId": 21392801, "slots": [{"id": "94408703-0", "entrant": {"id": 21399242, "name": "Mom92", "participants": [{"id": 19669962, "gamerTag": "Mom92", "prefix": null, "user": {"location": {"city": "Columbus", "state": "GA", "country": "United States"}}, "player": {"id": 138735, "gamerTag": "Mom92", "prefix": null, "user": {"location": {"city": "Columbus", "state": "GA", "country": "United States"}}}}]}, "standing": {"placement": 2, "stats": {"score": {"value": 1}}}}, {"id": "94408703-1", "entrant": {"id": 21392801, "name": "Espadah | ReaperNoLimit", "participants": [{"id": 19664600, "gamerTag": "ReaperNoLimit", "prefix": "Espadah", "user": {"location": {"city": "Warner robbins", "state": "GA", "country": "United States"}}, "player": {"id": 1650376, "gamerTag": "ReaperNoLimit", "prefix": "Espadah", "user": {"location": {"city": "Warner robbins", "state": "GA", "country": "United States"}}}}]}, "standing": {"placement": 1, "stats": {"score": {"value": 2}}}}], "games": null}, {"id": 94408704, "state": 3, "round": 2, "fullRoundText": "Winners Quarter-Final", "completedAt": 1759004966, "winnerId": 21397172, "slots": [{"id": "94408704-0", "entrant": {"id": 21397172, "name": "ZB | Gerard", "participants": [{"id": 19668273, "gamerTag": "Gerard", "prefix": "ZB", "user": null, "player": {"id": 3241865, "gamerTag": "Gerard", "prefix": "ZB", "user": null}}]}, "standing": {"placement": 1, "stats": {"score": {"value": 2}}}}, {"id": "94408704-1", "entrant": {"id": 21304126, "name": "Skate", "participants": [{"id": 19585807, "gamerTag": "Skate", "prefix": null, "user": {"location": {"city": null, "state": null, "country": "United States"}}, "player": {"id": 4045198, "gamerTag": "Skate", "prefix": null, "user": {"location": {"city": null, "state": null, "country": "United States"}}}}]}, "standing": {"placement": 2, "stats": {"score": {"value": 1}}}}], "games": null}, {"id": 94408730, "state": 3, "round": -4, "fullRoundText": "Losers Round 1", "completedAt": 1759005466, "winnerId": 21304126, "slots": [{"id": "94408730-0", "entrant": {"id": 21304126, "name": "Skate", "participants": [{"id": 19585807, "gamerTag": "Skate", "prefix": null, "user": {"location": {"city": null, "state": null, "country": "United States"}}, "player": {"id": 4045198, "gamerTag": "Skate", "prefix": null, "user": {"location": {"city": null, "state": null, "country": "United States"}}}}]}, "standing": {"placement": 1, "stats": {"score": {"value": 2}}}}, {"id": "94408730-1", "entrant": {"id": 21381056, "name": "GAW | Doctor Sleep", "participants": [{"id": 19654496, "gamerTag": "Doctor Sleep", "prefix": "GAW", "user": {"location": {"city": null, "state": "GA", "country": "United States"}}, "player": {"id": 4967767, "gamerTag": "Doctor Sleep", "prefix": "GAW", "user": {"location": {"city": null, "state": "GA", "country": "United States"}}}}]}, "standing": {"placement": 2, "stats": {"score": {"value": 1}}}}], "games": null}]}}}