{"phase": {"seeds": {"pageInfo": {"totalPages": 1, "total": 12}, "nodes": [{"id": 36649832, "seedNum": 6, "entrant": {"id": 21291644, "name": "4o4 | byronic zero", "participants": [{"id": 19574993, "gamerTag": "byronic zero", "prefix": "4o4", "user": {"location": {"city": "Atlanta", "state": "GA", "country": "United States"}}, "player": {"id": 3577590, "gamerTag": "byronic zero", "prefix": "4o4", "user": {"location": {"city": "Atlanta", "state": "GA", "country": "United States"}}}}]}}, {"id": 36650865, "seedNum": 5, "entrant": {"id": 21292324, "name": "4o4 | chrisymandias", "participants": [{"id": 19575578, "gamerTag": "chrisymandias", "prefix": "4o4", "user": {"location": {"city": "Dacula", "state": "GA", "country": "United States"}}, "player": {"id": 258173, "gamerTag": "chrisymandias", "prefix": "4o4", "user": {"location": {"city": "Dacula", "state": "GA", "country": "United States"}}}}]}}, {"id": 36650499, "seedNum": 12, "entrant": {"id": 21291999, "name": "Enn Vee", "participants": [{"id": 19575318, "gamerTag": "Enn Vee", "prefix": "", "user": {"location": {"city": "Atlanta", "state": "GA", "country": "United States"}}, "player": {"id": 3854597, "gamerTag": "Enn Vee", "prefix": "", "user": {"location": {"city": "Atlanta", "state": "GA", "country": "United States"}}}}]}}, {"id": 36644333, "seedNum": 2, "entrant": {"id": 21286915, "name": "Stachington", "participants": [{"id": 19571513, "gamerTag": "Stachington", "prefix": null, "user": {"location": {"city": "Columbus", "state": "GA", "country": "United States"}}, "player": {"id": 138010, "gamerTag": "Stachington", "prefix": null, "user": {"location": {"city": "Columbus", "state": "GA", "country": "United States"}}}}]}}, {"id": 36649819, "seedNum": 1, "entrant": {"id": 21291636, "name": "4o4 | MessatsuIM", "participants": [{"id": 19574988, "gamerTag": "MessatsuIM", "prefix": "4o4", "user": {"location": {"city": "Kennesaw", "state": "GA", "country": "United States"}}, "player": {"id": 3564235, "gamerTag": "MessatsuIM", "prefix": "4o4", "user": {"location": {"city": "Kennesaw", "state": "GA", "country": "United States"}}}}]}}, {"id": 36649923, "seedNum": 8, "entrant": {"id": 21291735, "name": "4H Tim", "participants": [{"id": 19575075, "gamerTag": "4H Tim", "prefix": "", "user": {"location": {"city": "phenix city", "state": "AL", "country": "United States"}}, "player": {"id": 61089, "gamerTag": "4H Tim", "prefix": "", "user": {"location": {"city": "phenix city", "state": "AL", "country": "United States"}}}}]}}, {"id": 36649697, "seedNum": 3, "entrant": {"id": 21291530, "name": "Buddylikefriend", "participants": [{"id": 19574904, "gamerTag": "Buddylikefriend", "prefix": null, "user": {"location": {"city": "Atlanta", "state": "GA", "country": "United States"}}, "player": {"id": 785557, "gamerTag": "Buddylikefriend", "prefix": null, "user": {"location": {"city": "Atlanta", "state": "GA", "country": "United States"}}}}]}}, {"id": 36641944, "seedNum": 4, "entrant": {"id": 21285414, "name": "Noodle", "participants": [{"id": 19570116, "gamerTag": "Noodle", "prefix": "", "user": {"location": {"city": "McDonough", "state": "GA", "country": "United States"}}, "player": {"id": 3029288, "gamerTag": "Noodle", "prefix": "", "user": {"location": {"city": "McDonough", "state": "GA", "country": "United States"}}}}]}}, {"id": 36649911, "seedNum": 7, "entrant": {"id": 21291721, "name": "Dead Generals | Nagato", "participants": [{"id": 19575061, "gamerTag": "Nagato", "prefix": "Dead Generals", "user": {"location": {"city": "Suwanee", "state": "AL", "country": "United States"}}, "player": {"id": 143468, "gamerTag": "Nagato", "prefix": "Dead Generals", "user": {"location": {"city": "Suwanee", "state": "AL", "country": "United States"}}}}]}}, {"id": 36645827, "seedNum": 9, "entrant": {"id": 21288116, "name": "Pazure", "participants": [{"id": 19572550, "gamerTag": "Pazure", "prefix": null, "user": {"location": {"city": null, "state": null, "country": "United States"}}, "player": {"id": 72218, "gamerTag": "Pazure", "prefix": null, "user": {"location": {"city": null, "state": null, "country": "United States"}}}}]}}, {"id": 36649865, "seedNum": 10, "entrant": {"id": 21291683, "name": "The Scary Door", "participants": [{"id": 19575027, "gamerTag": "The Scary Door", "prefix": "", "user": {"location": {"city": "Atlanta", "state": "GA", "country": "United States"}}, "player": {"id": 4944131, "gamerTag": "The Scary Door", "prefix": "", "user": {"location": {"city": "Atlanta", "state": "GA", "country": "United States"}}}}]}}, {"id": 36650026, "seedNum": 11, "entrant": {"id": 21291841, "name": "ToBeFrank | FF | SLAYlor Moon", "participants": [{"id": 19575176, "gamerTag": "SLAYlor Moon", "prefix": "ToBeFrank | FF", "user": {"location": {"city": "Atlanta", "state": "GA", "country": "United States"}}, "player": {"id": 267007, "gamerTag": "SLAYlor Moon", "prefix": "ToBeFrank | FF", "user": {"location": {"city": "Atlanta", "state": "GA", "country": "United States"}}}}]}}]}}}