{"event": {"sets": {"pageInfo": {"totalPages": 2, "total": 22}, "nodes": [{"id": 92174739, "state": 3, "round": -4, "fullRoundText": "Losers Round 1", "completedAt": 1754102162, "winnerId": 20861925, "slots": [{"id": "92174739-0", "entrant": {"id": 20861925, "name": "napkino jr", "participants": [{"id": 19196942, "gamerTag": "napkino jr", "prefix": "", "user": null, "player": {"id": 4905271, "gamerTag": "napkino jr", "prefix": "", "user": null}}]}, "standing": {"placement": 1, "stats": {"score": {"value": 3}}}}, {"id": "92174739-1", "entrant": {"id": 20835693, "name": "afterimage", "participants": [{"id": 19173578, "gamerTag": "afterimage", "prefix": "", "user": {"location": {"city": "Atlanta", "state": "GA", "country": "United States"}}, "player": {"id": 4435133, "gamerTag": "popsicle", "prefix": "", "user": {"location": {"city": "Atlanta", "state": "GA", "country": "United States"}}}}]}, "standing": {"placement": 2, "stats": {"score": {"value": 0}}}}], "games": null}, {"id": 92174740, "state": 3, "round": -4, "fullRoundText": "Losers Round 1", "completedAt": 1754102004, "winnerId": 20861660, "slots": [{"id": "92174740-0", "entrant": {"id": 20861660, "name": "Erran", "participants": [{"id": 19196749, "gamerTag": "Erran", "prefix": "", "user": {"location": {"city": "Atlanta", "state": "GA", "country": "United States"}}, "player": {"id": 36706, "gamerTag": "Erran", "prefix": "", "user": {"location": {"city": "Atlanta", "state": "GA", "country": "United States"}}}}]}, "standing": {"placement": 1, "stats": {"score": {"value": 3}}}}, {"id": "92174740-1", "entrant": {"id": 20838540, "name": "noided", "participants": [{"id": 19175844, "gamerTag": "noided", "prefix": "", "user": {"location": {"city": "Atlanta", "state": "GA", "country": "United States"}}, "player": {"id": 2586521, "gamerTag": "noided", "prefix": "", "user": {"location": {"city": "Atlanta", "state": "GA", "country": "United States"}}}}]}, "standing": {"placement": 2, "stats": {"score": {"value": 0}}}}], "games": null}, {"id": 92174741, "state": 3, "round": -4, "fullRoundText": "Losers Round 1", "completedAt": 1754102727, "winnerId": 20859810, "slots": [{"id": "92174741-0", "entrant": {"id": 20859810, "name": "tomguy", "participants": [{"id": 19195086, "gamerTag": "tomguy", "prefix": "", "user": {"location": {"city": "Atlanta", "state": "GA", "country": "United States"}}, "player": {"id": 147458, "gamerTag": "tomguy", "prefix": "", "user": {"location": {"city": "Atlanta", "state": "GA", "country": "United States"}}}}]}, "standing": {"placement": 1, "stats": {"score": {"value": 3}}}}, {"id": "92174741-1", "entrant": {"id": 20857533, "name": "SCS | dougie2doinks", "participants": [{"id": 19192926, "gamerTag": "dougie2doinks", "prefix": "SCS", "user": {"location": {"city": "Atlanta", "state": "GA", "country": "United States"}}, "player": {"id": 1569735, "gamerTag": "dougie2doinks", "prefix": "SCS", "user": {"location": {"city": "Atlanta", "state": "GA", "country": "United States"}}}}]}, "standing": {"placement": 2, "stats": {"score": {"value": 1}}}}], "games": null}, {"id": 92174702, "state": 3, "round": 1, "fullRoundText": "Winners Round 1", "completedAt": 1754100558, "winnerId": 20859810, "slots": [{"id": "92174702-0", "entrant": {"id": 20862044, "name": "Rail Tracer", "participants": [{"id": 19197028, "gamerTag": "Rail Tracer", "prefix": "", "user": null, "player": {"id": 4905282, "gamerTag": "Rail Tracer", "prefix": "", "user": null}}]}, "standing": {"placement": 2, "stats": {"score": {"value": 2}}}}, {"id": "92174702-1", "entrant": {"id": 20859810, "name": "tomguy", "participants": [{"id": 19195086, "gamerTag": "tomguy", "prefix": "", "user": {"location": {"city": "Atlanta", "state": "GA", "country": "United States"}}, "player": {"id": 147458, "gamerTag": "tomguy", "prefix": "", "user": {"location": {"city": "Atlanta", "state": "GA", "country": "United States"}}}}]}, "standing": {"placement": 1, "stats": {"score": {"value": 3}}}}], "games": null}, {"id": 92174704, "state": 3, "round": 1, "fullRoundText": "Winners Round 1", "completedAt": 1754099465, "winnerId": 20861660, "slots": [{"id": "92174704-0", "entrant": {"id": 20861660, "name": "Erran", "participants": [{"id": 19196749, "gamerTag": "Erran", "prefix": "", "user": {"location": {"city": "Atlanta", "state": "GA", "country": "United States"}}, "player": {"id": 36706, "gamerTag": "Erran", "prefix": "", "user": {"location": {"city": "Atlanta", "state": "GA", "country": "United States"}}}}]}, "standing": {"placement": 1, "stats": {"score": {"value": 2}}}}, {"id": "92174704-1", "entrant": {"id": 20835693, "name": "afterimage", "participants": [{"id": 19173578, "gamerTag": "afterimage", "prefix": "", "user": {"location": {"city": "Atlanta", "state": "GA", "country": "United States"}}, "player": {"id": 4435133, "gamerTag": "popsicle", "prefix": "", "user": {"location": {"city": "Atlanta", "state": "GA", "country": "United States"}}}}]}, "standing": {"placement": 2, "stats": {"score": {"value": 0}}}}], "games": null}, {"id": 92174706, "state": 3, "round": 1, "fullRoundText": "Winners Round 1", "completedAt": 1754099482, "winnerId": 20861925, "slots": [{"id": "92174706-0", "entrant": {"id": 20861925, "name": "napkino jr", "participants": [{"id": 19196942, "gamerTag": "napkino jr", "prefix": "", "user": null, "player": {"id": 4905271, "gamerTag": "napkino jr", "prefix": "", "user": null}}]}, "standing": {"placement": 1, "stats": {"score": {"value": 3}}}}, {"id": "92174706-1", "entrant": {"id": 20838540, "name": "noided", "participants": [{"id": 19175844, "gamerTag": "noided", "prefix": "", "user": {"location": {"city": "Atlanta", "state": "GA", "country": "United States"}}, "player": {"id": 2586521, "gamerTag": "noided", "prefix": "", "user": {"location": {"city": "Atlanta", "state": "GA", "country": "United States"}}}}]}, "standing": {"placement": 2, "stats": {"score": {"value": 0}}}}], "games": null}, {"id": 92174708, "state": 3, "round": 1, "fullRoundText": "Winners Round 1", "completedAt": 1754100359, "winnerId": 20862016, "slots": [{"id": "92174708-0", "entrant": {"id": 20862016, "name": "skyguy | Lover", "participants": [{"id": 19196571, "gamerTag": "Lover", "prefix": "skyguy", "user": {"location": {"city": "Atlanta", "state": "GA", "country": "United States"}}, "player": {"id": 53805, "gamerTag": "Lover", "prefix": "skyguy", "user": {"location": {"city": "Atlanta", "state": "GA", "country": "United States"}}}}]}, "standing": {"placement": 1, "stats": {"score": {"value": 3}}}}, {"id": "92174708-1", "entrant": {"id": 20857533, "name": "SCS | dougie2doinks", "participants": [{"id": 19192926, "gamerTag": "dougie2doinks", "prefix": "SCS", "user": {"location": {"city": "Atlanta", "state": "GA", "country": "United States"}}, "player": {"id": 1569735, "gamerTag": "dougie2doinks", "prefix": "SCS", "user": {"location": {"city": "Atlanta", "state": "GA", "country": "United States"}}}}]}, "standing": {"placement": 2, "stats": {"score": {"value": 0}}}}], "games": null}]}}}