{"event": {"sets": {"pageInfo": {"totalPages": 2, "total": 30}, "nodes": [{"id": 93271175, "state": 3, "round": 5, "fullRoundText": "Grand Final", "completedAt": 1756581366, "winnerId": 20974571, "slots": [{"id": "93271175-0", "entrant": {"id": 20974571, "name": "Jel-Sensei", "participants": [{"id": 19295829, "gamerTag": "Jel-Sensei", "prefix": "", "user": {"location": {"city": "birmingham", "state": "AL", "country": "United States"}}, "player": {"id": 1966345, "gamerTag": "Jel-Sensei", "prefix": "", "user": {"location": {"city": "birmingham", "state": "AL", "country": "United States"}}}}]}, "standing": {"placement": 1, "stats": {"score": {"value": 3}}}}, {"id": "93271175-1", "entrant": {"id": 21097931, "name": "Darth_Prysm-1", "participants": [{"id": 19406411, "gamerTag": "Darth_Prysm-1", "prefix": null, "user": {"location": {"city": "Woodstock", "state": "GA", "country": "United States"}}, "player": {"id": 4269051, "gamerTag": "Darth_Prysm-1", "prefix": null, "user": {"location": {"city": "Woodstock", "state": "GA", "country": "United States"}}}}]}, "standing": {"placement": 2, "stats": {"score": {"value": 0}}}}], "games": null}, {"id": 93271174, "state": 3, "round": 4, "fullRoundText": "Winners Final", "completedAt": 1756578633, "winnerId": 20974571, "slots": [{"id": "93271174-0", "entrant": {"id": 21097931, "name": "Darth_Prysm-1", "participants": [{"id": 19406411, "gamerTag": "Darth_Prysm-1", "prefix": null, "user": {"location": {"city": "Woodstock", "state": "GA", "country": "United States"}}, "player": {"id": 4269051, "gamerTag": "Darth_Prysm-1", "prefix": null, "user": {"location": {"city": "Woodstock", "state": "GA", "country": "United States"}}}}]}, "standing": {"placement": 2, "stats": {"score": {"value": 1}}}}, {"id": "93271174-1", "entrant": {"id": 20974571, "name": "Jel-Sensei", "participants": [{"id": 19295829, "gamerTag": "Jel-Sensei", "prefix": "", "user": {"location": {"city": "birmingham", "state": "AL", "country": "United States"}}, "player": {"id": 1966345, "gamerTag": "Jel-Sensei", "prefix": "", "user": {"location": {"city": "birmingham", "state": "AL", "country": "United States"}}}}]}, "standing": {"placement": 1, "stats": {"score": {"value": 3}}}}], "games": null}, {"id": 93271206, "state": 3, "round": -8, "fullRoundText": "Losers Final", "completedAt": 1756580787, "winnerId": 21097931, "slots": [{"id": "93271206-0", "entrant": {"id": 21097931, "name": "Darth_Prysm-1", "participants": [{"id": 19406411, "gamerTag": "Darth_Prysm-1", "prefix": null, "user": {"location": {"city": "Woodstock", "state": "GA", "country": "United States"}}, "player": {"id": 4269051, "gamerTag": "Darth_Prysm-1", "prefix": null, "user": {"location": {"city": "Woodstock", "state": "GA", "country": "United States"}}}}]}, "standing": {"placement": 1, "stats": {"score": {"value": 3}}}}, {"id": "93271206-1", "entrant": {"id": 21105190, "name": "ZeAxell", "participants": [{"id": 19413164, "gamerTag": "ZeAxell", "prefix": "", "user": {"location": {"city": "Loganville", "state": "GA", "country": "United States"}}, "player": {"id": 3771808, "gamerTag": "ZeAxell", "prefix": "", "user": {"location": {"city": "Loganville", "state": "GA", "country": "United States"}}}}]}, "standing": {"placement": 2, "stats": {"score": {"value": 0}}}}], "games": null}, {"id": 93271205, "state": 3, "round": -7, "fullRoundText": "Losers Semi-Final", "completedAt": 1756580123, "winnerId": 21105190, "slots": [{"id": "93271205-0", "entrant": {"id": 21075143, "name": "The World Warrior", "participants": [{"id": 19386015, "gamerTag": "The World Warrior", "prefix": null, "user": {"location": {"city": "Atlanta", "state": "GA", "country": "United States"}}, "player": {"id": 1369004, "gamerTag": "The World Warrior", "prefix": null, "user": {"location": {"city": "Atlanta", "state": "GA", "country": "United States"}}}}]}, "standing": {"placement": 2, "stats": {"score": {"value": 1}}}}, {"id": "93271205-1", "entrant": {"id": 21105190, "name": "ZeAxell", "participants": [{"id": 19413164, "gamerTag": "ZeAxell", "prefix": "", "user": {"location": {"city": "Loganville", "state": "GA", "country": "United States"}}, "player": {"id": 3771808, "gamerTag": "ZeAxell", "prefix": "", "user": {"location": {"city": "Loganville", "state": "GA", "country": "United States"}}}}]}, "standing": {"placement": 1, "stats": {"score": {"value": 2}}}}], "games": null}, {"id": 93271172, "state": 3, "round": 3, "fullRoundText": "Winners Semi-Final", "completedAt": 1756577689, "winnerId": 21097931, "slots": [{"id": "93271172-0", "entrant": {"id": 21119381, "name": "Jemi Keiyns", "participants": [{"id": 19425900, "gamerTag": "Jemi Keiyns", "prefix": "", "user": {"location": {"city": null, "state": null, "country": null}}, "player": {"id": 3640628, "gamerTag": "Jemi Keiyns", "prefix": "", "user": {"location": {"city": null, "state": null, "country": null}}}}]}, "standing": {"placement": 2, "stats": {"score": {"value": 1}}}}, {"id": "93271172-1", "entrant": {"id": 21097931, "name": "Darth_Prysm-1", "participants": [{"id": 19406411, "gamerTag": "Darth_Prysm-1", "prefix": null, "user": {"location": {"city": "Woodstock", "state": "GA", "country": "United States"}}, "player": {"id": 4269051, "gamerTag": "Darth_Prysm-1", "prefix": null, "user": {"location": {"city": "Woodstock", "state": "GA", "country": "United States"}}}}]}, "standing": {"placement": 1, "stats": {"score": {"value": 2}}}}], "games": null}, {"id": 93271173, "state": 3, "round": 3, "fullRoundText": "Winners Semi-Final", "completedAt": 1756577536, "winnerId": 20974571, "slots": [{"id": "93271173-0", "entrant": {"id": 21088984, "name": "Hambone", "participants": [{"id": 19398486, "gamerTag": "Hambone", "prefix": "", "user": {"location": {"city": "Atlanta", "state": "GA", "country": "United States"}}, "player": {"id": 4943239, "gamerTag": "Hambone", "prefix": "", "user": {"location": {"city": "Atlanta", "state": "GA", "country": "United States"}}}}]}, "standing": {"placement": 2, "stats": {"score": {"value": 0}}}}, {"id": "93271173-1", "entrant": {"id": 20974571, "name": "Jel-Sensei", "participants": [{"id": 19295829, "gamerTag": "Jel-Sensei", "prefix": "", "user": {"location": {"city": "birmingham", "state": "AL", "country": "United States"}}, "player": {"id": 1966345, "gamerTag": "Jel-Sensei", "prefix": "", "user": {"location": {"city": "birmingham", "state": "AL", "country": "United States"}}}}]}, "standing": {"placement": 1, "stats": {"score": {"value": 2}}}}], "games": null}, {"id": 93271203, "state": 3, "round": -6, "fullRoundText": "Losers Quarter-Final", "completedAt": 1756579137, "winnerId": 21075143, "slots": [{"id": "93271203-0", "entrant": {"id": 21119381, "name": "Jemi Keiyns", "participants": [{"id": 19425900, "gamerTag": "Jemi Keiyns", "prefix": "", "user": {"location": {"city": null, "state": null, "country": null}}, "player": {"id": 3640628, "gamerTag": "Jemi Keiyns", "prefix": "", "user": {"location": {"city": null, "state": null, "country": null}}}}]}, "standing": {"placement": 2, "stats": {"score": {"value": 0}}}}, {"id": "93271203-1", "entrant": {"id": 21075143, "name": "The World Warrior", "participants": [{"id": 19386015, "gamerTag": "The World Warrior", "prefix": null, "user": {"location": {"city": "Atlanta", "state": "GA", "country": "United States"}}, "player": {"id": 1369004, "gamerTag": "The World Warrior", "prefix": null, "user": {"location": {"city": "Atlanta", "state": "GA", "country": "United States"}}}}]}, "standing": {"placement": 1, "stats": {"score": {"value": 2}}}}], "games": null}, {"id": 93271204, "state": 3, "round": -6, "fullRoundText": "Losers Quarter-Final", "completedAt": 1756579096, "winnerId": 21105190, "slots": [{"id": "93271204-0", "entrant": {"id": 21088984, "name": "Hambone", "participants": [{"id": 19398486, "gamerTag": "Hambone", "prefix": "", "user": {"location": {"city": "Atlanta", "state": "GA", "country": "United States"}}, "player": {"id": 4943239, "gamerTag": "Hambone", "prefix": "", "user": {"location": {"city": "Atlanta", "state": "GA", "country": "United States"}}}}]}, "standing": {"placement": 2, "stats": {"score": {"value": 0}}}}, {"id": "93271204-1", "entrant": {"id": 21105190, "name": "ZeAxell", "participants": [{"id": 19413164, "gamerTag": "ZeAxell", "prefix": "", "user": {"location": {"city": "Loganville", "state": "GA", "country": "United States"}}, "player": {"id": 3771808, "gamerTag": "ZeAxell", "prefix": "", "user": {"location": {"city": "Loganville", "state": "GA", "country": "United States"}}}}]}, "standing": {"placement": 1, "stats": {"score": {"value": 2}}}}], "games": null}, {"id": 93271202, "state": 3, "round": -5, "fullRoundText": "Losers Round 3", "completedAt": 1756578576, "winnerId": 21105190, "slots": [{"id": "93271202-0", "entrant": {"id": 21094646, "name": "Shadow Crescent", "participants": [{"id": 19403709, "gamerTag": "Shadow Crescent", "prefix": "", "user": {"location": {"city": "Dallas", "state": null, "country": "United States"}}, "player": {"id": 3587396, "gamerTag": "Shadow Crescent", "prefix": "", "user": {"location": {"city": "Dallas", "state": null, "country": "United States"}}}}]}, "standing": {"placement": 2, "stats": {"score": {"value": 0}}}}, {"id": "93271202-1", "entrant": {"id": 21105190, "name": "ZeAxell", "participants": [{"id": 19413164, "gamerTag": "ZeAxell", "prefix": "", "user": {"location": {"city": "Loganville", "state": "GA", "country": "United States"}}, "player": {"id": 3771808, "gamerTag": "ZeAxell", "prefix": "", "user": {"location": {"city": "Loganville", "state": "GA", "country": "United States"}}}}]}, "standing": {"placement": 1, "stats": {"score": {"value": 2}}}}], "games": null}, {"id": 93271201, "state": 3, "round": -5, "fullRoundText": "Losers Round 3", "completedAt": 1756578301, "winnerId": 21075143, "slots": [{"id": "93271201-0", "entrant": {"id": 21075143, "name": "The World Warrior", "participants": [{"id": 19386015, "gamerTag": "The World Warrior", "prefix": null, "user": {"location": {"city": "Atlanta", "state": "GA", "country": "United States"}}, "player": {"id": 1369004, "gamerTag": "The World Warrior", "prefix": null, "user": {"location": {"city": "Atlanta", "state": "GA", "country": "United States"}}}}]}, "standing": {"placement": 1, "stats": {"score": {"value": 2}}}}, {"id": "93271201-1", "entrant": {"id": 21065599, "name": "ActiveFrameOne", "participants": [{"id": 19377228, "gamerTag": "ActiveFrameOne", "prefix": "", "user": {"location": {"city": "Atlanta", "state": "GA", "country": "United States"}}, "player": {"id": 4939270, "gamerTag": "ActiveFrameOne", "prefix": "", "user": {"location": {"city": "Atlanta", "state": "GA", "country": "United States"}}}}]}, "standing": {"placement": 2, "stats": {"score": {"value": 0}}}}], "games": null}, {"id": 93271168, "state": 3, "round": 2, "fullRoundText": "Winners Quarter-Final", "completedAt": 1756577460, "winnerId": 21119381, "slots": [{"id": "93271168-0", "entrant": {"id": 21119381, "name": "Jemi Keiyns", "participants": [{"id": 19425900, "gamerTag": "Jemi Keiyns", "prefix": "", "user": {"location": {"city": null, "state": null, "country": null}}, "player": {"id": 3640628, "gamerTag": "Jemi Keiyns", "prefix": "", "user": {"location": {"city": null, "state": null, "country": null}}}}]}, "standing": {"placement": 1, "stats": {"score": {"value": 2}}}}, {"id": "93271168-1", "entrant": {"id": 21079222, "name": "DaFunnyMan", "participants": [{"id": 19389821, "gamerTag": "DaFunnyMan", "prefix": "", "user": {"location": {"city": "Canton", "state": "GA", "country": "United States"}}, "player": {"id": 4278503, "gamerTag": "DaFunnyMan", "prefix": "", "user": {"location": {"city": "Canton", "state": "GA", "country": "United States"}}}}]}, "standing": {"placement": 2, "stats": {"score": {"value": 0}}}}], "games": null}, {"id": 93271169, "state": 3, "round": 2, "fullRoundText": "Winners Quarter-Final", "completedAt": 1756576225, "winnerId": 21097931, "slots": [{"id": "93271169-0", "entrant": {"id": 21097931, "name": "Darth_Prysm-1", "participants": [{"id": 19406411, "gamerTag": "Darth_Prysm-1", "prefix": null, "user": {"location": {"city": "Woodstock", "state": "GA", "country": "United States"}}, "player": {"id": 4269051, "gamerTag": "Darth_Prysm-1", "prefix": null, "user": {"location": {"city": "Woodstock", "state": "GA", "country": "United States"}}}}]}, "standing": {"placement": 1, "stats": {"score": {"value": 2}}}}, {"id": "93271169-1", "entrant": {"id": 21094646, "name": "Shadow Crescent", "participants": [{"id": 19403709, "gamerTag": "Shadow Crescent", "prefix": "", "user": {"location": {"city": "Dallas", "state": null, "country": "United States"}}, "player": {"id": 3587396, "gamerTag": "Shadow Crescent", "prefix": "", "user": {"location": {"city": "Dallas", "state": null, "country": "United States"}}}}]}, "standing": {"placement": 2, "stats": {"score": {"value": 0}}}}], "games": null}, {"id": 93271170, "state": 3, "round": 2, "fullRoundText": "Winners Quarter-Final", "completedAt": 1756576353, "winnerId": 21088984, "slots": [{"id": "93271170-0", "entrant": {"id": 20940688, "name": "InariF", "participants": [{"id": 19266364, "gamerTag": "InariF", "prefix": "", "user": {"location": {"city": "Crawfordville", "state": "FL", "country": "United States"}}, "player": {"id": 3603515, "gamerTag": "InariF", "prefix": "", "user": {"location": {"city": "Crawfordville", "state": "FL", "country": "United States"}}}}]}, "standing": {"placement": 2, "stats": {"score": {"value": 0}}}}, {"id": "93271170-1", "entrant": {"id": 21088984, "name": "Hambone", "participants": [{"id": 19398486, "gamerTag": "Hambone", "prefix": "", "user": {"location": {"city": "Atlanta", "state": "GA", "country": "United States"}}, "player": {"id": 4943239, "gamerTag": "Hambone", "prefix": "", "user": {"location": {"city": "Atlanta", "state": "GA", "country": "United States"}}}}]}, "standing": {"placement": 1, "stats": {"score": {"value": 2}}}}], "games": null}, {"id": 93271171, "state": 3, "round": 2, "fullRoundText": "Winners Quarter-Final", "completedAt": 1756576858, "winnerId": 20974571, "slots": [{"id": "93271171-0", "entrant": {"id": 20974571, "name": "Jel-Sensei", "participants": [{"id": 19295829, "gamerTag": "Jel-Sensei", "prefix": "", "user": {"location": {"city": "birmingham", "state": "AL", "country": "United States"}}, "player": {"id": 1966345, "gamerTag": "Jel-Sensei", "prefix": "", "user": {"location": {"city": "birmingham", "state": "AL", "country": "United States"}}}}]}, "standing": {"placement": 1, "stats": {"score": {"value": 2}}}}, {"id": "93271171-1", "entrant": {"id": 21089315, "name": "Archway", "participants": [{"id": 19398797, "gamerTag": "Archway", "prefix": "", "user": {"location": {"city": "Sandy Springs", "state": "GA", "country": "United States"}}, "player": {"id": 1435251, "gamerTag": "Archway", "prefix": "", "user": {"location": {"city": "Sandy Springs", "state": "GA", "country": "United States"}}}}]}, "standing": {"placement": 2, "stats": {"score": {"value": 0}}}}], "games": null}, {"id": 93271197, "state": 3, "round": -4, "fullRoundText": "Losers Round 2", "completedAt": 1756577635, "winnerId": 21075143, "slots": [{"id": "93271197-0", "entrant": {"id": 21089315, "name": "Archway", "participants": [{"id": 19398797, "gamerTag": "Archway", "prefix": "", "user": {"location": {"city": "Sandy Springs", "state": "GA", "country": "United States"}}, "player": {"id": 1435251, "gamerTag": "Archway", "prefix": "", "user": {"location": {"city": "Sandy Springs", "state": "GA", "country": "United States"}}}}]}, "standing": {"placement": 2, "stats": {"score": {"value": 0}}}}, {"id": "93271197-1", "entrant": {"id": 21075143, "name": "The World Warrior", "participants": [{"id": 19386015, "gamerTag": "The World Warrior", "prefix": null, "user": {"location": {"city": "Atlanta", "state": "GA", "country": "United States"}}, "player": {"id": 1369004, "gamerTag": "The World Warrior", "prefix": null, "user": {"location": {"city": "Atlanta", "state": "GA", "country": "United States"}}}}]}, "standing": {"placement": 1, "stats": {"score": {"value": 2}}}}], "games": null}]}}}