{"phase": {"seeds": {"pageInfo": {"totalPages": 1, "total": 20}, "nodes": [{"id": 36456237, "seedNum": 1, "entrant": {"id": 21160064, "name": "DGS | spickles", "participants": [{"id": 19462113, "gamerTag": "spickles", "prefix": "DGS", "user": {"location": {"city": null, "state": null, "country": "United States"}}, "player": {"id": 1154793, "gamerTag": "spickles", "prefix": "DGS", "user": {"location": {"city": null, "state": null, "country": "United States"}}}}]}}, {"id": 36457800, "seedNum": 2, "entrant": {"id": 21161415, "name": "GUMP2 | Spider", "participants": [{"id": 19463320, "gamerTag": "Spider", "prefix": "GUMP2", "user": {"location": {"city": "Atlanta", "state": "GA", "country": "United States"}}, "player": {"id": 691176, "gamerTag": "Spider", "prefix": "GUMP2", "user": {"location": {"city": "Atlanta", "state": "GA", "country": "United States"}}}}]}}, {"id": 36457971, "seedNum": 3, "entrant": {"id": 21161571, "name": "Barbashop", "participants": [{"id": 19463463, "gamerTag": "Barbashop", "prefix": "", "user": {"location": {"city": null, "state": null, "country": null}}, "player": {"id": 2537853, "gamerTag": "Barbashop", "prefix": "", "user": {"location": {"city": null, "state": null, "country": null}}}}]}}, {"id": 36457955, "seedNum": 4, "entrant": {"id": 21161555, "name": "GUMP2 | JankTrees!", "participants": [{"id": 19463450, "gamerTag": "JankTrees!", "prefix": "GUMP2", "user": {"location": {"city": "Cartersville", "state": "GA", "country": "United States"}}, "player": {"id": 35695, "gamerTag": "JankTrees!", "prefix": "GUMP2", "user": {"location": {"city": "Cartersville", "state": "GA", "country": "United States"}}}}]}}, {"id": 36458216, "seedNum": 6, "entrant": {"id": 21161782, "name": "FreeDubs", "participants": [{"id": 19463652, "gamerTag": "FreeDubs", "prefix": "", "user": {"location": {"city": "Atlanta", "state": null, "country": "United States"}}, "player": {"id": 4888408, "gamerTag": "FreeDubs", "prefix": "", "user": {"location": {"city": "Atlanta", "state": null, "country": "United States"}}}}]}}, {"id": 36456626, "seedNum": 7, "entrant": {"id": 21160406, "name": "red dot", "participants": [{"id": 19462439, "gamerTag": "red dot", "prefix": "", "user": {"location": {"city": "Milton", "state": "GA", "country": "United States"}}, "player": {"id": 1812177, "gamerTag": "red dot", "prefix": "", "user": {"location": {"city": "Milton", "state": "GA", "country": "United States"}}}}]}}, {"id": 36455571, "seedNum": 5, "entrant": {"id": 21159495, "name": "Rain~", "participants": [{"id": 19461613, "gamerTag": "Rain~", "prefix": null, "user": {"location": {"city": "Atlanta", "state": "GA", "country": "United States"}}, "player": {"id": 4240164, "gamerTag": "Rain~", "prefix": null, "user": {"location": {"city": "Atlanta", "state": "GA", "country": "United States"}}}}]}}, {"id": 36452705, "seedNum": 10, "entrant": {"id": 21157317, "name": "UTO|WhaLey | Kingwifi", "participants": [{"id": 19459587, "gamerTag": "Kingwifi", "prefix": "UTO|WhaLey", "user": {"location": {"city": "Stone Mountain", "state": "GA", "country": "United States"}}, "player": {"id": 2016149, "gamerTag": "Whaley", "prefix": "KSU|UTO|BLZE", "user": {"location": {"city": "Stone Mountain", "state": "GA", "country": "United States"}}}}]}}, {"id": 36451867, "seedNum": 8, "entrant": {"id": 21156553, "name": "GUMP2 | Woz but evil", "participants": [{"id": 19458962, "gamerTag": "Woz but evil", "prefix": "GUMP2", "user": {"location": {"city": "Avondale Estates", "state": "GA", "country": "United States"}}, "player": {"id": 225744, "gamerTag": "Z I C O", "prefix": "GUMP2", "user": {"location": {"city": "Avondale Estates", "state": "GA", "country": "United States"}}}}]}}, {"id": 36456565, "seedNum": 11, "entrant": {"id": 21160352, "name": "Boo", "participants": [{"id": 19462382, "gamerTag": "Boo", "prefix": "", "user": {"location": {"city": "Cumming", "state": "GA", "country": "United States"}}, "player": {"id": 2647915, "gamerTag": "Boo", "prefix": "", "user": {"location": {"city": "Cumming", "state": "GA", "country": "United States"}}}}]}}, {"id": 36419721, "seedNum": 13, "entrant": {"id": 21135222, "name": "KSU | colorful\u029a\u025e", "participants": [{"id": 19440252, "gamerTag": "colorful\u029a\u025e", "prefix": "KSU", "user": {"location": {"city": "Kennesaw", "state": "GA", "country": "United States"}}, "player": {"id": 1783074, "gamerTag": "colorful\u029a\u025e", "prefix": "KSU | RM", "user": {"location": {"city": "Kennesaw", "state": "GA", "country": "United States"}}}}]}}, {"id": 36452796, "seedNum": 16, "entrant": {"id": 21157380, "name": "Zarek", "participants": [{"id": 19459643, "gamerTag": "Zarek", "prefix": "", "user": {"location": {"city": "Atlanta", "state": "GA", "country": "United States"}}, "player": {"id": 405682, "gamerTag": "Zarek", "prefix": "", "user": {"location": {"city": "Atlanta", "state": "GA", "country": "United States"}}}}]}}, {"id": 36457226, "seedNum": 9, "entrant": {"id": 21160933, "name": "carlop", "participants": [{"id": 19462887, "gamerTag": "carlop", "prefix": null, "user": {"location": {"city": "Johns Creek", "state": "GA", "country": "United States"}}, "player": {"id": 3431919, "gamerTag": "carlop", "prefix": null, "user": {"location": {"city": "Johns Creek", "state": "GA", "country": "United States"}}}}]}}, {"id": 36458257, "seedNum": 14, "entrant": {"id": 21161815, "name": "SaggyMilkJug", "participants": [{"id": 19463683, "gamerTag": "SaggyMilkJug", "prefix": "", "user": {"location": {"city": "Atlanta", "state": "GA", "country": "United States"}}, "player": {"id": 4651404, "gamerTag": "SaggyMilkJug", "prefix": "", "user": {"location": {"city": "Atlanta", "state": "GA", "country": "United States"}}}}]}}, {"id": 36458790, "seedNum": 15, "entrant": {"id": 21162140, "name": "WDKL MTM | D*ron", "participants": [{"id": 19463943, "gamerTag": "D*ron", "prefix": "WDKL MTM", "user": {"location": {"city": "Smyrna", "state": "GA", "country": "United States"}}, "player": {"id": 516047, "gamerTag": "D*ron", "prefix": "WDKL MTM", "user": {"location": {"city": "Smyrna", "state": "GA", "country": "United States"}}}}]}}, {"id": 36458598, "seedNum": 18, "entrant": {"id": 21161996, "name": "MTM | Mishmash", "participants": [{"id": 19463820, "gamerTag": "Mishmash", "prefix": "MTM", "user": {"location": {"city": "Cartersville", "state": "GA", "country": "United States"}}, "player": {"id": 4104907, "gamerTag": "Mishmash", "prefix": "MTM", "user": {"location": {"city": "Cartersville", "state": "GA", "country": "United States"}}}}]}}, {"id": 36447204, "seedNum": 12, "entrant": {"id": 21152942, "name": "KSU | Subzero", "participants": [{"id": 19455963, "gamerTag": "Subzero", "prefix": "KSU", "user": {"location": {"city": "Acworth", "state": "GA", "country": "United States"}}, "player": {"id": 1808159, "gamerTag": "Subzero", "prefix": "KSU", "user": {"location": {"city": "Acworth", "state": "GA", "country": "United States"}}}}]}}, {"id": 36458822, "seedNum": 17, "entrant": {"id": 21162171, "name": "RNG | Samsin", "participants": [{"id": 19463968, "gamerTag": "Samsin", "prefix": "RNG", "user": {"location": {"city": "Marietta", "state": "GA", "country": "United States"}}, "player": {"id": 886411, "gamerTag": "Samsin", "prefix": "RNG", "user": {"location": {"city": "Marietta", "state": "GA", "country": "United States"}}}}]}}, {"id": 36457073, "seedNum": 19, "entrant": {"id": 21160800, "name": "The Pill", "participants": [{"id": 19462762, "gamerTag": "The Pill", "prefix": "", "user": null, "player": {"id": 4956323, "gamerTag": "The Pill", "prefix": "", "user": null}}]}}, {"id": 36458506, "seedNum": 20, "entrant": {"id": 21161928, "name": "CRAZYTAXI | FlyingSaucer", "participants": [{"id": 19463765, "gamerTag": "FlyingSaucer", "prefix": "CRAZYTAXI", "user": {"location": {"city": "Atlanta", "state": "GA", "country": "United States"}}, "player": {"id": 3116904, "gamerTag": "FlyingSaucer", "prefix": "CRAZYTAXI", "user": {"location": {"city": "Atlanta", "state": "GA", "country": "United States"}}}}]}}]}}}