{"phase": {"seeds": {"pageInfo": {"totalPages": 1, "total": 7}, "nodes": [{"id": 36580299, "seedNum": 2, "entrant": {"id": 21241890, "name": "N/a | C$", "participants": [{"id": 19534052, "gamerTag": "C$", "prefix": "N/a", "user": {"location": null}, "player": {"id": 228175, "gamerTag": "C$", "prefix": "N/a", "user": {"location": null}}}]}}, {"id": 36619397, "seedNum": 1, "entrant": {"id": 21269434, "name": "Nero", "participants": [{"id": 19557395, "gamerTag": "Nero", "prefix": "", "user": {"location": {"city": "Calgary", "state": "AB", "country": "Canada"}}, "player": {"id": 175669, "gamerTag": "Nero", "prefix": "", "user": {"location": {"city": "Calgary", "state": "AB", "country": "Canada"}}}}]}}, {"id": 36634575, "seedNum": 5, "entrant": {"id": 21280281, "name": "skyguy | Lover", "participants": [{"id": 19565459, "gamerTag": "Lover", "prefix": "skyguy", "user": {"location": {"city": "Atlanta", "state": "GA", "country": "United States"}}, "player": {"id": 53805, "gamerTag": "Lover", "prefix": "skyguy", "user": {"location": {"city": "Atlanta", "state": "GA", "country": "United States"}}}}]}}, {"id": 36586637, "seedNum": 4, "entrant": {"id": 21246602, "name": "NMBS | Phteven", "participants": [{"id": 19538162, "gamerTag": "Phteven", "prefix": "NMBS", "user": {"location": {"city": "Mableton", "state": "GA", "country": "United States"}}, "player": {"id": 209952, "gamerTag": "Phteven", "prefix": "NMBS", "user": {"location": {"city": "Mableton", "state": "GA", "country": "United States"}}}}]}}, {"id": 36632101, "seedNum": 3, "entrant": {"id": 21278290, "name": "hexjo", "participants": [{"id": 19564022, "gamerTag": "hexjo", "prefix": "", "user": {"location": {"city": "Boston", "state": "MA", "country": "United States"}}, "player": {"id": 29103, "gamerTag": "hexjo", "prefix": "", "user": {"location": {"city": "Boston", "state": "MA", "country": "United States"}}}}]}}, {"id": 36634498, "seedNum": 6, "entrant": {"id": 21280211, "name": "President Polar Bear", "participants": [{"id": 19565390, "gamerTag": "President Polar Bear", "prefix": "", "user": {"location": {"city": "Atlanta", "state": "GA", "country": "United States"}}, "player": {"id": 34568, "gamerTag": "President Polar Bear", "prefix": "", "user": {"location": {"city": "Atlanta", "state": "GA", "country": "United States"}}}}]}}, {"id": 36627553, "seedNum": 7, "entrant": {"id": 21275083, "name": "Permafrost", "participants": [{"id": 19561988, "gamerTag": "Permafrost", "prefix": "", "user": {"location": {"city": "Atlanta", "state": "GA", "country": "United States"}}, "player": {"id": 1256898, "gamerTag": "Permafrost", "prefix": "", "user": {"location": {"city": "Atlanta", "state": "GA", "country": "United States"}}}}]}}]}}}