{"phase": {"seeds": {"pageInfo": {"totalPages": 1, "total": 14}, "nodes": [{"id": 36136088, "seedNum": 1, "entrant": {"id": 20953624, "name": "DGS | spickles", "participants": [{"id": 19277659, "gamerTag": "spickles", "prefix": "DGS", "user": {"location": {"city": null, "state": null, "country": "United States"}}, "player": {"id": 1154793, "gamerTag": "spickles", "prefix": "DGS", "user": {"location": {"city": null, "state": null, "country": "United States"}}}}]}}, {"id": 36130206, "seedNum": 2, "entrant": {"id": 20949200, "name": "TRAIN", "participants": [{"id": 19273933, "gamerTag": "TRAIN", "prefix": "", "user": {"location": {"city": "Fort Erie", "state": "ON", "country": "Canada"}}, "player": {"id": 160326, "gamerTag": "TRAIN", "prefix": "", "user": {"location": {"city": "Fort Erie", "state": "ON", "country": "Canada"}}}}]}}, {"id": 36131044, "seedNum": 6, "entrant": {"id": 20949777, "name": "Sacred", "participants": [{"id": 19274264, "gamerTag": "Sacred", "prefix": "", "user": {"location": {"city": null, "state": null, "country": "United States"}}, "player": {"id": 1007555, "gamerTag": "Sacred", "prefix": "", "user": {"location": {"city": null, "state": null, "country": "United States"}}}}]}}, {"id": 36136033, "seedNum": 4, "entrant": {"id": 20953566, "name": "Typical!", "participants": [{"id": 19277605, "gamerTag": "Typical!", "prefix": "", "user": {"location": {"city": "Cumming", "state": "GA", "country": "United States"}}, "player": {"id": 1227171, "gamerTag": "Typical!", "prefix": "", "user": {"location": {"city": "Cumming", "state": "GA", "country": "United States"}}}}]}}, {"id": 36133426, "seedNum": 3, "entrant": {"id": 20951486, "name": "Jeni", "participants": [{"id": 19275815, "gamerTag": "Jeni", "prefix": "", "user": {"location": {"city": null, "state": null, "country": null}}, "player": {"id": 1499467, "gamerTag": "Jeni", "prefix": "", "user": {"location": {"city": null, "state": null, "country": null}}}}]}}, {"id": 36129622, "seedNum": 10, "entrant": {"id": 20948663, "name": "Nestor", "participants": [{"id": 19273429, "gamerTag": "Nestor", "prefix": null, "user": {"location": {"city": "Gainesville", "state": "GA", "country": "United States"}}, "player": {"id": 1630543, "gamerTag": "Nestor", "prefix": null, "user": {"location": {"city": "Gainesville", "state": "GA", "country": "United States"}}}}]}}, {"id": 36129322, "seedNum": 7, "entrant": {"id": 20948416, "name": "Cromat", "participants": [{"id": 19273216, "gamerTag": "Cromat", "prefix": "", "user": {"location": {"city": "Savannah", "state": "GA", "country": "United States"}}, "player": {"id": 3055798, "gamerTag": "Cromat", "prefix": "", "user": {"location": {"city": "Savannah", "state": "GA", "country": "United States"}}}}]}}, {"id": 36123374, "seedNum": 9, "entrant": {"id": 20945214, "name": "Heart", "participants": [{"id": 19270290, "gamerTag": "Heart", "prefix": "", "user": {"location": {"city": "Atlanta", "state": "GA", "country": "United States"}}, "player": {"id": 4287822, "gamerTag": "Heart", "prefix": "", "user": {"location": {"city": "Atlanta", "state": "GA", "country": "United States"}}}}]}}, {"id": 36135911, "seedNum": 5, "entrant": {"id": 20953453, "name": "PitchingAce33", "participants": [{"id": 19277511, "gamerTag": "PitchingAce33", "prefix": "", "user": {"location": {"city": null, "state": "GA", "country": "United States"}}, "player": {"id": 1198327, "gamerTag": "PitchingAce33", "prefix": "", "user": {"location": {"city": null, "state": "GA", "country": "United States"}}}}]}}, {"id": 36134083, "seedNum": 8, "entrant": {"id": 20951992, "name": "Cynthia<3", "participants": [{"id": 19276259, "gamerTag": "Cynthia<3", "prefix": "", "user": {"location": {"city": "Little rock", "state": "AR", "country": "United States"}}, "player": {"id": 3132841, "gamerTag": "Cynthia<3", "prefix": "", "user": {"location": {"city": "Little rock", "state": "AR", "country": "United States"}}}}]}}, {"id": 36136390, "seedNum": 11, "entrant": {"id": 20953851, "name": "Dev", "participants": [{"id": 19277853, "gamerTag": "Dev", "prefix": null, "user": {"location": {"city": "Gainesville", "state": "GA", "country": "United States"}}, "player": {"id": 1447491, "gamerTag": "Dev", "prefix": null, "user": {"location": {"city": "Gainesville", "state": "GA", "country": "United States"}}}}]}}, {"id": 36129114, "seedNum": 12, "entrant": {"id": 20948334, "name": "Mighty Morfin", "participants": [{"id": 19273135, "gamerTag": "Mighty Morfin", "prefix": "", "user": {"location": {"city": "Gainesville", "state": "GA", "country": "United States"}}, "player": {"id": 1630530, "gamerTag": "Mighty Morfin", "prefix": "", "user": {"location": {"city": "Gainesville", "state": "GA", "country": "United States"}}}}]}}, {"id": 36118202, "seedNum": 13, "entrant": {"id": 20941862, "name": "brave", "participants": [{"id": 19267417, "gamerTag": "brave", "prefix": "", "user": {"location": {"city": "Lawrenceville", "state": "GA", "country": "United States"}}, "player": {"id": 1000536, "gamerTag": "brave", "prefix": "", "user": {"location": {"city": "Lawrenceville", "state": "GA", "country": "United States"}}}}]}}, {"id": 36136056, "seedNum": 14, "entrant": {"id": 20953592, "name": "Moopisegg", "participants": [{"id": 19277628, "gamerTag": "Moopisegg", "prefix": "", "user": {"location": {"city": null, "state": null, "country": "United States"}}, "player": {"id": 4680890, "gamerTag": "Moopisegg", "prefix": "", "user": {"location": {"city": null, "state": null, "country": "United States"}}}}]}}]}}}