{"phase": {"seeds": {"pageInfo": {"totalPages": 1, "total": 9}, "nodes": [{"id": 35928128, "seedNum": 3, "entrant": {"id": 20823366, "name": "Nut Esports | | Geemoney$", "participants": [{"id": 19162352, "gamerTag": "Geemoney$", "prefix": "Nut Esports |", "user": {"location": {"city": "Jacksonville", "state": "FL", "country": "United States"}}, "player": {"id": 252344, "gamerTag": "Geemoney$", "prefix": "", "user": {"location": {"city": "Jacksonville", "state": "FL", "country": "United States"}}}}]}}, {"id": 35921317, "seedNum": 1, "entrant": {"id": 20818821, "name": "LBE | Savant", "participants": [{"id": 19158189, "gamerTag": "Savant", "prefix": "LBE", "user": {"location": {"city": "Athens", "state": "GA", "country": "United States"}}, "player": {"id": 1944044, "gamerTag": "Savant", "prefix": "LBE | CC", "user": {"location": {"city": "Athens", "state": "GA", "country": "United States"}}}}]}}, {"id": 35871848, "seedNum": 4, "entrant": {"id": 20787605, "name": "ZB | Juniper", "participants": [{"id": 19131165, "gamerTag": "Juniper", "prefix": "ZB", "user": {"location": {"city": "Morrow", "state": "GA", "country": "United States"}}, "player": {"id": 46895, "gamerTag": "Juniper", "prefix": "ZB", "user": {"location": {"city": "Morrow", "state": "GA", "country": "United States"}}}}]}}, {"id": 35933288, "seedNum": 5, "entrant": {"id": 20826714, "name": "LVL? | VaR", "participants": [{"id": 19165455, "gamerTag": "VaR", "prefix": "LVL?", "user": {"location": {"city": "Atlanta", "state": "GA", "country": "United States"}}, "player": {"id": 329546, "gamerTag": "VaR", "prefix": "GG", "user": {"location": {"city": "Atlanta", "state": "GA", "country": "United States"}}}}]}}, {"id": 35935226, "seedNum": 2, "entrant": {"id": 20828300, "name": "Highdumpster", "participants": [{"id": 19166878, "gamerTag": "Highdumpster", "prefix": "", "user": {"location": {"city": "Fayetteville", "state": "GA", "country": "United States"}}, "player": {"id": 33269, "gamerTag": "Highdumpster", "prefix": "", "user": {"location": {"city": "Fayetteville", "state": "GA", "country": "United States"}}}}]}}, {"id": 35933580, "seedNum": 7, "entrant": {"id": 20826994, "name": "Q", "participants": [{"id": 19165711, "gamerTag": "Q", "prefix": null, "user": {"location": {"city": null, "state": null, "country": null}}, "player": {"id": 3131876, "gamerTag": "Q", "prefix": null, "user": {"location": {"city": null, "state": null, "country": null}}}}]}}, {"id": 35871770, "seedNum": 6, "entrant": {"id": 20787546, "name": "ZB | Sanaito", "participants": [{"id": 19131111, "gamerTag": "Sanaito", "prefix": "ZB", "user": {"location": {"city": "Fayetteville", "state": "GA", "country": "United States"}}, "player": {"id": 12761, "gamerTag": "Sanaito", "prefix": "ZB", "user": {"location": {"city": "Fayetteville", "state": "GA", "country": "United States"}}}}]}}, {"id": 35915757, "seedNum": 8, "entrant": {"id": 20814907, "name": "GGG | Tortle", "participants": [{"id": 19154787, "gamerTag": "Tortle", "prefix": "GGG", "user": {"location": {"city": "Carrollton", "state": "GA", "country": "United States"}}, "player": {"id": 1884762, "gamerTag": "Tortle", "prefix": "GGG|DMS", "user": {"location": {"city": "Carrollton", "state": "GA", "country": "United States"}}}}]}}, {"id": 35933993, "seedNum": 9, "entrant": {"id": 20827278, "name": "Zest\u00e8", "participants": [{"id": 19165979, "gamerTag": "Zest\u00e8", "prefix": "", "user": null, "player": {"id": 4898319, "gamerTag": "Zest\u00e8", "prefix": "", "user": null}}]}}]}}}