{"phase": {"seeds": {"pageInfo": {"totalPages": 1, "total": 24}, "nodes": [{"id": 36445917, "seedNum": 2, "entrant": {"id": 21152245, "name": "4o4 | MessatsuIM", "participants": [{"id": 19455373, "gamerTag": "MessatsuIM", "prefix": "4o4", "user": {"location": {"city": "Kennesaw", "state": "GA", "country": "United States"}}, "player": {"id": 3564235, "gamerTag": "MessatsuIM", "prefix": "4o4", "user": {"location": {"city": "Kennesaw", "state": "GA", "country": "United States"}}}}]}}, {"id": 36445651, "seedNum": 1, "entrant": {"id": 21152014, "name": "Alex_dotdot", "participants": [{"id": 19455160, "gamerTag": "Alex_dotdot", "prefix": null, "user": {"location": {"city": "Tucker", "state": "GA", "country": "United States"}}, "player": {"id": 657023, "gamerTag": "Alex_dotdot", "prefix": null, "user": {"location": {"city": "Tucker", "state": "GA", "country": "United States"}}}}]}}, {"id": 36445906, "seedNum": 3, "entrant": {"id": 21152234, "name": "Buddylikefriend", "participants": [{"id": 19455366, "gamerTag": "Buddylikefriend", "prefix": null, "user": {"location": {"city": "Atlanta", "state": "GA", "country": "United States"}}, "player": {"id": 785557, "gamerTag": "Buddylikefriend", "prefix": null, "user": {"location": {"city": "Atlanta", "state": "GA", "country": "United States"}}}}]}}, {"id": 36445382, "seedNum": 4, "entrant": {"id": 21151791, "name": "4o4 | Musa", "participants": [{"id": 19454981, "gamerTag": "Musa", "prefix": "4o4", "user": {"location": {"city": null, "state": null, "country": "United States"}}, "player": {"id": 131537, "gamerTag": "Musa", "prefix": "4o4", "user": {"location": {"city": null, "state": null, "country": "United States"}}}}]}}, {"id": 36443573, "seedNum": 5, "entrant": {"id": 21150259, "name": "Burboovas", "participants": [{"id": 19453612, "gamerTag": "Burboovas", "prefix": null, "user": {"location": {"city": null, "state": null, "country": null}}, "player": {"id": 3927191, "gamerTag": "Burboovas", "prefix": null, "user": {"location": {"city": null, "state": null, "country": null}}}}]}}, {"id": 36443728, "seedNum": 8, "entrant": {"id": 21150417, "name": "4o4 | Yugo", "participants": [{"id": 19453758, "gamerTag": "Yugo", "prefix": "4o4", "user": {"location": {"city": "Sandy springs", "state": "GA", "country": "United States"}}, "player": {"id": 338020, "gamerTag": "Yugo", "prefix": "4o4", "user": {"location": {"city": "Sandy springs", "state": "GA", "country": "United States"}}}}]}}, {"id": 36445663, "seedNum": 6, "entrant": {"id": 21152026, "name": "4o4 | chrisymandias", "participants": [{"id": 19455170, "gamerTag": "chrisymandias", "prefix": "4o4", "user": {"location": {"city": "Dacula", "state": "GA", "country": "United States"}}, "player": {"id": 258173, "gamerTag": "chrisymandias", "prefix": "4o4", "user": {"location": {"city": "Dacula", "state": "GA", "country": "United States"}}}}]}}, {"id": 36444033, "seedNum": 7, "entrant": {"id": 21150693, "name": "4o4 | byronic zero", "participants": [{"id": 19454001, "gamerTag": "byronic zero", "prefix": "4o4", "user": {"location": {"city": "Atlanta", "state": "GA", "country": "United States"}}, "player": {"id": 3577590, "gamerTag": "byronic zero", "prefix": "4o4", "user": {"location": {"city": "Atlanta", "state": "GA", "country": "United States"}}}}]}}, {"id": 36444039, "seedNum": 9, "entrant": {"id": 21150699, "name": "4o4 | Noodle", "participants": [{"id": 19454006, "gamerTag": "Noodle", "prefix": "4o4", "user": {"location": {"city": "McDonough", "state": "GA", "country": "United States"}}, "player": {"id": 3029288, "gamerTag": "Noodle", "prefix": "", "user": {"location": {"city": "McDonough", "state": "GA", "country": "United States"}}}}]}}, {"id": 36445863, "seedNum": 10, "entrant": {"id": 21152191, "name": "Archway", "participants": [{"id": 19455331, "gamerTag": "Archway", "prefix": "", "user": {"location": {"city": "Sandy Springs", "state": "GA", "country": "United States"}}, "player": {"id": 1435251, "gamerTag": "Archway", "prefix": "", "user": {"location": {"city": "Sandy Springs", "state": "GA", "country": "United States"}}}}]}}, {"id": 36445885, "seedNum": 11, "entrant": {"id": 21152213, "name": "MBossProductions", "participants": [{"id": 19455350, "gamerTag": "MBossProductions", "prefix": "", "user": {"location": {"city": "Norcross", "state": "GA", "country": "United States"}}, "player": {"id": 1997490, "gamerTag": "MBossProductions", "prefix": "", "user": {"location": {"city": "Norcross", "state": "GA", "country": "United States"}}}}]}}, {"id": 36432078, "seedNum": 20, "entrant": {"id": 21142223, "name": "CptSilverRaider", "participants": [{"id": 19446692, "gamerTag": "CptSilverRaider", "prefix": "", "user": {"location": {"city": "Atlanta", "state": "GA", "country": "United States"}}, "player": {"id": 4931134, "gamerTag": "CptSilverRaider", "prefix": "", "user": {"location": {"city": "Atlanta", "state": "GA", "country": "United States"}}}}]}}, {"id": 36444845, "seedNum": 15, "entrant": {"id": 21151358, "name": "Xangief", "participants": [{"id": 19454596, "gamerTag": "Xangief", "prefix": null, "user": {"location": {"city": "Atlanta", "state": "GA", "country": "United States"}}, "player": {"id": 135082, "gamerTag": "Xangief", "prefix": null, "user": {"location": {"city": "Atlanta", "state": "GA", "country": "United States"}}}}]}}, {"id": 36445837, "seedNum": 16, "entrant": {"id": 21152163, "name": "Leon Nights", "participants": [{"id": 19455304, "gamerTag": "Leon Nights", "prefix": null, "user": {"location": {"city": "Atlanta", "state": "GA", "country": "United States"}}, "player": {"id": 4752335, "gamerTag": "Leon Nights", "prefix": null, "user": {"location": {"city": "Atlanta", "state": "GA", "country": "United States"}}}}]}}, {"id": 36444356, "seedNum": 18, "entrant": {"id": 21150974, "name": "Nightjar Ninja", "participants": [{"id": 19454257, "gamerTag": "Nightjar Ninja", "prefix": null, "user": {"location": {"city": "Atlanta", "state": "GA", "country": "United States"}}, "player": {"id": 3694663, "gamerTag": "Nightjar Ninja", "prefix": null, "user": {"location": {"city": "Atlanta", "state": "GA", "country": "United States"}}}}]}}, {"id": 36445934, "seedNum": 19, "entrant": {"id": 21152262, "name": "Brennan", "participants": [{"id": 19455385, "gamerTag": "Brennan", "prefix": "", "user": {"location": {"city": "Atlanta", "state": "GA", "country": "United States"}}, "player": {"id": 1856111, "gamerTag": "Brennan", "prefix": "", "user": {"location": {"city": "Atlanta", "state": "GA", "country": "United States"}}}}]}}, {"id": 36445894, "seedNum": 12, "entrant": {"id": 21152223, "name": "LukeWarm", "participants": [{"id": 19455358, "gamerTag": "LukeWarm", "prefix": "", "user": {"location": {"city": "Alpharetta", "state": "GA", "country": "United States"}}, "player": {"id": 1348903, "gamerTag": "LukeWarm", "prefix": "", "user": {"location": {"city": "Alpharetta", "state": "GA", "country": "United States"}}}}]}}, {"id": 36444849, "seedNum": 13, "entrant": {"id": 21151361, "name": "C$", "participants": [{"id": 19454599, "gamerTag": "C$", "prefix": "", "user": {"location": {"city": "Stone mountain", "state": "GA", "country": "United States"}}, "player": {"id": 1532681, "gamerTag": "C$", "prefix": "", "user": {"location": {"city": "Stone mountain", "state": "GA", "country": "United States"}}}}]}}, {"id": 36444735, "seedNum": 14, "entrant": {"id": 21151262, "name": "stylesK", "participants": [{"id": 19454509, "gamerTag": "stylesK", "prefix": "", "user": {"location": {"city": "Sandy Springs", "state": "GA", "country": "United States"}}, "player": {"id": 3475419, "gamerTag": "stylesK", "prefix": "", "user": {"location": {"city": "Sandy Springs", "state": "GA", "country": "United States"}}}}]}}, {"id": 36444288, "seedNum": 17, "entrant": {"id": 21150917, "name": "4o4 | CoNavySeal", "participants": [{"id": 19454205, "gamerTag": "CoNavySeal", "prefix": "4o4", "user": {"location": {"city": "Alpharetta", "state": "GA", "country": "United States"}}, "player": {"id": 3818891, "gamerTag": "CoNavySeal", "prefix": "4o4", "user": {"location": {"city": "Alpharetta", "state": "GA", "country": "United States"}}}}]}}, {"id": 36434569, "seedNum": 21, "entrant": {"id": 21143838, "name": "KSU | Subzero", "participants": [{"id": 19447988, "gamerTag": "Subzero", "prefix": "KSU", "user": {"location": {"city": "Acworth", "state": "GA", "country": "United States"}}, "player": {"id": 1808159, "gamerTag": "Subzero", "prefix": "KSU", "user": {"location": {"city": "Acworth", "state": "GA", "country": "United States"}}}}]}}, {"id": 36439391, "seedNum": 22, "entrant": {"id": 21147042, "name": "Pazure", "participants": [{"id": 19450805, "gamerTag": "Pazure", "prefix": null, "user": {"location": {"city": null, "state": null, "country": "United States"}}, "player": {"id": 72218, "gamerTag": "Pazure", "prefix": null, "user": {"location": {"city": null, "state": null, "country": "United States"}}}}]}}, {"id": 36434854, "seedNum": 23, "entrant": {"id": 21144080, "name": "red dot", "participants": [{"id": 19448182, "gamerTag": "red dot", "prefix": "", "user": {"location": {"city": "Milton", "state": "GA", "country": "United States"}}, "player": {"id": 1812177, "gamerTag": "red dot", "prefix": "", "user": {"location": {"city": "Milton", "state": "GA", "country": "United States"}}}}]}}, {"id": 36446025, "seedNum": 24, "entrant": {"id": 21152320, "name": "TF | Cy", "participants": [{"id": 19455437, "gamerTag": "Cy", "prefix": "TF", "user": {"location": {"city": "", "state": "GA", "country": "United States"}}, "player": {"id": 1832834, "gamerTag": "Cy", "prefix": "TF", "user": {"location": {"city": "", "state": "GA", "country": "United States"}}}}]}}]}}}