{"event": {"sets": {"pageInfo": {"totalPages": 1, "total": 6}, "nodes": [{"id": 93429671, "state": 3, "round": 3, "fullRoundText": "Final", "completedAt": 1756940881, "winnerId": 21158670, "slots": [{"id": "93429671-0", "entrant": {"id": 21158670, "name": "The Simpsons | Ryu from Streets", "participants": [{"id": 19460847, "gamerTag": "Ryu from Streets", "prefix": "The Simpsons", "user": {"location": {"city": null, "state": null, "country": null}}, "player": {"id": 2348605, "gamerTag": "Ryu from Streets", "prefix": "GUMP2", "user": {"location": {"city": null, "state": null, "country": null}}}}]}, "standing": {"placement": 1, "stats": {"score": {"value": 3}}}}, {"id": "93429671-1", "entrant": {"id": 21152943, "name": "KSU | Subzero", "participants": [{"id": 19455963, "gamerTag": "Subzero", "prefix": "KSU", "user": {"location": {"city": "Acworth", "state": "GA", "country": "United States"}}, "player": {"id": 1808159, "gamerTag": "Subzero", "prefix": "KSU", "user": {"location": {"city": "Acworth", "state": "GA", "country": "United States"}}}}]}, "standing": {"placement": 2, "stats": {"score": {"value": 0}}}}], "games": null}, {"id": 93429669, "state": 3, "round": 2, "fullRoundText": "Semi-Final", "completedAt": 1756939940, "winnerId": 21158670, "slots": [{"id": "93429669-0", "entrant": {"id": 21158670, "name": "The Simpsons | Ryu from Streets", "participants": [{"id": 19460847, "gamerTag": "Ryu from Streets", "prefix": "The Simpsons", "user": {"location": {"city": null, "state": null, "country": null}}, "player": {"id": 2348605, "gamerTag": "Ryu from Streets", "prefix": "GUMP2", "user": {"location": {"city": null, "state": null, "country": null}}}}]}, "standing": {"placement": 1, "stats": {"score": {"value": 2}}}}, {"id": "93429669-1", "entrant": {"id": 21160353, "name": "Boo", "participants": [{"id": 19462382, "gamerTag": "Boo", "prefix": "", "user": {"location": {"city": "Cumming", "state": "GA", "country": "United States"}}, "player": {"id": 2647915, "gamerTag": "Boo", "prefix": "", "user": {"location": {"city": "Cumming", "state": "GA", "country": "United States"}}}}]}, "standing": {"placement": 2, "stats": {"score": {"value": 0}}}}], "games": null}, {"id": 93429670, "state": 3, "round": 2, "fullRoundText": "Semi-Final", "completedAt": 1756939951, "winnerId": 21152943, "slots": [{"id": "93429670-0", "entrant": {"id": 21156554, "name": "GUMP2 | Woz but evil", "participants": [{"id": 19458962, "gamerTag": "Woz but evil", "prefix": "GUMP2", "user": {"location": {"city": "Avondale Estates", "state": "GA", "country": "United States"}}, "player": {"id": 225744, "gamerTag": "Z I C O", "prefix": "GUMP2", "user": {"location": {"city": "Avondale Estates", "state": "GA", "country": "United States"}}}}]}, "standing": {"placement": 2, "stats": {"score": {"value": 1}}}}, {"id": "93429670-1", "entrant": {"id": 21152943, "name": "KSU | Subzero", "participants": [{"id": 19455963, "gamerTag": "Subzero", "prefix": "KSU", "user": {"location": {"city": "Acworth", "state": "GA", "country": "United States"}}, "player": {"id": 1808159, "gamerTag": "Subzero", "prefix": "KSU", "user": {"location": {"city": "Acworth", "state": "GA", "country": "United States"}}}}]}, "standing": {"placement": 1, "stats": {"score": {"value": 2}}}}], "games": null}, {"id": 93429666, "state": 3, "round": 1, "fullRoundText": "Quarter-Final", "completedAt": 1756939118, "winnerId": 21160353, "slots": [{"id": "93429666-0", "entrant": {"id": 21157319, "name": "UTO|WhaLey | Kingwifi", "participants": [{"id": 19459587, "gamerTag": "Kingwifi", "prefix": "UTO|WhaLey", "user": {"location": {"city": "Stone Mountain", "state": "GA", "country": "United States"}}, "player": {"id": 2016149, "gamerTag": "Whaley", "prefix": "KSU|UTO|BLZE", "user": {"location": {"city": "Stone Mountain", "state": "GA", "country": "United States"}}}}]}, "standing": {"placement": 2, "stats": {"score": {"value": 1}}}}, {"id": "93429666-1", "entrant": {"id": 21160353, "name": "Boo", "participants": [{"id": 19462382, "gamerTag": "Boo", "prefix": "", "user": {"location": {"city": "Cumming", "state": "GA", "country": "United States"}}, "player": {"id": 2647915, "gamerTag": "Boo", "prefix": "", "user": {"location": {"city": "Cumming", "state": "GA", "country": "United States"}}}}]}, "standing": {"placement": 1, "stats": {"score": {"value": 2}}}}], "games": null}, {"id": 93429667, "state": 3, "round": 1, "fullRoundText": "Quarter-Final", "completedAt": 1756938913, "winnerId": 21156554, "slots": [{"id": "93429667-0", "entrant": {"id": 21156554, "name": "GUMP2 | Woz but evil", "participants": [{"id": 19458962, "gamerTag": "Woz but evil", "prefix": "GUMP2", "user": {"location": {"city": "Avondale Estates", "state": "GA", "country": "United States"}}, "player": {"id": 225744, "gamerTag": "Z I C O", "prefix": "GUMP2", "user": {"location": {"city": "Avondale Estates", "state": "GA", "country": "United States"}}}}]}, "standing": {"placement": 1, "stats": {"score": {"value": 2}}}}, {"id": "93429667-1", "entrant": {"id": 21157381, "name": "Zarek", "participants": [{"id": 19459643, "gamerTag": "Zarek", "prefix": "", "user": {"location": {"city": "Atlanta", "state": "GA", "country": "United States"}}, "player": {"id": 405682, "gamerTag": "Zarek", "prefix": "", "user": {"location": {"city": "Atlanta", "state": "GA", "country": "United States"}}}}]}, "standing": {"placement": 2, "stats": {"score": {"value": 0}}}}], "games": null}, {"id": 93429668, "state": 3, "round": 1, "fullRoundText": "Quarter-Final", "completedAt": 1756938801, "winnerId": 21152943, "slots": [{"id": "93429668-0", "entrant": {"id": 21159496, "name": "Rain~", "participants": [{"id": 19461613, "gamerTag": "Rain~", "prefix": null, "user": {"location": {"city": "Atlanta", "state": "GA", "country": "United States"}}, "player": {"id": 4240164, "gamerTag": "Rain~", "prefix": null, "user": {"location": {"city": "Atlanta", "state": "GA", "country": "United States"}}}}]}, "standing": {"placement": 2, "stats": {"score": {"value": 0}}}}, {"id": "93429668-1", "entrant": {"id": 21152943, "name": "KSU | Subzero", "participants": [{"id": 19455963, "gamerTag": "Subzero", "prefix": "KSU", "user": {"location": {"city": "Acworth", "state": "GA", "country": "United States"}}, "player": {"id": 1808159, "gamerTag": "Subzero", "prefix": "KSU", "user": {"location": {"city": "Acworth", "state": "GA", "country": "United States"}}}}]}, "standing": {"placement": 1, "stats": {"score": {"value": 2}}}}], "games": null}]}}}