{"event": {"sets": {"pageInfo": {"totalPages": 2, "total": 18}, "nodes": [{"id": 94126704, "state": 3, "round": -4, "fullRoundText": "Losers Round 1", "completedAt": 1758398067, "winnerId": 21330480, "slots": [{"id": "94126704-0", "entrant": {"id": 21330480, "name": "ToBeFrank | FF | SLAYlor Moon", "participants": [{"id": 19609169, "gamerTag": "SLAYlor Moon", "prefix": "ToBeFrank | FF", "user": {"location": {"city": "Atlanta", "state": "GA", "country": "United States"}}, "player": {"id": 267007, "gamerTag": "SLAYlor Moon", "prefix": "ToBeFrank | FF", "user": {"location": {"city": "Atlanta", "state": "GA", "country": "United States"}}}}]}, "standing": {"placement": 1, "stats": {"score": {"value": 3}}}}, {"id": "94126704-1", "entrant": {"id": 21324662, "name": "Dinkus", "participants": [{"id": 19604066, "gamerTag": "Dinkus", "prefix": null, "user": {"location": {"city": "Woodstock", "state": "GA", "country": "United States"}}, "player": {"id": 1595062, "gamerTag": "Dinkus", "prefix": null, "user": {"location": {"city": "Woodstock", "state": "GA", "country": "United States"}}}}]}, "standing": {"placement": 2, "stats": {"score": {"value": 1}}}}], "games": null}, {"id": 94126666, "state": 3, "round": 1, "fullRoundText": "Winners Round 1", "completedAt": 1758396342, "winnerId": 21329832, "slots": [{"id": "94126666-0", "entrant": {"id": 21329774, "name": "GoldxxBarrage", "participants": [{"id": 19608539, "gamerTag": "GoldxxBarrage", "prefix": null, "user": {"location": {"city": null, "state": "GA", "country": "United States"}}, "player": {"id": 4985918, "gamerTag": "GoldxxBarrage", "prefix": null, "user": {"location": {"city": null, "state": "GA", "country": "United States"}}}}]}, "standing": {"placement": 2, "stats": {"score": {"value": 0}}}}, {"id": "94126666-1", "entrant": {"id": 21329832, "name": "Pazure", "participants": [{"id": 19608578, "gamerTag": "Pazure", "prefix": null, "user": {"location": {"city": null, "state": null, "country": "United States"}}, "player": {"id": 72218, "gamerTag": "Pazure", "prefix": null, "user": {"location": {"city": null, "state": null, "country": "United States"}}}}]}, "standing": {"placement": 1, "stats": {"score": {"value": 3}}}}], "games": null}, {"id": 94126670, "state": 3, "round": 1, "fullRoundText": "Winners Round 1", "completedAt": 1758397388, "winnerId": 21331027, "slots": [{"id": "94126670-0", "entrant": {"id": 21324662, "name": "Dinkus", "participants": [{"id": 19604066, "gamerTag": "Dinkus", "prefix": null, "user": {"location": {"city": "Woodstock", "state": "GA", "country": "United States"}}, "player": {"id": 1595062, "gamerTag": "Dinkus", "prefix": null, "user": {"location": {"city": "Woodstock", "state": "GA", "country": "United States"}}}}]}, "standing": {"placement": 2, "stats": {"score": {"value": 0}}}}, {"id": "94126670-1", "entrant": {"id": 21331027, "name": "Jabberwock", "participants": [{"id": 19609708, "gamerTag": "Jabberwock", "prefix": "", "user": null, "player": {"id": 4986176, "gamerTag": "Jabberwock", "prefix": "", "user": null}}]}, "standing": {"placement": 1, "stats": {"score": {"value": 3}}}}], "games": null}]}}}