{"phase": {"seeds": {"pageInfo": {"totalPages": 1, "total": 24}, "nodes": [{"id": 36253928, "seedNum": 1, "entrant": {"id": 21022049, "name": "DGS | spickles", "participants": [{"id": 19337989, "gamerTag": "spickles", "prefix": "DGS", "user": {"location": {"city": null, "state": null, "country": "United States"}}, "player": {"id": 1154793, "gamerTag": "spickles", "prefix": "DGS", "user": {"location": {"city": null, "state": null, "country": "United States"}}}}]}}, {"id": 36253271, "seedNum": 4, "entrant": {"id": 21021576, "name": "GUMP2 | ToxiC", "participants": [{"id": 19337534, "gamerTag": "ToxiC", "prefix": "GUMP2", "user": {"location": {"city": "Marietta", "state": "GA", "country": "United States"}}, "player": {"id": 2585804, "gamerTag": "ToxiC", "prefix": "GUMP2", "user": {"location": {"city": "Marietta", "state": "GA", "country": "United States"}}}}]}}, {"id": 36151240, "seedNum": 2, "entrant": {"id": 20964544, "name": "Ave~", "participants": [{"id": 19286771, "gamerTag": "Ave~", "prefix": "", "user": {"location": {"city": null, "state": null, "country": null}}, "player": {"id": 38830, "gamerTag": "Ave~", "prefix": "", "user": {"location": {"city": null, "state": null, "country": null}}}}]}}, {"id": 36257822, "seedNum": 5, "entrant": {"id": 21025195, "name": "Barbashop", "participants": [{"id": 19340951, "gamerTag": "Barbashop", "prefix": "", "user": {"location": {"city": null, "state": null, "country": null}}, "player": {"id": 2537853, "gamerTag": "Barbashop", "prefix": "", "user": {"location": {"city": null, "state": null, "country": null}}}}]}}, {"id": 36255454, "seedNum": 3, "entrant": {"id": 21023175, "name": "GUMP2 | Spider", "participants": [{"id": 19339070, "gamerTag": "Spider", "prefix": "GUMP2", "user": {"location": {"city": "Atlanta", "state": "GA", "country": "United States"}}, "player": {"id": 691176, "gamerTag": "Spider", "prefix": "GUMP2", "user": {"location": {"city": "Atlanta", "state": "GA", "country": "United States"}}}}]}}, {"id": 36257400, "seedNum": 6, "entrant": {"id": 21024821, "name": "RM | GUMP2 | Kr!stal:0", "participants": [{"id": 19340622, "gamerTag": "Kr!stal:0", "prefix": "RM | GUMP2", "user": {"location": {"city": "Lawrenceville", "state": "GA", "country": "United States"}}, "player": {"id": 2409815, "gamerTag": "AO ASHI SEASON 2 2026", "prefix": "RM | GUMP2", "user": {"location": {"city": "Lawrenceville", "state": "GA", "country": "United States"}}}}]}}, {"id": 36253633, "seedNum": 7, "entrant": {"id": 21021801, "name": "GUMP2 | STiCK", "participants": [{"id": 19337747, "gamerTag": "STiCK", "prefix": "GUMP2", "user": {"location": {"city": "Woodstock", "state": "GA", "country": "United States"}}, "player": {"id": 282674, "gamerTag": "STiCK", "prefix": "GUMP2", "user": {"location": {"city": "Woodstock", "state": "GA", "country": "United States"}}}}]}}, {"id": 36255761, "seedNum": 9, "entrant": {"id": 21023486, "name": "KUMA| | Steamedklams", "participants": [{"id": 19339360, "gamerTag": "Steamedklams", "prefix": "KUMA|", "user": {"location": {"city": null, "state": null, "country": "United States"}}, "player": {"id": 997285, "gamerTag": "Steamedklams", "prefix": "KUMA|", "user": {"location": {"city": null, "state": null, "country": "United States"}}}}]}}, {"id": 36244178, "seedNum": 8, "entrant": {"id": 21017298, "name": "GUMP2 | JankTrees!", "participants": [{"id": 19333592, "gamerTag": "JankTrees!", "prefix": "GUMP2", "user": {"location": {"city": "Cartersville", "state": "GA", "country": "United States"}}, "player": {"id": 35695, "gamerTag": "JankTrees!", "prefix": "GUMP2", "user": {"location": {"city": "Cartersville", "state": "GA", "country": "United States"}}}}]}}, {"id": 36254968, "seedNum": 10, "entrant": {"id": 21022851, "name": "Rain~", "participants": [{"id": 19338757, "gamerTag": "Rain~", "prefix": null, "user": {"location": {"city": "Atlanta", "state": "GA", "country": "United States"}}, "player": {"id": 4240164, "gamerTag": "Rain~", "prefix": null, "user": {"location": {"city": "Atlanta", "state": "GA", "country": "United States"}}}}]}}, {"id": 36256925, "seedNum": 11, "entrant": {"id": 21024393, "name": "red dot", "participants": [{"id": 19340183, "gamerTag": "red dot", "prefix": "", "user": {"location": {"city": "Milton", "state": "GA", "country": "United States"}}, "player": {"id": 1812177, "gamerTag": "red dot", "prefix": "", "user": {"location": {"city": "Milton", "state": "GA", "country": "United States"}}}}]}}, {"id": 36257604, "seedNum": 15, "entrant": {"id": 21025013, "name": "carlop", "participants": [{"id": 19340799, "gamerTag": "carlop", "prefix": null, "user": {"location": {"city": "Johns Creek", "state": "GA", "country": "United States"}}, "player": {"id": 3431919, "gamerTag": "carlop", "prefix": null, "user": {"location": {"city": "Johns Creek", "state": "GA", "country": "United States"}}}}]}}, {"id": 36249877, "seedNum": 13, "entrant": {"id": 21020119, "name": "UTO | Whaley", "participants": [{"id": 19336156, "gamerTag": "Whaley", "prefix": "UTO", "user": {"location": {"city": "Stone Mountain", "state": "GA", "country": "United States"}}, "player": {"id": 2016149, "gamerTag": "Whaley", "prefix": "KSU|UTO|BLZE", "user": {"location": {"city": "Stone Mountain", "state": "GA", "country": "United States"}}}}]}}, {"id": 36250903, "seedNum": 17, "entrant": {"id": 21020895, "name": "promamamia", "participants": [{"id": 19336878, "gamerTag": "promamamia", "prefix": "", "user": {"location": {"city": "Alpharetta", "state": "GA", "country": "United States"}}, "player": {"id": 3548468, "gamerTag": "promamamia", "prefix": "", "user": {"location": {"city": "Alpharetta", "state": "GA", "country": "United States"}}}}]}}, {"id": 36254579, "seedNum": 18, "entrant": {"id": 21022501, "name": "KSU | colorful\u029a\u025e", "participants": [{"id": 19338406, "gamerTag": "colorful\u029a\u025e", "prefix": "KSU", "user": {"location": {"city": "Kennesaw", "state": "GA", "country": "United States"}}, "player": {"id": 1783074, "gamerTag": "colorful\u029a\u025e", "prefix": "KSU | RM", "user": {"location": {"city": "Kennesaw", "state": "GA", "country": "United States"}}}}]}}, {"id": 36253327, "seedNum": 19, "entrant": {"id": 21021632, "name": "BlaZR", "participants": [{"id": 19337585, "gamerTag": "BlaZR", "prefix": "", "user": {"location": {"city": "ur mum", "state": null, "country": "United States"}}, "player": {"id": 1804122, "gamerTag": "BlaZR", "prefix": "", "user": {"location": {"city": "ur mum", "state": null, "country": "United States"}}}}]}}, {"id": 36254461, "seedNum": 12, "entrant": {"id": 21022417, "name": "BGA | KSU | WhopperFloppers", "participants": [{"id": 19338336, "gamerTag": "WhopperFloppers", "prefix": "BGA | KSU", "user": {"location": {"city": null, "state": null, "country": "United States"}}, "player": {"id": 2564706, "gamerTag": "WhopperFloppers", "prefix": "BGA | KSU", "user": {"location": {"city": null, "state": null, "country": "United States"}}}}]}}, {"id": 36253503, "seedNum": 14, "entrant": {"id": 21021672, "name": "Boo", "participants": [{"id": 19337617, "gamerTag": "Boo", "prefix": "", "user": {"location": {"city": "Cumming", "state": "GA", "country": "United States"}}, "player": {"id": 2647915, "gamerTag": "Boo", "prefix": "", "user": {"location": {"city": "Cumming", "state": "GA", "country": "United States"}}}}]}}, {"id": 36249867, "seedNum": 16, "entrant": {"id": 21020109, "name": "KSU | Subzero", "participants": [{"id": 19336147, "gamerTag": "Subzero", "prefix": "KSU", "user": {"location": {"city": "Acworth", "state": "GA", "country": "United States"}}, "player": {"id": 1808159, "gamerTag": "Subzero", "prefix": "KSU", "user": {"location": {"city": "Acworth", "state": "GA", "country": "United States"}}}}]}}, {"id": 36256419, "seedNum": 20, "entrant": {"id": 21024001, "name": "WDKL MTM | D*ron", "participants": [{"id": 19339805, "gamerTag": "D*ron", "prefix": "WDKL MTM", "user": {"location": {"city": "Smyrna", "state": "GA", "country": "United States"}}, "player": {"id": 516047, "gamerTag": "D*ron", "prefix": "WDKL MTM", "user": {"location": {"city": "Smyrna", "state": "GA", "country": "United States"}}}}]}}, {"id": 36249915, "seedNum": 21, "entrant": {"id": 21020156, "name": "Zarek", "participants": [{"id": 19336191, "gamerTag": "Zarek", "prefix": "", "user": {"location": {"city": "Atlanta", "state": "GA", "country": "United States"}}, "player": {"id": 405682, "gamerTag": "Zarek", "prefix": "", "user": {"location": {"city": "Atlanta", "state": "GA", "country": "United States"}}}}]}}, {"id": 36257294, "seedNum": 22, "entrant": {"id": 21024715, "name": "MTM | Mishmash", "participants": [{"id": 19340518, "gamerTag": "Mishmash", "prefix": "MTM", "user": {"location": {"city": "Cartersville", "state": "GA", "country": "United States"}}, "player": {"id": 4104907, "gamerTag": "Mishmash", "prefix": "MTM", "user": {"location": {"city": "Cartersville", "state": "GA", "country": "United States"}}}}]}}, {"id": 36181100, "seedNum": 23, "entrant": {"id": 20976497, "name": "Astrid", "participants": [{"id": 19297544, "gamerTag": "Astrid", "prefix": "", "user": {"location": {"city": "Cartersville", "state": "GA", "country": "United States"}}, "player": {"id": 3383429, "gamerTag": "Astrid", "prefix": "", "user": {"location": {"city": "Cartersville", "state": "GA", "country": "United States"}}}}]}}, {"id": 36247378, "seedNum": 24, "entrant": {"id": 21018887, "name": "IceWave4", "participants": [{"id": 19335063, "gamerTag": "IceWave4", "prefix": null, "user": {"location": {"city": "Dallas", "state": "GA", "country": "United States"}}, "player": {"id": 4191196, "gamerTag": "IceWave4", "prefix": null, "user": {"location": {"city": "Dallas", "state": "GA", "country": "United States"}}}}]}}]}}}