{"phase": {"seeds": {"pageInfo": {"totalPages": 1, "total": 6}, "nodes": [{"id": 36720746, "seedNum": 1, "entrant": {"id": 21338417, "name": "Chance", "participants": [{"id": 19615945, "gamerTag": "Chance", "prefix": "", "user": {"location": {"city": "Savannah", "state": "GA", "country": "United States"}}, "player": {"id": 1442765, "gamerTag": "Chance", "prefix": "", "user": {"location": {"city": "Savannah", "state": "GA", "country": "United States"}}}}]}}, {"id": 36721997, "seedNum": 2, "entrant": {"id": 21339524, "name": "SQ1 | Luff", "participants": [{"id": 19616954, "gamerTag": "Luff", "prefix": "SQ1", "user": {"location": {"city": "Savannah", "state": "GA", "country": "United States"}}, "player": {"id": 4102348, "gamerTag": "Luff", "prefix": "SQ1", "user": {"location": {"city": "Savannah", "state": "GA", "country": "United States"}}}}]}}, {"id": 36722226, "seedNum": 4, "entrant": {"id": 21339678, "name": "dertdobber", "participants": [{"id": 19617116, "gamerTag": "dertdobber", "prefix": null, "user": {"location": {"city": "Savannah", "state": "GA", "country": "United States"}}, "player": {"id": 173899, "gamerTag": "dertdobber", "prefix": null, "user": {"location": {"city": "Savannah", "state": "GA", "country": "United States"}}}}]}}, {"id": 36722016, "seedNum": 3, "entrant": {"id": 21339542, "name": "Armor Jeff", "participants": [{"id": 19616967, "gamerTag": "Armor Jeff", "prefix": "", "user": {"location": {"city": "Savannah", "state": "GA", "country": "United States"}}, "player": {"id": 3937751, "gamerTag": "Armor Jeff", "prefix": "", "user": {"location": {"city": "Savannah", "state": "GA", "country": "United States"}}}}]}}, {"id": 36721794, "seedNum": 5, "entrant": {"id": 21339383, "name": "Brandon98", "participants": [{"id": 19616826, "gamerTag": "Brandon98", "prefix": "", "user": {"location": {"city": "Savannah", "state": "GA", "country": "United States"}}, "player": {"id": 3343886, "gamerTag": "Brandon98", "prefix": "", "user": {"location": {"city": "Savannah", "state": "GA", "country": "United States"}}}}]}}, {"id": 36721715, "seedNum": 6, "entrant": {"id": 21339299, "name": "SQ1 | TheFamilyPanda", "participants": [{"id": 19616757, "gamerTag": "TheFamilyPanda", "prefix": "SQ1", "user": {"location": {"city": "Savannah", "state": "GA", "country": "United States"}}, "player": {"id": 2228673, "gamerTag": "TheFamilyPanda", "prefix": "SQ1", "user": {"location": {"city": "Savannah", "state": "GA", "country": "United States"}}}}]}}]}}}