{"phase": {"seeds": {"pageInfo": {"totalPages": 1, "total": 9}, "nodes": [{"id": 35885266, "seedNum": 1, "entrant": {"id": 20796973, "name": "Gorduri Cap", "participants": [{"id": 19139880, "gamerTag": "Gorduri Cap", "prefix": "", "user": {"location": {"city": "", "state": "AK", "country": "United States"}}, "player": {"id": 2068683, "gamerTag": "Spauldo", "prefix": "", "user": {"location": {"city": "", "state": "AK", "country": "United States"}}}}]}}, {"id": 35630623, "seedNum": 2, "entrant": {"id": 20629939, "name": "ATLRiot", "participants": [{"id": 18991106, "gamerTag": "ATLRiot", "prefix": "", "user": {"location": {"city": "Augusta", "state": "GA", "country": "United States"}}, "player": {"id": 2057913, "gamerTag": "ATLRiot", "prefix": "", "user": {"location": {"city": "Augusta", "state": "GA", "country": "United States"}}}}]}}, {"id": 35916511, "seedNum": 3, "entrant": {"id": 20815452, "name": "Foam Root", "participants": [{"id": 19155291, "gamerTag": "Foam Root", "prefix": "", "user": {"location": {"city": "Covington", "state": "GA", "country": "United States"}}, "player": {"id": 541222, "gamerTag": "Foam Root", "prefix": "", "user": {"location": {"city": "Covington", "state": "GA", "country": "United States"}}}}]}}, {"id": 35917647, "seedNum": 4, "entrant": {"id": 20816238, "name": "Still-Icarus", "participants": [{"id": 19156033, "gamerTag": "Still-Icarus", "prefix": null, "user": {"location": {"city": "Appling", "state": "GA", "country": "United States"}}, "player": {"id": 3537086, "gamerTag": "Still-Icarus", "prefix": null, "user": {"location": {"city": "Appling", "state": "GA", "country": "United States"}}}}]}}, {"id": 35911146, "seedNum": 5, "entrant": {"id": 20812591, "name": "Greenbean", "participants": [{"id": 19152768, "gamerTag": "Greenbean", "prefix": null, "user": {"location": {"city": "Augusta", "state": "GA", "country": "United States"}}, "player": {"id": 2249747, "gamerTag": "Greenbean", "prefix": null, "user": {"location": {"city": "Augusta", "state": "GA", "country": "United States"}}}}]}}, {"id": 35690357, "seedNum": 6, "entrant": {"id": 20671589, "name": "PCV305", "participants": [{"id": 19026984, "gamerTag": "PCV305", "prefix": null, "user": {"location": {"city": "Augusta", "state": "GA", "country": "United States"}}, "player": {"id": 4327979, "gamerTag": "PCV305", "prefix": null, "user": {"location": {"city": "Augusta", "state": "GA", "country": "United States"}}}}]}}, {"id": 35887648, "seedNum": 7, "entrant": {"id": 20798213, "name": "Amatsumara", "participants": [{"id": 19141088, "gamerTag": "Amatsumara", "prefix": "", "user": {"location": {"city": null, "state": null, "country": "United States"}}, "player": {"id": 3592419, "gamerTag": "Amatsumara", "prefix": "", "user": {"location": {"city": null, "state": null, "country": "United States"}}}}]}}, {"id": 35681883, "seedNum": 8, "entrant": {"id": 20666092, "name": "CV | NiNE", "participants": [{"id": 19022574, "gamerTag": "NiNE", "prefix": "CV", "user": {"location": {"city": "Augusta", "state": "GA", "country": "United States"}}, "player": {"id": 25337, "gamerTag": "NiNE", "prefix": "CV", "user": {"location": {"city": "Augusta", "state": "GA", "country": "United States"}}}}]}}, {"id": 35912731, "seedNum": 9, "entrant": {"id": 20813907, "name": "cheddarcola", "participants": [{"id": 19153862, "gamerTag": "cheddarcola", "prefix": null, "user": {"location": {"city": null, "state": null, "country": "United States"}}, "player": {"id": 4724537, "gamerTag": "cheddarcola", "prefix": null, "user": {"location": {"city": null, "state": null, "country": "United States"}}}}]}}]}}}