{"event": {"sets": {"pageInfo": {"totalPages": 3, "total": 38}, "nodes": [{"id": 91723204, "state": 3, "round": -4, "fullRoundText": "Losers Round 1", "completedAt": 1753231621, "winnerId": 20771533, "slots": [{"id": "91723204-0", "entrant": {"id": 20771533, "name": "Typical!", "participants": [{"id": 19116285, "gamerTag": "Typical!", "prefix": "", "user": {"location": {"city": "Cumming", "state": "GA", "country": "United States"}}, "player": {"id": 1227171, "gamerTag": "Typical!", "prefix": "", "user": {"location": {"city": "Cumming", "state": "GA", "country": "United States"}}}}]}, "standing": {"placement": 1, "stats": {"score": {"value": 2}}}}, {"id": "91723204-1", "entrant": {"id": 20771068, "name": "Envexity", "participants": [{"id": 19115866, "gamerTag": "Envexity", "prefix": null, "user": {"location": {"city": "", "state": "GA", "country": "United States"}}, "player": {"id": 4003882, "gamerTag": "Envexity", "prefix": null, "user": {"location": {"city": "", "state": "GA", "country": "United States"}}}}]}, "standing": {"placement": 2, "stats": {"score": {"value": 0}}}}], "games": null}, {"id": 91723206, "state": 3, "round": -4, "fullRoundText": "Losers Round 1", "completedAt": 1753231471, "winnerId": 20771789, "slots": [{"id": "91723206-0", "entrant": {"id": 20771789, "name": "PitchingAce33", "participants": [{"id": 19116519, "gamerTag": "PitchingAce33", "prefix": "", "user": {"location": {"city": null, "state": "GA", "country": "United States"}}, "player": {"id": 1198327, "gamerTag": "PitchingAce33", "prefix": "", "user": {"location": {"city": null, "state": "GA", "country": "United States"}}}}]}, "standing": {"placement": 1, "stats": {"score": {"value": 2}}}}, {"id": "91723206-1", "entrant": {"id": 20769018, "name": "PL | Shusui", "participants": [{"id": 19114140, "gamerTag": "Shusui", "prefix": "PL", "user": {"location": {"city": "Suwanee", "state": "GA", "country": "United States"}}, "player": {"id": 3465710, "gamerTag": "Shusui", "prefix": "", "user": {"location": {"city": "Suwanee", "state": "GA", "country": "United States"}}}}]}, "standing": {"placement": 2, "stats": {"score": {"value": 0}}}}], "games": null}, {"id": 91723208, "state": 3, "round": -4, "fullRoundText": "Losers Round 1", "completedAt": 1753232294, "winnerId": 20771035, "slots": [{"id": "91723208-0", "entrant": {"id": 20771035, "name": "RM | WFF | Sakruoi", "participants": [{"id": 19115832, "gamerTag": "Sakruoi", "prefix": "RM | WFF", "user": {"location": {"city": "atlanta", "state": "GA", "country": "United States"}}, "player": {"id": 1230555, "gamerTag": "Sakruoi", "prefix": "RM | WFF", "user": {"location": {"city": "atlanta", "state": "GA", "country": "United States"}}}}]}, "standing": {"placement": 1, "stats": {"score": {"value": 2}}}}, {"id": "91723208-1", "entrant": {"id": 20764173, "name": "Mc'Plow", "participants": [{"id": 19109447, "gamerTag": "Mc'Plow", "prefix": null, "user": {"location": {"city": "Athens", "state": "GA", "country": "United States"}}, "player": {"id": 4060815, "gamerTag": "Mc'Plow", "prefix": null, "user": {"location": {"city": "Athens", "state": "GA", "country": "United States"}}}}]}, "standing": {"placement": 2, "stats": {"score": {"value": 0}}}}], "games": null}, {"id": 91723210, "state": 3, "round": -4, "fullRoundText": "Losers Round 1", "completedAt": 1753232254, "winnerId": 20766543, "slots": [{"id": "91723210-0", "entrant": {"id": 20766543, "name": "Penguin", "participants": [{"id": 19111823, "gamerTag": "Penguin", "prefix": "", "user": {"location": {"city": "Atlanta", "state": "GA", "country": "United States"}}, "player": {"id": 4287822, "gamerTag": "Heart", "prefix": "", "user": {"location": {"city": "Atlanta", "state": "GA", "country": "United States"}}}}]}, "standing": {"placement": 1, "stats": {"score": {"value": 2}}}}, {"id": "91723210-1", "entrant": {"id": 20767097, "name": "Hq", "participants": [{"id": 19112348, "gamerTag": "Hq", "prefix": "", "user": {"location": {"city": "Suwanee", "state": "GA", "country": "United States"}}, "player": {"id": 4680916, "gamerTag": "Hq", "prefix": "", "user": {"location": {"city": "Suwanee", "state": "GA", "country": "United States"}}}}]}, "standing": {"placement": 2, "stats": {"score": {"value": 0}}}}], "games": null}, {"id": 91723132, "state": 3, "round": 1, "fullRoundText": "Winners Round 1", "completedAt": 1753230882, "winnerId": 20766896, "slots": [{"id": "91723132-0", "entrant": {"id": 20766896, "name": "ThatUser183", "participants": [{"id": 19112167, "gamerTag": "ThatUser183", "prefix": null, "user": {"location": {"city": "Suwanee", "state": "GA", "country": "United States"}}, "player": {"id": 2807415, "gamerTag": "ThatUser183", "prefix": null, "user": {"location": {"city": "Suwanee", "state": "GA", "country": "United States"}}}}]}, "standing": {"placement": 1, "stats": {"score": {"value": 2}}}}, {"id": "91723132-1", "entrant": {"id": 20771068, "name": "Envexity", "participants": [{"id": 19115866, "gamerTag": "Envexity", "prefix": null, "user": {"location": {"city": "", "state": "GA", "country": "United States"}}, "player": {"id": 4003882, "gamerTag": "Envexity", "prefix": null, "user": {"location": {"city": "", "state": "GA", "country": "United States"}}}}]}, "standing": {"placement": 2, "stats": {"score": {"value": 0}}}}], "games": null}, {"id": 91723136, "state": 3, "round": 1, "fullRoundText": "Winners Round 1", "completedAt": 1753230795, "winnerId": 20770486, "slots": [{"id": "91723136-0", "entrant": {"id": 20770486, "name": "Vertebrae", "participants": [{"id": 19115352, "gamerTag": "Vertebrae", "prefix": "", "user": {"location": {"city": "Athens", "state": "GA", "country": "United States"}}, "player": {"id": 1583946, "gamerTag": "Vertebrae", "prefix": "CC", "user": {"location": {"city": "Athens", "state": "GA", "country": "United States"}}}}]}, "standing": {"placement": 1, "stats": {"score": {"value": 2}}}}, {"id": "91723136-1", "entrant": {"id": 20769018, "name": "PL | Shusui", "participants": [{"id": 19114140, "gamerTag": "Shusui", "prefix": "PL", "user": {"location": {"city": "Suwanee", "state": "GA", "country": "United States"}}, "player": {"id": 3465710, "gamerTag": "Shusui", "prefix": "", "user": {"location": {"city": "Suwanee", "state": "GA", "country": "United States"}}}}]}, "standing": {"placement": 2, "stats": {"score": {"value": 0}}}}], "games": null}, {"id": 91723140, "state": 3, "round": 1, "fullRoundText": "Winners Round 1", "completedAt": 1753231032, "winnerId": 20766482, "slots": [{"id": "91723140-0", "entrant": {"id": 20766482, "name": "Mighty Morfin", "participants": [{"id": 19111761, "gamerTag": "Mighty Morfin", "prefix": "", "user": {"location": {"city": "Gainesville", "state": "GA", "country": "United States"}}, "player": {"id": 1630530, "gamerTag": "Mighty Morfin", "prefix": "", "user": {"location": {"city": "Gainesville", "state": "GA", "country": "United States"}}}}]}, "standing": {"placement": 1, "stats": {"score": {"value": 2}}}}, {"id": "91723140-1", "entrant": {"id": 20764173, "name": "Mc'Plow", "participants": [{"id": 19109447, "gamerTag": "Mc'Plow", "prefix": null, "user": {"location": {"city": "Athens", "state": "GA", "country": "United States"}}, "player": {"id": 4060815, "gamerTag": "Mc'Plow", "prefix": null, "user": {"location": {"city": "Athens", "state": "GA", "country": "United States"}}}}]}, "standing": {"placement": 2, "stats": {"score": {"value": 1}}}}], "games": null}, {"id": 91723144, "state": 3, "round": 1, "fullRoundText": "Winners Round 1", "completedAt": 1753231093, "winnerId": 20766485, "slots": [{"id": "91723144-0", "entrant": {"id": 20766485, "name": "Billy Jones", "participants": [{"id": 19111764, "gamerTag": "Billy Jones", "prefix": "", "user": {"location": {"city": "Atlanta", "state": "GA", "country": "United States"}}, "player": {"id": 1004383, "gamerTag": "Billy Jones", "prefix": "", "user": {"location": {"city": "Atlanta", "state": "GA", "country": "United States"}}}}]}, "standing": {"placement": 1, "stats": {"score": {"value": 2}}}}, {"id": "91723144-1", "entrant": {"id": 20767097, "name": "Hq", "participants": [{"id": 19112348, "gamerTag": "Hq", "prefix": "", "user": {"location": {"city": "Suwanee", "state": "GA", "country": "United States"}}, "player": {"id": 4680916, "gamerTag": "Hq", "prefix": "", "user": {"location": {"city": "Suwanee", "state": "GA", "country": "United States"}}}}]}, "standing": {"placement": 2, "stats": {"score": {"value": 0}}}}], "games": null}]}}}