{"phase": {"seeds": {"pageInfo": {"totalPages": 1, "total": 7}, "nodes": [{"id": 36927877, "seedNum": 1, "entrant": {"id": 21482923, "name": "red dot", "participants": [{"id": 19742308, "gamerTag": "red dot", "prefix": "", "user": {"location": {"city": "Milton", "state": "GA", "country": "United States"}}, "player": {"id": 1812177, "gamerTag": "red dot", "prefix": "", "user": {"location": {"city": "Milton", "state": "GA", "country": "United States"}}}}]}}, {"id": 36927884, "seedNum": 3, "entrant": {"id": 21482930, "name": "SaggyMilkJug", "participants": [{"id": 19742314, "gamerTag": "SaggyMilkJug", "prefix": "", "user": {"location": {"city": "Atlanta", "state": "GA", "country": "United States"}}, "player": {"id": 4651404, "gamerTag": "SaggyMilkJug", "prefix": "", "user": {"location": {"city": "Atlanta", "state": "GA", "country": "United States"}}}}]}}, {"id": 36927898, "seedNum": 4, "entrant": {"id": 21482943, "name": "KSU | Subzero", "participants": [{"id": 19742329, "gamerTag": "Subzero", "prefix": "KSU", "user": {"location": {"city": "Acworth", "state": "GA", "country": "United States"}}, "player": {"id": 1808159, "gamerTag": "Subzero", "prefix": "KSU", "user": {"location": {"city": "Acworth", "state": "GA", "country": "United States"}}}}]}}, {"id": 36927879, "seedNum": 2, "entrant": {"id": 21482925, "name": "KSU|UTO | Whaley", "participants": [{"id": 19742310, "gamerTag": "Whaley", "prefix": "KSU|UTO", "user": {"location": {"city": "Stone Mountain", "state": "GA", "country": "United States"}}, "player": {"id": 2016149, "gamerTag": "Whaley", "prefix": "KSU|UTO|BLZE", "user": {"location": {"city": "Stone Mountain", "state": "GA", "country": "United States"}}}}]}}, {"id": 36927914, "seedNum": 6, "entrant": {"id": 21482958, "name": "KSU | colorful\u029a\u025e", "participants": [{"id": 19742342, "gamerTag": "colorful\u029a\u025e", "prefix": "KSU", "user": {"location": {"city": "Kennesaw", "state": "GA", "country": "United States"}}, "player": {"id": 1783074, "gamerTag": "colorful\u029a\u025e", "prefix": "KSU | RM", "user": {"location": {"city": "Kennesaw", "state": "GA", "country": "United States"}}}}]}}, {"id": 36927905, "seedNum": 5, "entrant": {"id": 21482950, "name": "RM | Prince Peach", "participants": [{"id": 19742335, "gamerTag": "Prince Peach", "prefix": "RM", "user": {"location": {"city": "Stone Mountain", "state": "GA", "country": "United States"}}, "player": {"id": 3003562, "gamerTag": "Prince Peach", "prefix": "RM", "user": {"location": {"city": "Stone Mountain", "state": "GA", "country": "United States"}}}}]}}, {"id": 36927932, "seedNum": 7, "entrant": {"id": 21482976, "name": "Readymade", "participants": [{"id": 19742360, "gamerTag": "Readymade", "prefix": "", "user": {"location": {"city": null, "state": null, "country": "United States"}}, "player": {"id": 4934887, "gamerTag": "Readymade", "prefix": "", "user": {"location": {"city": null, "state": null, "country": "United States"}}}}]}}]}}}