{"event": {"sets": {"pageInfo": {"totalPages": 4, "total": 59}, "nodes": [{"id": 94203309, "state": 3, "round": -4, "fullRoundText": "Losers Round 2", "completedAt": 1758505749, "winnerId": 21339369, "slots": [{"id": "94203309-0", "entrant": {"id": 21339369, "name": "Mickeydeez", "participants": [{"id": 19616811, "gamerTag": "Mickeydeez", "prefix": "", "user": {"location": {"city": "Atlanta", "state": "GA", "country": "United States"}}, "player": {"id": 4825580, "gamerTag": "Mickeydeez", "prefix": "", "user": {"location": {"city": "Atlanta", "state": "GA", "country": "United States"}}}}]}, "standing": {"placement": 1, "stats": {"score": {"value": 2}}}}, {"id": "94203309-1", "entrant": {"id": 21338156, "name": "D.King79", "participants": [{"id": 19615701, "gamerTag": "D.King79", "prefix": null, "user": {"location": {"city": "Mt. Olympus", "state": "GA", "country": "United States"}}, "player": {"id": 534660, "gamerTag": "D.King79", "prefix": null, "user": {"location": {"city": "Mt. Olympus", "state": "GA", "country": "United States"}}}}]}, "standing": {"placement": 2, "stats": {"score": {"value": 0}}}}], "games": null}, {"id": 94203356, "state": 3, "round": -4, "fullRoundText": "Losers Round 2", "completedAt": 1758505663, "winnerId": 21341811, "slots": [{"id": "94203356-0", "entrant": {"id": 21341811, "name": "TnT | Sid", "participants": [{"id": 19619027, "gamerTag": "Sid", "prefix": "TnT", "user": {"location": {"city": "Powder Springs", "state": "GA", "country": "United States"}}, "player": {"id": 1229067, "gamerTag": "Sid", "prefix": "TnT", "user": {"location": {"city": "Powder Springs", "state": "GA", "country": "United States"}}}}]}, "standing": {"placement": 1, "stats": {"score": {"value": 2}}}}, {"id": "94203356-1", "entrant": {"id": 21296003, "name": "TFT | TFT - Guillotine", "participants": [{"id": 19578793, "gamerTag": "TFT - Guillotine", "prefix": "TFT", "user": {"location": {"city": "Atlanta", "state": "GA", "country": "United States"}}, "player": {"id": 4263821, "gamerTag": "TFT - Guillotine", "prefix": "TFT", "user": {"location": {"city": "Atlanta", "state": "GA", "country": "United States"}}}}]}, "standing": {"placement": 2, "stats": {"score": {"value": 0}}}}], "games": null}, {"id": 94203620, "state": 3, "round": -5, "fullRoundText": "Losers Semi-Final", "completedAt": 1758510422, "winnerId": 21339275, "slots": [{"id": "94203620-0", "entrant": {"id": 21337620, "name": "TFT | BigCheese", "participants": [{"id": 19615184, "gamerTag": "BigCheese", "prefix": "TFT", "user": {"location": {"city": null, "state": null, "country": null}}, "player": {"id": 3991446, "gamerTag": "BigCheese", "prefix": "TFT", "user": {"location": {"city": null, "state": null, "country": null}}}}]}, "standing": {"placement": 2, "stats": {"score": {"value": 0}}}}, {"id": "94203620-1", "entrant": {"id": 21339275, "name": "Kid Kaioken", "participants": [{"id": 19616734, "gamerTag": "Kid Kaioken", "prefix": "", "user": {"location": {"city": "Norcross", "state": "GA", "country": "United States"}}, "player": {"id": 2730912, "gamerTag": "Kid Kaioken", "prefix": "", "user": {"location": {"city": "Norcross", "state": "GA", "country": "United States"}}}}]}, "standing": {"placement": 1, "stats": {"score": {"value": 3}}}}], "games": null}, {"id": 94203350, "state": 3, "round": -3, "fullRoundText": "Losers Round 1", "completedAt": 1758503880, "winnerId": 21341657, "slots": [{"id": "94203350-0", "entrant": {"id": 21341770, "name": "Catalyst", "participants": [{"id": 19618991, "gamerTag": "Catalyst", "prefix": "", "user": null, "player": {"id": 4987501, "gamerTag": "Catalyst", "prefix": "", "user": null}}]}, "standing": {"placement": 2, "stats": {"score": {"value": -1}}}}, {"id": "94203350-1", "entrant": {"id": 21341657, "name": "assclapFGC", "participants": [{"id": 19618897, "gamerTag": "assclapFGC", "prefix": "", "user": {"location": {"city": "Scottdale", "state": "GA", "country": "United States"}}, "player": {"id": 3481864, "gamerTag": "assclapFGC", "prefix": "", "user": {"location": {"city": "Scottdale", "state": "GA", "country": "United States"}}}}]}, "standing": {"placement": 1, "stats": {"score": {"value": 0}}}}], "games": null}, {"id": 94203303, "state": 3, "round": -3, "fullRoundText": "Losers Round 1", "completedAt": 1758503543, "winnerId": 21339382, "slots": [{"id": "94203303-0", "entrant": {"id": 21339382, "name": "Pharrow", "participants": [{"id": 19616825, "gamerTag": "Pharrow", "prefix": null, "user": {"location": {"city": "Lithonia", "state": "GA", "country": "United States"}}, "player": {"id": 4987257, "gamerTag": "Pharrow", "prefix": null, "user": {"location": {"city": "Lithonia", "state": "GA", "country": "United States"}}}}]}, "standing": {"placement": 1, "stats": {"score": {"value": 2}}}}, {"id": "94203303-1", "entrant": {"id": 21340168, "name": "RentsDue", "participants": [{"id": 19617464, "gamerTag": "RentsDue", "prefix": "", "user": {"location": {"city": "Atlanta", "state": "GA", "country": "United States"}}, "player": {"id": 4928353, "gamerTag": "RentsDue", "prefix": "", "user": {"location": {"city": "Atlanta", "state": "GA", "country": "United States"}}}}]}, "standing": {"placement": 2, "stats": {"score": {"value": 0}}}}], "games": null}, {"id": 94203304, "state": 3, "round": -3, "fullRoundText": "Losers Round 1", "completedAt": 1758504291, "winnerId": 21341188, "slots": [{"id": "94203304-0", "entrant": {"id": 21341876, "name": "Jaxon", "participants": [{"id": 19619080, "gamerTag": "Jaxon", "prefix": null, "user": {"location": {"city": "Austell", "state": "GA", "country": "United States"}}, "player": {"id": 1827826, "gamerTag": "Jay3Low", "prefix": null, "user": {"location": {"city": "Austell", "state": "GA", "country": "United States"}}}}]}, "standing": {"placement": 2, "stats": {"score": {"value": 1}}}}, {"id": "94203304-1", "entrant": {"id": 21341188, "name": "TFT/ WFF2 | Frank Osherm", "participants": [{"id": 19618484, "gamerTag": "Frank Osherm", "prefix": "TFT/ WFF2", "user": {"location": {"city": "Atlanta", "state": "GA", "country": "United States"}}, "player": {"id": 1751817, "gamerTag": "Ricky Rudd", "prefix": "TFT", "user": {"location": {"city": "Atlanta", "state": "GA", "country": "United States"}}}}]}, "standing": {"placement": 1, "stats": {"score": {"value": 2}}}}], "games": null}, {"id": 94203351, "state": 3, "round": -3, "fullRoundText": "Losers Round 1", "completedAt": 1758504354, "winnerId": 21341549, "slots": [{"id": "94203351-0", "entrant": {"id": 21341878, "name": "lordjawsheen", "participants": [{"id": 19619082, "gamerTag": "lordjawsheen", "prefix": "", "user": null, "player": {"id": 4987513, "gamerTag": "lordjawsheen", "prefix": "", "user": null}}]}, "standing": {"placement": 2, "stats": {"score": {"value": 0}}}}, {"id": "94203351-1", "entrant": {"id": 21341549, "name": "MONEY | ImNoPro", "participants": [{"id": 19618812, "gamerTag": "ImNoPro", "prefix": "MONEY", "user": {"location": {"city": "Calhoun", "state": "GA", "country": "United States"}}, "player": {"id": 2149803, "gamerTag": "ImNoPro", "prefix": "MONEY", "user": {"location": {"city": "Calhoun", "state": "GA", "country": "United States"}}}}]}, "standing": {"placement": 1, "stats": {"score": {"value": 2}}}}], "games": null}, {"id": 94203352, "state": 3, "round": -3, "fullRoundText": "Losers Round 1", "completedAt": 1758504785, "winnerId": 21296003, "slots": [{"id": "94203352-0", "entrant": {"id": 21341772, "name": "Cozy", "participants": [{"id": 19618993, "gamerTag": "Cozy", "prefix": "", "user": null, "player": {"id": 4987502, "gamerTag": "Cozy", "prefix": "", "user": null}}]}, "standing": {"placement": 2, "stats": {"score": {"value": 0}}}}, {"id": "94203352-1", "entrant": {"id": 21296003, "name": "TFT | TFT - Guillotine", "participants": [{"id": 19578793, "gamerTag": "TFT - Guillotine", "prefix": "TFT", "user": {"location": {"city": "Atlanta", "state": "GA", "country": "United States"}}, "player": {"id": 4263821, "gamerTag": "TFT - Guillotine", "prefix": "TFT", "user": {"location": {"city": "Atlanta", "state": "GA", "country": "United States"}}}}]}, "standing": {"placement": 1, "stats": {"score": {"value": 2}}}}], "games": null}, {"id": 94203305, "state": 3, "round": -3, "fullRoundText": "Losers Round 1", "completedAt": 1758504564, "winnerId": 21338156, "slots": [{"id": "94203305-0", "entrant": {"id": 21341857, "name": "weathermandan", "participants": [{"id": 19619065, "gamerTag": "weathermandan", "prefix": "", "user": null, "player": {"id": 4344744, "gamerTag": "weathermandan", "prefix": "", "user": null}}]}, "standing": {"placement": 2, "stats": {"score": {"value": 0}}}}, {"id": "94203305-1", "entrant": {"id": 21338156, "name": "D.King79", "participants": [{"id": 19615701, "gamerTag": "D.King79", "prefix": null, "user": {"location": {"city": "Mt. Olympus", "state": "GA", "country": "United States"}}, "player": {"id": 534660, "gamerTag": "D.King79", "prefix": null, "user": {"location": {"city": "Mt. Olympus", "state": "GA", "country": "United States"}}}}]}, "standing": {"placement": 1, "stats": {"score": {"value": 2}}}}], "games": null}, {"id": 94203317, "state": 3, "round": 1, "fullRoundText": "Winners Round 1", "completedAt": 1758501209, "winnerId": 21341563, "slots": [{"id": "94203317-0", "entrant": {"id": 21341563, "name": "RM | lawl", "participants": [{"id": 19618820, "gamerTag": "lawl", "prefix": "RM", "user": {"location": {"city": "Dacula", "state": "GA", "country": "United States"}}, "player": {"id": 2116990, "gamerTag": "lawl", "prefix": "RM", "user": {"location": {"city": "Dacula", "state": "GA", "country": "United States"}}}}]}, "standing": {"placement": 1, "stats": {"score": {"value": 2}}}}, {"id": "94203317-1", "entrant": {"id": 21341612, "name": "Tilted", "participants": [{"id": 19618860, "gamerTag": "Tilted", "prefix": null, "user": {"location": {"city": "Norcross", "state": "GA", "country": "United States"}}, "player": {"id": 2377635, "gamerTag": "Tilted", "prefix": null, "user": {"location": {"city": "Norcross", "state": "GA", "country": "United States"}}}}]}, "standing": {"placement": 2, "stats": {"score": {"value": 0}}}}], "games": null}, {"id": 94203603, "state": 3, "round": 1, "fullRoundText": "Winners Semi-Final", "completedAt": 1758509510, "winnerId": 21341769, "slots": [{"id": "94203603-0", "entrant": {"id": 21341101, "name": "RM | Retro18", "participants": [{"id": 19618400, "gamerTag": "Retro18", "prefix": "RM", "user": {"location": {"city": "Loganville", "state": "GA", "country": "United States"}}, "player": {"id": 867830, "gamerTag": "Retro18", "prefix": "RM", "user": {"location": {"city": "Loganville", "state": "GA", "country": "United States"}}}}]}, "standing": {"placement": 2, "stats": {"score": {"value": 1}}}}, {"id": "94203603-1", "entrant": {"id": 21341769, "name": "TnT | Damp\u00e9", "participants": [{"id": 19618990, "gamerTag": "Damp\u00e9", "prefix": "TnT", "user": {"location": {"city": "Atlanta", "state": "GA", "country": "United States"}}, "player": {"id": 1170738, "gamerTag": "Damp\u00e9", "prefix": "TnT", "user": {"location": {"city": "Atlanta", "state": "GA", "country": "United States"}}}}]}, "standing": {"placement": 1, "stats": {"score": {"value": 3}}}}], "games": [{"id": 32786700, "orderNum": 1, "winnerId": 21341769, "entrant1Score": 0, "entrant2Score": null, "stage": null, "selections": [{"id": 48359567, "selectionType": "CHARACTER", "selectionValue": 1530, "entrant": {"id": 21341101}, "character": {"id": 1530, "name": "Banjo-Kazooie"}}, {"id": 48359568, "selectionType": "CHARACTER", "selectionValue": 1286, "entrant": {"id": 21341769}, "character": {"id": 1286, "name": "Fox"}}]}, {"id": 32786701, "orderNum": 2, "winnerId": 21341101, "entrant1Score": null, "entrant2Score": 0, "stage": null, "selections": [{"id": 48359569, "selectionType": "CHARACTER", "selectionValue": 1530, "entrant": {"id": 21341101}, "character": {"id": 1530, "name": "Banjo-Kazooie"}}, {"id": 48359570, "selectionType": "CHARACTER", "selectionValue": 1286, "entrant": {"id": 21341769}, "character": {"id": 1286, "name": "Fox"}}]}, {"id": 32786702, "orderNum": 3, "winnerId": 21341769, "entrant1Score": 0, "entrant2Score": null, "stage": null, "selections": [{"id": 48359571, "selectionType": "CHARACTER", "selectionValue": 1530, "entrant": {"id": 21341101}, "character": {"id": 1530, "name": "Banjo-Kazooie"}}, {"id": 48359572, "selectionType": "CHARACTER", "selectionValue": 1286, "entrant": {"id": 21341769}, "character": {"id": 1286, "name": "Fox"}}]}, {"id": 32786703, "orderNum": 4, "winnerId": 21341769, "entrant1Score": 0, "entrant2Score": null, "stage": null, "selections": [{"id": 48359573, "selectionType": "CHARACTER", "selectionValue": 1530, "entrant": {"id": 21341101}, "character": {"id": 1530, "name": "Banjo-Kazooie"}}, {"id": 48359574, "selectionType": "CHARACTER", "selectionValue": 1286, "entrant": {"id": 21341769}, "character": {"id": 1286, "name": "Fox"}}]}]}, {"id": 94203270, "state": 3, "round": 1, "fullRoundText": "Winners Round 1", "completedAt": 1758502220, "winnerId": 21339369, "slots": [{"id": "94203270-0", "entrant": {"id": 21339369, "name": "Mickeydeez", "participants": [{"id": 19616811, "gamerTag": "Mickeydeez", "prefix": "", "user": {"location": {"city": "Atlanta", "state": "GA", "country": "United States"}}, "player": {"id": 4825580, "gamerTag": "Mickeydeez", "prefix": "", "user": {"location": {"city": "Atlanta", "state": "GA", "country": "United States"}}}}]}, "standing": {"placement": 1, "stats": {"score": {"value": 2}}}}, {"id": "94203270-1", "entrant": {"id": 21341768, "name": "millano", "participants": [{"id": 19618989, "gamerTag": "millano", "prefix": "", "user": null, "player": {"id": 4214682, "gamerTag": "millano", "prefix": "", "user": null}}]}, "standing": {"placement": 2, "stats": {"score": {"value": 1}}}}], "games": null}, {"id": 94203604, "state": 3, "round": 1, "fullRoundText": "Winners Semi-Final", "completedAt": 1758509529, "winnerId": 21338347, "slots": [{"id": "94203604-0", "entrant": {"id": 21337620, "name": "TFT | BigCheese", "participants": [{"id": 19615184, "gamerTag": "BigCheese", "prefix": "TFT", "user": {"location": {"city": null, "state": null, "country": null}}, "player": {"id": 3991446, "gamerTag": "BigCheese", "prefix": "TFT", "user": {"location": {"city": null, "state": null, "country": null}}}}]}, "standing": {"placement": 2, "stats": {"score": {"value": 0}}}}, {"id": "94203604-1", "entrant": {"id": 21338347, "name": "Heart", "participants": [{"id": 19615870, "gamerTag": "Heart", "prefix": null, "user": {"location": {"city": "Atlanta", "state": "GA", "country": "United States"}}, "player": {"id": 4287822, "gamerTag": "Heart", "prefix": "", "user": {"location": {"city": "Atlanta", "state": "GA", "country": "United States"}}}}]}, "standing": {"placement": 1, "stats": {"score": {"value": 3}}}}], "games": [{"id": 32786707, "orderNum": 1, "winnerId": 21338347, "entrant1Score": 0, "entrant2Score": null, "stage": null, "selections": [{"id": 48359581, "selectionType": "CHARACTER", "selectionValue": 1338, "entrant": {"id": 21337620}, "character": {"id": 1338, "name": "Yoshi"}}, {"id": 48359582, "selectionType": "CHARACTER", "selectionValue": 1271, "entrant": {"id": 21338347}, "character": {"id": 1271, "name": "Bayonetta"}}]}, {"id": 32786708, "orderNum": 2, "winnerId": 21338347, "entrant1Score": 0, "entrant2Score": 0, "stage": null, "selections": [{"id": 48359583, "selectionType": "CHARACTER", "selectionValue": 1338, "entrant": {"id": 21337620}, "character": {"id": 1338, "name": "Yoshi"}}, {"id": 48359584, "selectionType": "CHARACTER", "selectionValue": 1271, "entrant": {"id": 21338347}, "character": {"id": 1271, "name": "Bayonetta"}}]}, {"id": 32786709, "orderNum": 3, "winnerId": 21338347, "entrant1Score": 0, "entrant2Score": 0, "stage": null, "selections": [{"id": 48359585, "selectionType": "CHARACTER", "selectionValue": 1338, "entrant": {"id": 21337620}, "character": {"id": 1338, "name": "Yoshi"}}, {"id": 48359586, "selectionType": "CHARACTER", "selectionValue": 1271, "entrant": {"id": 21338347}, "character": {"id": 1271, "name": "Bayonetta"}}]}]}, {"id": 94203271, "state": 3, "round": 1, "fullRoundText": "Winners Round 1", "completedAt": 1758501825, "winnerId": 21341638, "slots": [{"id": "94203271-0", "entrant": {"id": 21341638, "name": "RAMS | RussianJesus", "participants": [{"id": 19618881, "gamerTag": "RussianJesus", "prefix": "RAMS", "user": {"location": {"city": "Atlanta", "state": "GA", "country": "United States"}}, "player": {"id": 1140567, "gamerTag": "RussianJesus", "prefix": "RAMS", "user": {"location": {"city": "Atlanta", "state": "GA", "country": "United States"}}}}]}, "standing": {"placement": 1, "stats": {"score": {"value": 2}}}}, {"id": "94203271-1", "entrant": {"id": 21339382, "name": "Pharrow", "participants": [{"id": 19616825, "gamerTag": "Pharrow", "prefix": null, "user": {"location": {"city": "Lithonia", "state": "GA", "country": "United States"}}, "player": {"id": 4987257, "gamerTag": "Pharrow", "prefix": null, "user": {"location": {"city": "Lithonia", "state": "GA", "country": "United States"}}}}]}, "standing": {"placement": 2, "stats": {"score": {"value": 0}}}}], "games": null}, {"id": 94203318, "state": 3, "round": 1, "fullRoundText": "Winners Round 1", "completedAt": 1758502239, "winnerId": 21338393, "slots": [{"id": "94203318-0", "entrant": {"id": 21338393, "name": "TFT | ALLEYCAT", "participants": [{"id": 19615924, "gamerTag": "ALLEYCAT", "prefix": "TFT", "user": {"location": {"city": "Atlanta", "state": "GA", "country": "United States"}}, "player": {"id": 1940654, "gamerTag": "ALLEYCAT", "prefix": "TFT", "user": {"location": {"city": "Atlanta", "state": "GA", "country": "United States"}}}}]}, "standing": {"placement": 1, "stats": {"score": {"value": 2}}}}, {"id": "94203318-1", "entrant": {"id": 21341770, "name": "Catalyst", "participants": [{"id": 19618991, "gamerTag": "Catalyst", "prefix": "", "user": null, "player": {"id": 4987501, "gamerTag": "Catalyst", "prefix": "", "user": null}}]}, "standing": {"placement": 2, "stats": {"score": {"value": 0}}}}], "games": null}]}}}