{"phase": {"seeds": {"pageInfo": {"totalPages": 1, "total": 11}, "nodes": [{"id": 36587940, "seedNum": 1, "entrant": {"id": 21247282, "name": "SS | DDee", "participants": [{"id": 19538800, "gamerTag": "DDee", "prefix": "SS", "user": {"location": {"city": "Dacula", "state": "GA", "country": "United States"}}, "player": {"id": 1480393, "gamerTag": "DDee", "prefix": "SS", "user": {"location": {"city": "Dacula", "state": "GA", "country": "United States"}}}}]}}, {"id": 36545684, "seedNum": 3, "entrant": {"id": 21216561, "name": "Impluvio", "participants": [{"id": 19511754, "gamerTag": "Impluvio", "prefix": "", "user": {"location": {"city": null, "state": null, "country": null}}, "player": {"id": 2175953, "gamerTag": "Impluvio", "prefix": "417", "user": {"location": {"city": null, "state": null, "country": null}}}}]}}, {"id": 36587594, "seedNum": 2, "entrant": {"id": 21247147, "name": "417 | OneHundred", "participants": [{"id": 19538673, "gamerTag": "OneHundred", "prefix": "417", "user": {"location": {"city": null, "state": null, "country": "United States"}}, "player": {"id": 2266676, "gamerTag": "OneHundred", "prefix": "417", "user": {"location": {"city": null, "state": null, "country": "United States"}}}}]}}, {"id": 36585266, "seedNum": 5, "entrant": {"id": 21245730, "name": "417 | Krishna", "participants": [{"id": 19537361, "gamerTag": "Krishna", "prefix": "417", "user": {"location": {"city": null, "state": null, "country": "United States"}}, "player": {"id": 2282949, "gamerTag": "Krishna", "prefix": "417", "user": {"location": {"city": null, "state": null, "country": "United States"}}}}]}}, {"id": 36460993, "seedNum": 6, "entrant": {"id": 21163699, "name": "LBE | Savant", "participants": [{"id": 19465193, "gamerTag": "Savant", "prefix": "LBE", "user": {"location": {"city": "Athens", "state": "GA", "country": "United States"}}, "player": {"id": 1944044, "gamerTag": "Savant", "prefix": "LBE | CC", "user": {"location": {"city": "Athens", "state": "GA", "country": "United States"}}}}]}}, {"id": 36540053, "seedNum": 8, "entrant": {"id": 21212299, "name": "Omar", "participants": [{"id": 19508061, "gamerTag": "Omar", "prefix": "", "user": {"location": {"city": null, "state": "GA", "country": "United States"}}, "player": {"id": 4300029, "gamerTag": "Omar", "prefix": "", "user": {"location": {"city": null, "state": "GA", "country": "United States"}}}}]}}, {"id": 36588681, "seedNum": 4, "entrant": {"id": 21247831, "name": "ECEF | Copper", "participants": [{"id": 19539307, "gamerTag": "Copper", "prefix": "ECEF", "user": {"location": {"city": "Athens", "state": "GA", "country": "United States"}}, "player": {"id": 1288306, "gamerTag": "Copper", "prefix": "417", "user": {"location": {"city": "Athens", "state": "GA", "country": "United States"}}}}]}}, {"id": 36569847, "seedNum": 10, "entrant": {"id": 21234061, "name": "Infinite_Radiance", "participants": [{"id": 19526928, "gamerTag": "Infinite_Radiance", "prefix": "", "user": {"location": {"city": null, "state": "GA", "country": "United States"}}, "player": {"id": 4926508, "gamerTag": "Infinite_Radiance", "prefix": "CC UGA", "user": {"location": {"city": null, "state": "GA", "country": "United States"}}}}]}}, {"id": 36522555, "seedNum": 7, "entrant": {"id": 21202288, "name": "DeDeDeadly", "participants": [{"id": 19499066, "gamerTag": "DeDeDeadly", "prefix": "", "user": {"location": {"city": null, "state": null, "country": "United States"}}, "player": {"id": 2267772, "gamerTag": "DeDeDeadly", "prefix": "", "user": {"location": {"city": null, "state": null, "country": "United States"}}}}]}}, {"id": 36461010, "seedNum": 9, "entrant": {"id": 21163722, "name": "Vertebrae", "participants": [{"id": 19465212, "gamerTag": "Vertebrae", "prefix": "", "user": {"location": {"city": "Athens", "state": "GA", "country": "United States"}}, "player": {"id": 1583946, "gamerTag": "Vertebrae", "prefix": "CC", "user": {"location": {"city": "Athens", "state": "GA", "country": "United States"}}}}]}}, {"id": 36540812, "seedNum": 11, "entrant": {"id": 21212900, "name": "Vermelho", "participants": [{"id": 19508607, "gamerTag": "Vermelho", "prefix": "", "user": {"location": {"city": null, "state": "GA", "country": "United States"}}, "player": {"id": 4300811, "gamerTag": "Vermelho", "prefix": "", "user": {"location": {"city": null, "state": "GA", "country": "United States"}}}}]}}]}}}