{"phase": {"seeds": {"pageInfo": {"totalPages": 1, "total": 37}, "nodes": [{"id": 36185677, "seedNum": 1, "entrant": {"id": 20979767, "name": "swaggerbee", "participants": [{"id": 19300522, "gamerTag": "swaggerbee", "prefix": "", "user": {"location": {"city": "Atlanta", "state": "GA", "country": "United States"}}, "player": {"id": 1687384, "gamerTag": "swaggerbee", "prefix": "", "user": {"location": {"city": "Atlanta", "state": "GA", "country": "United States"}}}}]}}, {"id": 36185679, "seedNum": 10, "entrant": {"id": 20979769, "name": "Monolithic", "participants": [{"id": 19300523, "gamerTag": "Monolithic", "prefix": "", "user": {"location": {"city": "", "state": "GA", "country": "United States"}}, "player": {"id": 1926775, "gamerTag": "Monolithic", "prefix": "", "user": {"location": {"city": "", "state": "GA", "country": "United States"}}}}]}}, {"id": 36210557, "seedNum": 3, "entrant": {"id": 20995591, "name": "Taza", "participants": [{"id": 19313721, "gamerTag": "Taza", "prefix": null, "user": {"location": {"city": "Roswell", "state": "GA", "country": "United States"}}, "player": {"id": 278724, "gamerTag": "Taza", "prefix": null, "user": {"location": {"city": "Roswell", "state": "GA", "country": "United States"}}}}]}}, {"id": 36189467, "seedNum": 2, "entrant": {"id": 20981880, "name": "audrey", "participants": [{"id": 19302287, "gamerTag": "audrey", "prefix": null, "user": {"location": {"city": "Dunwoody", "state": "GA", "country": "United States"}}, "player": {"id": 1335864, "gamerTag": "audrey", "prefix": null, "user": {"location": {"city": "Dunwoody", "state": "GA", "country": "United States"}}}}]}}, {"id": 36221793, "seedNum": 5, "entrant": {"id": 21003234, "name": "NMBS | Phteven", "participants": [{"id": 19320972, "gamerTag": "Phteven", "prefix": "NMBS", "user": {"location": {"city": "Mableton", "state": "GA", "country": "United States"}}, "player": {"id": 209952, "gamerTag": "Phteven", "prefix": "NMBS", "user": {"location": {"city": "Mableton", "state": "GA", "country": "United States"}}}}]}}, {"id": 36188050, "seedNum": 8, "entrant": {"id": 20980892, "name": "Wolven", "participants": [{"id": 19301484, "gamerTag": "Wolven", "prefix": null, "user": {"location": {"city": "Atlanta", "state": "GA", "country": "United States"}}, "player": {"id": 126978, "gamerTag": "Wolven", "prefix": null, "user": {"location": {"city": "Atlanta", "state": "GA", "country": "United States"}}}}]}}, {"id": 36185641, "seedNum": 9, "entrant": {"id": 20979730, "name": "N/a | C$", "participants": [{"id": 19300487, "gamerTag": "C$", "prefix": "N/a", "user": {"location": null}, "player": {"id": 228175, "gamerTag": "C$", "prefix": "N/a", "user": {"location": null}}}]}}, {"id": 36226685, "seedNum": 13, "entrant": {"id": 21006127, "name": "Joseph", "participants": [{"id": 19323730, "gamerTag": "Joseph", "prefix": "", "user": {"location": {"city": "", "state": "AL", "country": "United States"}}, "player": {"id": 22422, "gamerTag": "Joseph", "prefix": "", "user": {"location": {"city": "", "state": "AL", "country": "United States"}}}}]}}, {"id": 36228229, "seedNum": 4, "entrant": {"id": 21007194, "name": "Emilia | Nera", "participants": [{"id": 19324699, "gamerTag": "Nera", "prefix": "Emilia", "user": {"location": {"city": "Greenville", "state": "SC", "country": "United States"}}, "player": {"id": 1660449, "gamerTag": "Nera", "prefix": "Emilia", "user": {"location": {"city": "Greenville", "state": "SC", "country": "United States"}}}}]}}, {"id": 36226249, "seedNum": 6, "entrant": {"id": 21005805, "name": "Tipped Off | GAwes", "participants": [{"id": 19314174, "gamerTag": "GAwes", "prefix": "Tipped Off", "user": {"location": {"city": "Decatur", "state": "GA", "country": "United States"}}, "player": {"id": 19690, "gamerTag": "GAwes", "prefix": "Tipped Off", "user": {"location": {"city": "Decatur", "state": "GA", "country": "United States"}}}}]}}, {"id": 36228106, "seedNum": 7, "entrant": {"id": 21007085, "name": "Erran", "participants": [{"id": 19324597, "gamerTag": "Erran", "prefix": "", "user": {"location": {"city": "Atlanta", "state": "GA", "country": "United States"}}, "player": {"id": 36706, "gamerTag": "Erran", "prefix": "", "user": {"location": {"city": "Atlanta", "state": "GA", "country": "United States"}}}}]}}, {"id": 36227236, "seedNum": 11, "entrant": {"id": 21006616, "name": "Ronan", "participants": [{"id": 19324187, "gamerTag": "Ronan", "prefix": "", "user": {"location": {"city": "Atlanta", "state": "GA", "country": "United States"}}, "player": {"id": 147384, "gamerTag": "Ronan", "prefix": "", "user": {"location": {"city": "Atlanta", "state": "GA", "country": "United States"}}}}]}}, {"id": 36185605, "seedNum": 12, "entrant": {"id": 20979705, "name": "SKRUNT | diremaykr", "participants": [{"id": 19300464, "gamerTag": "diremaykr", "prefix": "SKRUNT", "user": {"location": {"city": "Buford", "state": "GA", "country": "United States"}}, "player": {"id": 3207366, "gamerTag": "diremaykr", "prefix": "", "user": {"location": {"city": "Buford", "state": "GA", "country": "United States"}}}}]}}, {"id": 36226840, "seedNum": 14, "entrant": {"id": 21006262, "name": "OGC | bune", "participants": [{"id": 19323855, "gamerTag": "bune", "prefix": "OGC", "user": {"location": {"city": "Macon", "state": "GA", "country": "United States"}}, "player": {"id": 3054829, "gamerTag": "bune", "prefix": "OGC", "user": {"location": {"city": "Macon", "state": "GA", "country": "United States"}}}}]}}, {"id": 36221737, "seedNum": 15, "entrant": {"id": 21003186, "name": "citizendog", "participants": [{"id": 19320927, "gamerTag": "citizendog", "prefix": "", "user": {"location": {"city": "Monroe", "state": "GA", "country": "United States"}}, "player": {"id": 176325, "gamerTag": "citizendog", "prefix": "", "user": {"location": {"city": "Monroe", "state": "GA", "country": "United States"}}}}]}}, {"id": 36224303, "seedNum": 17, "entrant": {"id": 21004591, "name": "BaconBBQ", "participants": [{"id": 19322234, "gamerTag": "BaconBBQ", "prefix": "", "user": {"location": {"city": "Auburn", "state": "AL", "country": "United States"}}, "player": {"id": 3053552, "gamerTag": "BaconBBQ", "prefix": "", "user": {"location": {"city": "Auburn", "state": "AL", "country": "United States"}}}}]}}, {"id": 36219616, "seedNum": 16, "entrant": {"id": 21001835, "name": "blaise", "participants": [{"id": 19319593, "gamerTag": "blaise", "prefix": "", "user": {"location": {"city": "douglasville", "state": "GA", "country": "United States"}}, "player": {"id": 1326121, "gamerTag": "blaise", "prefix": "", "user": {"location": {"city": "douglasville", "state": "GA", "country": "United States"}}}}]}}, {"id": 36227281, "seedNum": 18, "entrant": {"id": 21006637, "name": "noided", "participants": [{"id": 19324207, "gamerTag": "noided", "prefix": "", "user": {"location": {"city": "Atlanta", "state": "GA", "country": "United States"}}, "player": {"id": 2586521, "gamerTag": "noided", "prefix": "", "user": {"location": {"city": "Atlanta", "state": "GA", "country": "United States"}}}}]}}, {"id": 36225631, "seedNum": 19, "entrant": {"id": 21005426, "name": "Tyme", "participants": [{"id": 19323068, "gamerTag": "Tyme", "prefix": null, "user": {"location": {"city": null, "state": null, "country": null}}, "player": {"id": 325589, "gamerTag": "Tyme", "prefix": null, "user": {"location": {"city": null, "state": null, "country": null}}}}]}}, {"id": 36227906, "seedNum": 20, "entrant": {"id": 21007048, "name": "St0ne", "participants": [{"id": 19324558, "gamerTag": "St0ne", "prefix": "", "user": {"location": {"city": "Fairfax", "state": "VA", "country": "United States"}}, "player": {"id": 835141, "gamerTag": "St0ne", "prefix": "", "user": {"location": {"city": "Fairfax", "state": "VA", "country": "United States"}}}}]}}, {"id": 36221401, "seedNum": 21, "entrant": {"id": 21002953, "name": "Deign", "participants": [{"id": 19320699, "gamerTag": "Deign", "prefix": "", "user": {"location": {"city": null, "state": null, "country": "United States"}}, "player": {"id": 325595, "gamerTag": "Deign", "prefix": "", "user": {"location": {"city": null, "state": null, "country": "United States"}}}}]}}, {"id": 36225176, "seedNum": 22, "entrant": {"id": 21005168, "name": "TSOAP | MuchOlmec", "participants": [{"id": 19322822, "gamerTag": "MuchOlmec", "prefix": "TSOAP", "user": {"location": {"city": "Athens", "state": "GA", "country": "United States"}}, "player": {"id": 1105460, "gamerTag": "MuchOlmec", "prefix": "TSOAP", "user": {"location": {"city": "Athens", "state": "GA", "country": "United States"}}}}]}}, {"id": 36222795, "seedNum": 23, "entrant": {"id": 21003844, "name": "KHW | Frumps", "participants": [{"id": 19321519, "gamerTag": "Frumps", "prefix": "KHW", "user": {"location": {"city": "Greenville", "state": "SC", "country": "United States"}}, "player": {"id": 2844590, "gamerTag": "Frumps", "prefix": "KHW", "user": {"location": {"city": "Greenville", "state": "SC", "country": "United States"}}}}]}}, {"id": 36224005, "seedNum": 24, "entrant": {"id": 21004400, "name": "Newt Man", "participants": [{"id": 19322056, "gamerTag": "Newt Man", "prefix": "", "user": {"location": {"city": null, "state": null, "country": "United States"}}, "player": {"id": 4726806, "gamerTag": "Newt Man", "prefix": "", "user": {"location": {"city": null, "state": null, "country": "United States"}}}}]}}, {"id": 36225876, "seedNum": 25, "entrant": {"id": 21005622, "name": "Milk", "participants": [{"id": 19323259, "gamerTag": "Milk", "prefix": null, "user": {"location": {"city": "Cumming", "state": "GA", "country": "United States"}}, "player": {"id": 3196902, "gamerTag": "Milk", "prefix": null, "user": {"location": {"city": "Cumming", "state": "GA", "country": "United States"}}}}]}}, {"id": 36226919, "seedNum": 26, "entrant": {"id": 21006321, "name": "TSOAP | Slothy", "participants": [{"id": 19323908, "gamerTag": "Slothy", "prefix": "TSOAP", "user": {"location": {"city": "", "state": "GA", "country": "United States"}}, "player": {"id": 3475413, "gamerTag": "Slothy", "prefix": "TSOAP", "user": {"location": {"city": "", "state": "GA", "country": "United States"}}}}]}}, {"id": 36228224, "seedNum": 27, "entrant": {"id": 21007189, "name": "STEEZY", "participants": [{"id": 19324693, "gamerTag": "STEEZY", "prefix": null, "user": {"location": {"city": "HELL", "state": "GA", "country": "United States"}}, "player": {"id": 2496238, "gamerTag": "STEEZY", "prefix": null, "user": {"location": {"city": "HELL", "state": "GA", "country": "United States"}}}}]}}, {"id": 36218357, "seedNum": 29, "entrant": {"id": 21000973, "name": "Permafrost", "participants": [{"id": 19318727, "gamerTag": "Permafrost", "prefix": "", "user": {"location": {"city": "Atlanta", "state": "GA", "country": "United States"}}, "player": {"id": 1256898, "gamerTag": "Permafrost", "prefix": "", "user": {"location": {"city": "Atlanta", "state": "GA", "country": "United States"}}}}]}}, {"id": 36195803, "seedNum": 31, "entrant": {"id": 20985527, "name": "Lalaballs", "participants": [{"id": 19305069, "gamerTag": "Lalaballs", "prefix": "", "user": {"location": {"city": "Atlanta", "state": "GA", "country": "United States"}}, "player": {"id": 2300786, "gamerTag": "Lalaballs", "prefix": "", "user": {"location": {"city": "Atlanta", "state": "GA", "country": "United States"}}}}]}}, {"id": 36221041, "seedNum": 33, "entrant": {"id": 21002879, "name": "June!", "participants": [{"id": 19320632, "gamerTag": "June!", "prefix": null, "user": {"location": {"city": null, "state": "GA", "country": "United States"}}, "player": {"id": 1969803, "gamerTag": "June!", "prefix": null, "user": {"location": {"city": null, "state": "GA", "country": "United States"}}}}]}}, {"id": 36225282, "seedNum": 35, "entrant": {"id": 21005240, "name": "BigSleep", "participants": [{"id": 19322893, "gamerTag": "BigSleep", "prefix": null, "user": {"location": {"city": null, "state": "GA", "country": "United States"}}, "player": {"id": 3638029, "gamerTag": "BigSleep", "prefix": null, "user": {"location": {"city": null, "state": "GA", "country": "United States"}}}}]}}, {"id": 36225361, "seedNum": 37, "entrant": {"id": 21005286, "name": "Captain Fauci | pwyezl", "participants": [{"id": 19322940, "gamerTag": "pwyezl", "prefix": "Captain Fauci", "user": {"location": {"city": "Alpharetta", "state": "GA", "country": "United States"}}, "player": {"id": 4929686, "gamerTag": "pwyezl", "prefix": null, "user": {"location": {"city": "Alpharetta", "state": "GA", "country": "United States"}}}}]}}, {"id": 36226723, "seedNum": 28, "entrant": {"id": 21006153, "name": "Mac Piller", "participants": [{"id": 19323754, "gamerTag": "Mac Piller", "prefix": null, "user": {"location": {"city": "Auburn", "state": "AL", "country": "United States"}}, "player": {"id": 2363610, "gamerTag": "soup time", "prefix": null, "user": {"location": {"city": "Auburn", "state": "AL", "country": "United States"}}}}]}}, {"id": 36219243, "seedNum": 30, "entrant": {"id": 21001581, "name": "TPS | $CAIT", "participants": [{"id": 19319318, "gamerTag": "$CAIT", "prefix": "TPS", "user": {"location": {"city": "Acworth", "state": "GA", "country": "United States"}}, "player": {"id": 3422494, "gamerTag": "$CAITLIN", "prefix": "TPS", "user": {"location": {"city": "Acworth", "state": "GA", "country": "United States"}}}}]}}, {"id": 36214585, "seedNum": 32, "entrant": {"id": 20998516, "name": "afterimage", "participants": [{"id": 19316338, "gamerTag": "afterimage", "prefix": "", "user": {"location": {"city": "Atlanta", "state": "GA", "country": "United States"}}, "player": {"id": 4435133, "gamerTag": "popsicle", "prefix": "", "user": {"location": {"city": "Atlanta", "state": "GA", "country": "United States"}}}}]}}, {"id": 36228322, "seedNum": 34, "entrant": {"id": 21007241, "name": "DKMinii", "participants": [{"id": 19324734, "gamerTag": "DKMinii", "prefix": "", "user": {"location": {"city": null, "state": "GA", "country": "United States"}}, "player": {"id": 4961141, "gamerTag": "Minii", "prefix": null, "user": {"location": {"city": null, "state": "GA", "country": "United States"}}}}]}}, {"id": 36197413, "seedNum": 36, "entrant": {"id": 20986640, "name": "kablooey", "participants": [{"id": 19306002, "gamerTag": "kablooey", "prefix": "", "user": {"location": {"city": "Peachtree City", "state": "GA", "country": "United States"}}, "player": {"id": 220299, "gamerTag": "kablooey", "prefix": "milk", "user": {"location": {"city": "Peachtree City", "state": "GA", "country": "United States"}}}}]}}]}}}