{"phase": {"seeds": {"pageInfo": {"totalPages": 1, "total": 15}, "nodes": [{"id": 36259177, "seedNum": 2, "entrant": {"id": 21025724, "name": "Genghis D0n", "participants": [{"id": 19341430, "gamerTag": "Genghis D0n", "prefix": "", "user": {"location": {"city": "Atlanta", "state": "GA", "country": "United States"}}, "player": {"id": 724224, "gamerTag": "Genghis D0n", "prefix": "", "user": {"location": {"city": "Atlanta", "state": "GA", "country": "United States"}}}}]}}, {"id": 36257721, "seedNum": 1, "entrant": {"id": 21025115, "name": "JJBREEZE", "participants": [{"id": 19340883, "gamerTag": "JJBREEZE", "prefix": "", "user": {"location": {"city": "Atlanta", "state": "GA", "country": "United States"}}, "player": {"id": 688460, "gamerTag": "JJBREEZE", "prefix": "", "user": {"location": {"city": "Atlanta", "state": "GA", "country": "United States"}}}}]}}, {"id": 36253011, "seedNum": 9, "entrant": {"id": 21021478, "name": "CB | crispybiscuit", "participants": [{"id": 19337443, "gamerTag": "crispybiscuit", "prefix": "CB", "user": {"location": {"city": "Atlanta", "state": null, "country": "Georgia"}}, "player": {"id": 1920466, "gamerTag": "crispybiscuit", "prefix": "CB", "user": {"location": {"city": "Atlanta", "state": null, "country": "Georgia"}}}}]}}, {"id": 36254452, "seedNum": 7, "entrant": {"id": 21022405, "name": "JFCA | Abstract", "participants": [{"id": 19338325, "gamerTag": "Abstract", "prefix": "JFCA", "user": {"location": {"city": "Atlanta", "state": "GA", "country": "United States"}}, "player": {"id": 36643, "gamerTag": "Abstract", "prefix": "JFCA", "user": {"location": {"city": "Atlanta", "state": "GA", "country": "United States"}}}}]}}, {"id": 36257276, "seedNum": 3, "entrant": {"id": 21024697, "name": "Armanisaint", "participants": [{"id": 19340499, "gamerTag": "Armanisaint", "prefix": null, "user": {"location": {"city": "Roswell", "state": "GA", "country": "United States"}}, "player": {"id": 3943806, "gamerTag": "Armanisaint", "prefix": null, "user": {"location": {"city": "Roswell", "state": "GA", "country": "United States"}}}}]}}, {"id": 36254641, "seedNum": 4, "entrant": {"id": 21022562, "name": "4o4 | KhalRhaego", "participants": [{"id": 19338464, "gamerTag": "KhalRhaego", "prefix": "4o4", "user": {"location": {"city": "Jonesboro", "state": "GA", "country": "United States"}}, "player": {"id": 4076327, "gamerTag": "KhalRhaego", "prefix": "BOLT", "user": {"location": {"city": "Jonesboro", "state": "GA", "country": "United States"}}}}]}}, {"id": 36249361, "seedNum": 5, "entrant": {"id": 21019656, "name": "InIt2WynneIt", "participants": [{"id": 19335771, "gamerTag": "InIt2WynneIt", "prefix": "", "user": {"location": {"city": "LAWRENCEVILLE", "state": "GA", "country": "United States"}}, "player": {"id": 260407, "gamerTag": "InIt2WynneIt", "prefix": "", "user": {"location": {"city": "LAWRENCEVILLE", "state": "GA", "country": "United States"}}}}]}}, {"id": 36258428, "seedNum": 6, "entrant": {"id": 21025568, "name": "Iso.Dgaf", "participants": [{"id": 19341287, "gamerTag": "Iso.Dgaf", "prefix": null, "user": {"location": {"city": "Acworth", "state": "GA", "country": "United States"}}, "player": {"id": 4285541, "gamerTag": "Iso.Dgaf", "prefix": null, "user": {"location": {"city": "Acworth", "state": "GA", "country": "United States"}}}}]}}, {"id": 36257430, "seedNum": 8, "entrant": {"id": 21024849, "name": "Myk_JUMP", "participants": [{"id": 19340652, "gamerTag": "Myk_JUMP", "prefix": "", "user": {"location": {"city": "Atlanta", "state": "GA", "country": "United States"}}, "player": {"id": 469002, "gamerTag": "Myk_JUMP", "prefix": "", "user": {"location": {"city": "Atlanta", "state": "GA", "country": "United States"}}}}]}}, {"id": 36256945, "seedNum": 12, "entrant": {"id": 21024413, "name": "Bronzjo", "participants": [{"id": 19340204, "gamerTag": "Bronzjo", "prefix": null, "user": {"location": {"city": "Lula", "state": "GA", "country": "United States"}}, "player": {"id": 4622459, "gamerTag": "Bronzjo", "prefix": null, "user": {"location": {"city": "Lula", "state": "GA", "country": "United States"}}}}]}}, {"id": 36255700, "seedNum": 14, "entrant": {"id": 21023424, "name": "SomeLikeItRedHot", "participants": [{"id": 19339295, "gamerTag": "SomeLikeItRedHot", "prefix": "", "user": {"location": {"city": "Atlanta", "state": "GA", "country": "United States"}}, "player": {"id": 223776, "gamerTag": "REMY", "prefix": "", "user": {"location": {"city": "Atlanta", "state": "GA", "country": "United States"}}}}]}}, {"id": 36257597, "seedNum": 15, "entrant": {"id": 21025006, "name": "Beasker", "participants": [{"id": 19340793, "gamerTag": "Beasker", "prefix": null, "user": {"location": {"city": "marietta", "state": "GA", "country": "United States"}}, "player": {"id": 4167883, "gamerTag": "Beasker", "prefix": null, "user": {"location": {"city": "marietta", "state": "GA", "country": "United States"}}}}]}}, {"id": 36257371, "seedNum": 10, "entrant": {"id": 21024792, "name": "YoungTaco", "participants": [{"id": 19340591, "gamerTag": "YoungTaco", "prefix": "", "user": {"location": {"city": null, "state": "GA", "country": "United States"}}, "player": {"id": 1239045, "gamerTag": "YoungTaco", "prefix": "", "user": {"location": {"city": null, "state": "GA", "country": "United States"}}}}]}}, {"id": 36255623, "seedNum": 11, "entrant": {"id": 21023342, "name": "Macho_Franchise", "participants": [{"id": 19339216, "gamerTag": "Macho_Franchise", "prefix": null, "user": {"location": {"city": "Marietta", "state": "GA", "country": "United States"}}, "player": {"id": 874463, "gamerTag": "Macho_Franchise", "prefix": null, "user": {"location": {"city": "Marietta", "state": "GA", "country": "United States"}}}}]}}, {"id": 36254781, "seedNum": 13, "entrant": {"id": 21022679, "name": "OTC-Sessions", "participants": [{"id": 19338580, "gamerTag": "OTC-Sessions", "prefix": "", "user": {"location": {"city": null, "state": null, "country": "United States"}}, "player": {"id": 4932289, "gamerTag": "OTC-Sessions", "prefix": "", "user": {"location": {"city": null, "state": null, "country": "United States"}}}}]}}]}}}