{"phase": {"seeds": {"pageInfo": {"totalPages": 1, "total": 17}, "nodes": [{"id": 36493099, "seedNum": 1, "entrant": {"id": 21183941, "name": "Eclipse", "participants": [{"id": 19482972, "gamerTag": "Eclipse", "prefix": "", "user": {"location": {"city": "Fairburn", "state": "GA", "country": "United States"}}, "player": {"id": 1496702, "gamerTag": "Eclipse", "prefix": "", "user": {"location": {"city": "Fairburn", "state": "GA", "country": "United States"}}}}]}}, {"id": 36579994, "seedNum": 2, "entrant": {"id": 21241697, "name": "natebug01", "participants": [{"id": 19533864, "gamerTag": "natebug01", "prefix": null, "user": {"location": {"city": "atl", "state": "GA", "country": "United States"}}, "player": {"id": 69973, "gamerTag": "natebug01", "prefix": null, "user": {"location": {"city": "atl", "state": "GA", "country": "United States"}}}}]}}, {"id": 36552279, "seedNum": 3, "entrant": {"id": 21221544, "name": "Austintacious", "participants": [{"id": 19516050, "gamerTag": "Austintacious", "prefix": "", "user": {"location": {"city": "Atlanta", "state": "GA", "country": "United States"}}, "player": {"id": 14025, "gamerTag": "Austintacious", "prefix": "", "user": {"location": {"city": "Atlanta", "state": "GA", "country": "United States"}}}}]}}, {"id": 36603941, "seedNum": 6, "entrant": {"id": 21257968, "name": "Nero", "participants": [{"id": 19547970, "gamerTag": "Nero", "prefix": "", "user": {"location": {"city": "Calgary", "state": "AB", "country": "Canada"}}, "player": {"id": 175669, "gamerTag": "Nero", "prefix": "", "user": {"location": {"city": "Calgary", "state": "AB", "country": "Canada"}}}}]}}, {"id": 36096037, "seedNum": 4, "entrant": {"id": 20927283, "name": "Monolithic", "participants": [{"id": 19254272, "gamerTag": "Monolithic", "prefix": "", "user": {"location": {"city": "", "state": "GA", "country": "United States"}}, "player": {"id": 1926775, "gamerTag": "Monolithic", "prefix": "", "user": {"location": {"city": "", "state": "GA", "country": "United States"}}}}]}}, {"id": 36615878, "seedNum": 5, "entrant": {"id": 21266669, "name": "tomguy", "participants": [{"id": 19555086, "gamerTag": "tomguy", "prefix": "", "user": {"location": {"city": "Atlanta", "state": "GA", "country": "United States"}}, "player": {"id": 147458, "gamerTag": "tomguy", "prefix": "", "user": {"location": {"city": "Atlanta", "state": "GA", "country": "United States"}}}}]}}, {"id": 36095311, "seedNum": 8, "entrant": {"id": 20926627, "name": "DD | Kingpoyothefirst", "participants": [{"id": 19253717, "gamerTag": "Kingpoyothefirst", "prefix": "DD", "user": {"location": {"city": null, "state": null, "country": null}}, "player": {"id": 2934299, "gamerTag": "Kingpoyothefirst", "prefix": "DD", "user": {"location": {"city": null, "state": null, "country": null}}}}]}}, {"id": 36543159, "seedNum": 9, "entrant": {"id": 21214401, "name": "diremaykr", "participants": [{"id": 19509904, "gamerTag": "diremaykr", "prefix": "", "user": {"location": {"city": "Buford", "state": "GA", "country": "United States"}}, "player": {"id": 3207366, "gamerTag": "diremaykr", "prefix": "", "user": {"location": {"city": "Buford", "state": "GA", "country": "United States"}}}}]}}, {"id": 36096896, "seedNum": 7, "entrant": {"id": 20927887, "name": "EVIL | Alas", "participants": [{"id": 19254781, "gamerTag": "Alas", "prefix": "EVIL", "user": {"location": {"city": null, "state": null, "country": null}}, "player": {"id": 25946, "gamerTag": "Alas", "prefix": "EVIL", "user": {"location": {"city": null, "state": null, "country": null}}}}]}}, {"id": 36482103, "seedNum": 10, "entrant": {"id": 21175679, "name": "SCS | dougie2doinks", "participants": [{"id": 19475795, "gamerTag": "dougie2doinks", "prefix": "SCS", "user": {"location": {"city": "Atlanta", "state": "GA", "country": "United States"}}, "player": {"id": 1569735, "gamerTag": "dougie2doinks", "prefix": "SCS", "user": {"location": {"city": "Atlanta", "state": "GA", "country": "United States"}}}}]}}, {"id": 36095034, "seedNum": 11, "entrant": {"id": 20926454, "name": "The Hive | braxton", "participants": [{"id": 19253557, "gamerTag": "braxton", "prefix": "The Hive", "user": {"location": {"city": "Atlanta", "state": "GA", "country": "United States"}}, "player": {"id": 1037821, "gamerTag": "braxton", "prefix": "The Hive", "user": {"location": {"city": "Atlanta", "state": "GA", "country": "United States"}}}}]}}, {"id": 36145928, "seedNum": 13, "entrant": {"id": 20960939, "name": "noided", "participants": [{"id": 19283764, "gamerTag": "noided", "prefix": "", "user": {"location": {"city": "Atlanta", "state": "GA", "country": "United States"}}, "player": {"id": 2586521, "gamerTag": "noided", "prefix": "", "user": {"location": {"city": "Atlanta", "state": "GA", "country": "United States"}}}}]}}, {"id": 36335510, "seedNum": 12, "entrant": {"id": 21079648, "name": "blaise", "participants": [{"id": 19390207, "gamerTag": "blaise", "prefix": "", "user": {"location": {"city": "douglasville", "state": "GA", "country": "United States"}}, "player": {"id": 1326121, "gamerTag": "blaise", "prefix": "", "user": {"location": {"city": "douglasville", "state": "GA", "country": "United States"}}}}]}}, {"id": 36119815, "seedNum": 14, "entrant": {"id": 20943140, "name": "dgo", "participants": [{"id": 19268547, "gamerTag": "dgo", "prefix": null, "user": {"location": {"city": "Lithonia", "state": "GA", "country": "United States"}}, "player": {"id": 3821146, "gamerTag": "dgo", "prefix": null, "user": {"location": {"city": "Lithonia", "state": "GA", "country": "United States"}}}}]}}, {"id": 36614084, "seedNum": 15, "entrant": {"id": 21265209, "name": "STEEZY", "participants": [{"id": 19553922, "gamerTag": "STEEZY", "prefix": null, "user": {"location": {"city": "HELL", "state": "GA", "country": "United States"}}, "player": {"id": 2496238, "gamerTag": "STEEZY", "prefix": null, "user": {"location": {"city": "HELL", "state": "GA", "country": "United States"}}}}]}}, {"id": 36541991, "seedNum": 16, "entrant": {"id": 21213776, "name": "TPS | $CAITLIN", "participants": [{"id": 19509349, "gamerTag": "$CAITLIN", "prefix": "TPS", "user": {"location": {"city": "Kennesaw", "state": "GA", "country": "United States"}}, "player": {"id": 3422494, "gamerTag": "$CAITLIN", "prefix": "TPS", "user": {"location": {"city": "Kennesaw", "state": "GA", "country": "United States"}}}}]}}, {"id": 36605311, "seedNum": 17, "entrant": {"id": 21258822, "name": "popsicle", "participants": [{"id": 19548725, "gamerTag": "popsicle", "prefix": "", "user": {"location": {"city": "Atlanta", "state": "GA", "country": "United States"}}, "player": {"id": 4435133, "gamerTag": "popsicle", "prefix": "", "user": {"location": {"city": "Atlanta", "state": "GA", "country": "United States"}}}}]}}]}}}