{"phase": {"seeds": {"pageInfo": {"totalPages": 1, "total": 30}, "nodes": [{"id": 36916451, "seedNum": 1, "entrant": {"id": 21474305, "name": "Colbol", "participants": [{"id": 19734463, "gamerTag": "Colbol", "prefix": "", "user": {"location": {"city": "Tucker", "state": "GA", "country": "United States"}}, "player": {"id": 1009, "gamerTag": "Colbol", "prefix": "", "user": {"location": {"city": "Tucker", "state": "GA", "country": "United States"}}}}]}}, {"id": 36928900, "seedNum": 2, "entrant": {"id": 21483402, "name": "skyguy | fknsilver", "participants": [{"id": 19742791, "gamerTag": "fknsilver", "prefix": "skyguy", "user": {"location": {"city": "Monroe", "state": "GA", "country": "United States"}}, "player": {"id": 220377, "gamerTag": "fknsilver", "prefix": "skyguy", "user": {"location": {"city": "Monroe", "state": "GA", "country": "United States"}}}}]}}, {"id": 36862940, "seedNum": 10, "entrant": {"id": 21437926, "name": "NMBS | Phteven", "participants": [{"id": 19703466, "gamerTag": "Phteven", "prefix": "NMBS", "user": {"location": {"city": "Mableton", "state": "GA", "country": "United States"}}, "player": {"id": 209952, "gamerTag": "Phteven", "prefix": "NMBS", "user": {"location": {"city": "Mableton", "state": "GA", "country": "United States"}}}}]}}, {"id": 36925063, "seedNum": 5, "entrant": {"id": 21480840, "name": "cardd", "participants": [{"id": 19740481, "gamerTag": "cardd", "prefix": "", "user": {"location": {"city": "ATL", "state": "GA", "country": "United States"}}, "player": {"id": 34781, "gamerTag": "cardd", "prefix": "", "user": {"location": {"city": "ATL", "state": "GA", "country": "United States"}}}}]}}, {"id": 36926566, "seedNum": 3, "entrant": {"id": 21481995, "name": "vivesthesia", "participants": [{"id": 19741445, "gamerTag": "vivesthesia", "prefix": null, "user": {"location": {"city": "Atlanta", "state": "GA", "country": "United States"}}, "player": {"id": 4395171, "gamerTag": "vivesthesia", "prefix": null, "user": {"location": {"city": "Atlanta", "state": "GA", "country": "United States"}}}}]}}, {"id": 36927445, "seedNum": 7, "entrant": {"id": 21482543, "name": "skyguy | Chris Danger", "participants": [{"id": 19741961, "gamerTag": "Chris Danger", "prefix": "skyguy", "user": {"location": {"city": "Atlanta", "state": "GA", "country": "United States"}}, "player": {"id": 2808268, "gamerTag": "Chris Danger", "prefix": "skyguy", "user": {"location": {"city": "Atlanta", "state": "GA", "country": "United States"}}}}]}}, {"id": 36902427, "seedNum": 4, "entrant": {"id": 21464593, "name": "audrey", "participants": [{"id": 19726449, "gamerTag": "audrey", "prefix": null, "user": {"location": {"city": "Dunwoody", "state": "GA", "country": "United States"}}, "player": {"id": 1335864, "gamerTag": "audrey", "prefix": null, "user": {"location": {"city": "Dunwoody", "state": "GA", "country": "United States"}}}}]}}, {"id": 36920734, "seedNum": 13, "entrant": {"id": 21477242, "name": "Payne", "participants": [{"id": 19737172, "gamerTag": "Payne", "prefix": null, "user": {"location": {"city": "Mobile", "state": "AL", "country": "United States"}}, "player": {"id": 2661254, "gamerTag": "Payne", "prefix": null, "user": {"location": {"city": "Mobile", "state": "AL", "country": "United States"}}}}]}}, {"id": 36929132, "seedNum": 8, "entrant": {"id": 21483619, "name": "Wolven", "participants": [{"id": 19742982, "gamerTag": "Wolven", "prefix": null, "user": {"location": {"city": "Atlanta", "state": "GA", "country": "United States"}}, "player": {"id": 126978, "gamerTag": "Wolven", "prefix": null, "user": {"location": {"city": "Atlanta", "state": "GA", "country": "United States"}}}}]}}, {"id": 36924693, "seedNum": 9, "entrant": {"id": 21480523, "name": "Monolithic", "participants": [{"id": 19740170, "gamerTag": "Monolithic", "prefix": "", "user": {"location": {"city": "", "state": "GA", "country": "United States"}}, "player": {"id": 1926775, "gamerTag": "Monolithic", "prefix": "", "user": {"location": {"city": "", "state": "GA", "country": "United States"}}}}]}}, {"id": 36926329, "seedNum": 11, "entrant": {"id": 21481813, "name": "hexjo", "participants": [{"id": 19741251, "gamerTag": "hexjo", "prefix": "", "user": {"location": {"city": "Boston", "state": "MA", "country": "United States"}}, "player": {"id": 29103, "gamerTag": "hexjo", "prefix": "", "user": {"location": {"city": "Boston", "state": "MA", "country": "United States"}}}}]}}, {"id": 36929271, "seedNum": 14, "entrant": {"id": 21483743, "name": "Tipped Off | Ohan", "participants": [{"id": 19741901, "gamerTag": "Ohan", "prefix": "Tipped Off", "user": {"location": {"city": "Atlanta", "state": "GA", "country": "United States"}}, "player": {"id": 353071, "gamerTag": "Ohan", "prefix": "Tipped Off", "user": {"location": {"city": "Atlanta", "state": "GA", "country": "United States"}}}}]}}, {"id": 36929906, "seedNum": 6, "entrant": {"id": 21483858, "name": "69TacoTuesday69", "participants": [{"id": 19743196, "gamerTag": "69TacoTuesday69", "prefix": "", "user": {"location": {"city": "Atlanta", "state": "GA", "country": "United States"}}, "player": {"id": 158130, "gamerTag": "69TacoTuesday69", "prefix": "", "user": {"location": {"city": "Atlanta", "state": "GA", "country": "United States"}}}}]}}, {"id": 36862923, "seedNum": 12, "entrant": {"id": 21437908, "name": "N/a | C$", "participants": [{"id": 19703450, "gamerTag": "C$", "prefix": "N/a", "user": {"location": null}, "player": {"id": 228175, "gamerTag": "C$", "prefix": "N/a", "user": {"location": null}}}]}}, {"id": 36925676, "seedNum": 15, "entrant": {"id": 21481313, "name": "EVIL | Alas", "participants": [{"id": 19740808, "gamerTag": "Alas", "prefix": "EVIL", "user": {"location": {"city": null, "state": null, "country": null}}, "player": {"id": 25946, "gamerTag": "Alas", "prefix": "EVIL", "user": {"location": {"city": null, "state": null, "country": null}}}}]}}, {"id": 36925396, "seedNum": 16, "entrant": {"id": 21481089, "name": "Ronan", "participants": [{"id": 19740658, "gamerTag": "Ronan", "prefix": "", "user": {"location": {"city": "Atlanta", "state": "GA", "country": "United States"}}, "player": {"id": 147384, "gamerTag": "Ronan", "prefix": "", "user": {"location": {"city": "Atlanta", "state": "GA", "country": "United States"}}}}]}}, {"id": 36926101, "seedNum": 17, "entrant": {"id": 21481599, "name": "Olivia Stone", "participants": [{"id": 19741046, "gamerTag": "Olivia Stone", "prefix": "", "user": {"location": {"city": "Boone", "state": "NC", "country": "United States"}}, "player": {"id": 2869887, "gamerTag": "Olivia Stone", "prefix": "", "user": {"location": {"city": "Boone", "state": "NC", "country": "United States"}}}}]}}, {"id": 36921918, "seedNum": 18, "entrant": {"id": 21478225, "name": "Juan J. Steven's", "participants": [{"id": 19738055, "gamerTag": "Juan J. Steven's", "prefix": null, "user": {"location": {"city": "atlanta", "state": "GA", "country": "United States"}}, "player": {"id": 3318064, "gamerTag": "Guts", "prefix": "\u72a0\u7272\u306e\u70d9\u5370", "user": {"location": {"city": "atlanta", "state": "GA", "country": "United States"}}}}]}}, {"id": 36927418, "seedNum": 19, "entrant": {"id": 21482516, "name": "jakefan01", "participants": [{"id": 19741939, "gamerTag": "jakefan01", "prefix": "", "user": null, "player": {"id": 5008190, "gamerTag": "jakefan01", "prefix": "", "user": null}}]}}, {"id": 36912168, "seedNum": 20, "entrant": {"id": 21471446, "name": "blaise", "participants": [{"id": 19732003, "gamerTag": "blaise", "prefix": "", "user": {"location": {"city": "douglasville", "state": "GA", "country": "United States"}}, "player": {"id": 1326121, "gamerTag": "blaise", "prefix": "", "user": {"location": {"city": "douglasville", "state": "GA", "country": "United States"}}}}]}}, {"id": 36929196, "seedNum": 21, "entrant": {"id": 21483682, "name": "noided", "participants": [{"id": 19743029, "gamerTag": "noided", "prefix": "", "user": {"location": {"city": "Atlanta", "state": "GA", "country": "United States"}}, "player": {"id": 2586521, "gamerTag": "noided", "prefix": "", "user": {"location": {"city": "Atlanta", "state": "GA", "country": "United States"}}}}]}}, {"id": 36926421, "seedNum": 22, "entrant": {"id": 21481897, "name": "Tyme", "participants": [{"id": 19741344, "gamerTag": "Tyme", "prefix": null, "user": {"location": {"city": null, "state": null, "country": null}}, "player": {"id": 325589, "gamerTag": "Tyme", "prefix": null, "user": {"location": {"city": null, "state": null, "country": null}}}}]}}, {"id": 36925969, "seedNum": 23, "entrant": {"id": 21481481, "name": "Joey Christ", "participants": [{"id": 19740947, "gamerTag": "Joey Christ", "prefix": "", "user": {"location": {"city": "perry", "state": "GA", "country": "United States"}}, "player": {"id": 1920484, "gamerTag": "Joey Christ", "prefix": "", "user": {"location": {"city": "perry", "state": "GA", "country": "United States"}}}}]}}, {"id": 36924929, "seedNum": 24, "entrant": {"id": 21480747, "name": "Newt Man", "participants": [{"id": 19740389, "gamerTag": "Newt Man", "prefix": "", "user": {"location": {"city": null, "state": null, "country": "United States"}}, "player": {"id": 4726806, "gamerTag": "Newt Man", "prefix": "", "user": {"location": {"city": null, "state": null, "country": "United States"}}}}]}}, {"id": 36923789, "seedNum": 25, "entrant": {"id": 21479774, "name": "TSOAP | MuchOlmec", "participants": [{"id": 19739482, "gamerTag": "MuchOlmec", "prefix": "TSOAP", "user": {"location": {"city": "Athens", "state": "GA", "country": "United States"}}, "player": {"id": 1105460, "gamerTag": "MuchOlmec", "prefix": "TSOAP", "user": {"location": {"city": "Athens", "state": "GA", "country": "United States"}}}}]}}, {"id": 36924368, "seedNum": 26, "entrant": {"id": 21480259, "name": "hime", "participants": [{"id": 19739931, "gamerTag": "hime", "prefix": "", "user": {"location": {"city": "Atlanta", "state": "GA", "country": "United States"}}, "player": {"id": 1248913, "gamerTag": "hime", "prefix": "", "user": {"location": {"city": "Atlanta", "state": "GA", "country": "United States"}}}}]}}, {"id": 36927040, "seedNum": 27, "entrant": {"id": 21482188, "name": "Permafrost", "participants": [{"id": 19741624, "gamerTag": "Permafrost", "prefix": "", "user": {"location": {"city": "Atlanta", "state": "GA", "country": "United States"}}, "player": {"id": 1256898, "gamerTag": "Permafrost", "prefix": "", "user": {"location": {"city": "Atlanta", "state": "GA", "country": "United States"}}}}]}}, {"id": 36922468, "seedNum": 28, "entrant": {"id": 21478651, "name": "June!", "participants": [{"id": 19738445, "gamerTag": "June!", "prefix": null, "user": {"location": {"city": null, "state": "GA", "country": "United States"}}, "player": {"id": 1969803, "gamerTag": "June!", "prefix": null, "user": {"location": {"city": null, "state": "GA", "country": "United States"}}}}]}}, {"id": 36922334, "seedNum": 29, "entrant": {"id": 21478578, "name": "TPS | $CAITLIN", "participants": [{"id": 19738374, "gamerTag": "$CAITLIN", "prefix": "TPS", "user": {"location": {"city": "Acworth", "state": "GA", "country": "United States"}}, "player": {"id": 3422494, "gamerTag": "$CAITLIN", "prefix": "TPS", "user": {"location": {"city": "Acworth", "state": "GA", "country": "United States"}}}}]}}, {"id": 36917729, "seedNum": 30, "entrant": {"id": 21475185, "name": "popsicle", "participants": [{"id": 19735277, "gamerTag": "popsicle", "prefix": "", "user": {"location": {"city": "Atlanta", "state": "GA", "country": "United States"}}, "player": {"id": 4435133, "gamerTag": "popsicle", "prefix": "", "user": {"location": {"city": "Atlanta", "state": "GA", "country": "United States"}}}}]}}]}}}