{"event": {"sets": {"pageInfo": {"totalPages": 9, "total": 123}, "nodes": [{"id": 92091538, "state": 3, "round": 1, "fullRoundText": "Winners Round 1", "completedAt": 1754008733, "winnerId": 20847672, "slots": [{"id": "92091538-0", "entrant": {"id": 20847672, "name": "FAT | Phantomtheif", "participants": [{"id": 19183969, "gamerTag": "Phantomtheif", "prefix": "FAT", "user": {"location": {"city": "Columbus", "state": "AL", "country": "United States"}}, "player": {"id": 469237, "gamerTag": "Phantomtheif", "prefix": "FAT", "user": {"location": {"city": "Columbus", "state": "AL", "country": "United States"}}}}]}, "standing": {"placement": 1, "stats": {"score": {"value": 2}}}}, {"id": "92091538-1", "entrant": {"id": 20853659, "name": "HelpMe", "participants": [{"id": 19189656, "gamerTag": "HelpMe", "prefix": null, "user": {"location": {"city": null, "state": "GA", "country": "United States"}}, "player": {"id": 1693617, "gamerTag": "HelpMe", "prefix": null, "user": {"location": {"city": null, "state": "GA", "country": "United States"}}}}]}, "standing": {"placement": 2, "stats": {"score": {"value": 1}}}}], "games": null}, {"id": 92091539, "state": 3, "round": 1, "fullRoundText": "Winners Round 1", "completedAt": 1754008446, "winnerId": 20851402, "slots": [{"id": "92091539-0", "entrant": {"id": 20851402, "name": "Coven | Shelley", "participants": [{"id": 19187522, "gamerTag": "Shelley", "prefix": "Coven", "user": {"location": {"city": "Norcross", "state": "MS", "country": "United States"}}, "player": {"id": 4726196, "gamerTag": "REM!!!", "prefix": "Coven", "user": {"location": {"city": "Norcross", "state": "MS", "country": "United States"}}}}]}, "standing": {"placement": 1, "stats": {"score": {"value": 2}}}}, {"id": "92091539-1", "entrant": {"id": 20851721, "name": "Raymond", "participants": [{"id": 19187834, "gamerTag": "Raymond", "prefix": "", "user": {"location": {"city": "Atlanta", "state": "GA", "country": "United States"}}, "player": {"id": 904449, "gamerTag": "Raymond", "prefix": "", "user": {"location": {"city": "Atlanta", "state": "GA", "country": "United States"}}}}]}, "standing": {"placement": 2, "stats": {"score": {"value": 1}}}}], "games": null}, {"id": 92091540, "state": 3, "round": 1, "fullRoundText": "Winners Round 1", "completedAt": 1754008627, "winnerId": 20847513, "slots": [{"id": "92091540-0", "entrant": {"id": 20847513, "name": "MilesisBae", "participants": [{"id": 19183854, "gamerTag": "MilesisBae", "prefix": "", "user": {"location": {"city": "Richmond", "state": "VA", "country": "United States"}}, "player": {"id": 1218383, "gamerTag": "MilesisBae", "prefix": "", "user": {"location": {"city": "Richmond", "state": "VA", "country": "United States"}}}}]}, "standing": {"placement": 1, "stats": {"score": {"value": 2}}}}, {"id": "92091540-1", "entrant": {"id": 20853456, "name": "promamamia", "participants": [{"id": 19189473, "gamerTag": "promamamia", "prefix": "", "user": {"location": {"city": "Alpharetta", "state": "GA", "country": "United States"}}, "player": {"id": 3548468, "gamerTag": "promamamia", "prefix": "", "user": {"location": {"city": "Alpharetta", "state": "GA", "country": "United States"}}}}]}, "standing": {"placement": 2, "stats": {"score": {"value": 1}}}}], "games": [{"id": 31644025, "orderNum": 1, "winnerId": 20853456, "entrant1Score": 0, "entrant2Score": null, "stage": null, "selections": [{"id": 46584977, "selectionType": "CHARACTER", "selectionValue": 1526, "entrant": {"id": 20847513}, "character": {"id": 1526, "name": "Hero"}}, {"id": 46584978, "selectionType": "CHARACTER", "selectionValue": 1326, "entrant": {"id": 20853456}, "character": {"id": 1326, "name": "Roy"}}]}, {"id": 31644026, "orderNum": 2, "winnerId": 20847513, "entrant1Score": null, "entrant2Score": 0, "stage": null, "selections": [{"id": 46584979, "selectionType": "CHARACTER", "selectionValue": 1526, "entrant": {"id": 20847513}, "character": {"id": 1526, "name": "Hero"}}, {"id": 46584980, "selectionType": "CHARACTER", "selectionValue": 1326, "entrant": {"id": 20853456}, "character": {"id": 1326, "name": "Roy"}}]}, {"id": 31644027, "orderNum": 3, "winnerId": 20847513, "entrant1Score": null, "entrant2Score": 0, "stage": null, "selections": [{"id": 46584981, "selectionType": "CHARACTER", "selectionValue": 1526, "entrant": {"id": 20847513}, "character": {"id": 1526, "name": "Hero"}}, {"id": 46584982, "selectionType": "CHARACTER", "selectionValue": 1326, "entrant": {"id": 20853456}, "character": {"id": 1326, "name": "Roy"}}]}]}, {"id": 92091541, "state": 3, "round": 1, "fullRoundText": "Winners Round 1", "completedAt": 1754008036, "winnerId": 20845200, "slots": [{"id": "92091541-0", "entrant": {"id": 20845200, "name": "ROK | Surehyper", "participants": [{"id": 19181858, "gamerTag": "Surehyper", "prefix": "ROK", "user": {"location": {"city": "Miami", "state": "FL", "country": "United States"}}, "player": {"id": 1726915, "gamerTag": "Surehyper", "prefix": "ROK", "user": {"location": {"city": "Miami", "state": "FL", "country": "United States"}}}}]}, "standing": {"placement": 1, "stats": {"score": {"value": 2}}}}, {"id": "92091541-1", "entrant": {"id": 20853877, "name": "AjaxAnonymous", "participants": [{"id": 19189838, "gamerTag": "AjaxAnonymous", "prefix": null, "user": {"location": {"city": "Atlanta", "state": "GA", "country": "United States"}}, "player": {"id": 4308428, "gamerTag": "AjaxAnonymous", "prefix": null, "user": {"location": {"city": "Atlanta", "state": "GA", "country": "United States"}}}}]}, "standing": {"placement": 2, "stats": {"score": {"value": 0}}}}], "games": null}, {"id": 92091542, "state": 3, "round": 1, "fullRoundText": "Winners Round 1", "completedAt": 1754008220, "winnerId": 20852752, "slots": [{"id": "92091542-0", "entrant": {"id": 20853465, "name": "EdgyKnight", "participants": [{"id": 19189481, "gamerTag": "EdgyKnight", "prefix": "", "user": {"location": {"city": "Snellvile", "state": "GA", "country": "United States"}}, "player": {"id": 367828, "gamerTag": "EdgyKnight", "prefix": "", "user": {"location": {"city": "Snellvile", "state": "GA", "country": "United States"}}}}]}, "standing": {"placement": 2, "stats": {"score": {"value": 0}}}}, {"id": "92091542-1", "entrant": {"id": 20852752, "name": "Whaley", "participants": [{"id": 19188833, "gamerTag": "Whaley", "prefix": "", "user": {"location": {"city": "Stone Mountain", "state": "GA", "country": "United States"}}, "player": {"id": 2016149, "gamerTag": "Whaley", "prefix": "KSU|UTO|BLZE", "user": {"location": {"city": "Stone Mountain", "state": "GA", "country": "United States"}}}}]}, "standing": {"placement": 1, "stats": {"score": {"value": 2}}}}], "games": null}, {"id": 92091543, "state": 3, "round": 1, "fullRoundText": "Winners Round 1", "completedAt": 1754008589, "winnerId": 20853040, "slots": [{"id": "92091543-0", "entrant": {"id": 20853040, "name": "GUMP2 | Spider", "participants": [{"id": 19189080, "gamerTag": "Spider", "prefix": "GUMP2", "user": {"location": {"city": "Atlanta", "state": "GA", "country": "United States"}}, "player": {"id": 691176, "gamerTag": "Spider", "prefix": "GUMP2", "user": {"location": {"city": "Atlanta", "state": "GA", "country": "United States"}}}}]}, "standing": {"placement": 1, "stats": {"score": {"value": 2}}}}, {"id": "92091543-1", "entrant": {"id": 20852390, "name": "Nikol", "participants": [{"id": 19188499, "gamerTag": "Nikol", "prefix": "", "user": {"location": {"city": "Stockbridge", "state": "GA", "country": "United States"}}, "player": {"id": 2152846, "gamerTag": "Nikol", "prefix": "", "user": {"location": {"city": "Stockbridge", "state": "GA", "country": "United States"}}}}]}, "standing": {"placement": 2, "stats": {"score": {"value": 0}}}}], "games": [{"id": 31644006, "orderNum": 1, "winnerId": 20853040, "entrant1Score": null, "entrant2Score": 0, "stage": null, "selections": [{"id": 46584949, "selectionType": "CHARACTER", "selectionValue": 1897, "entrant": {"id": 20852390}, "character": {"id": 1897, "name": "Sora"}}, {"id": 46584950, "selectionType": "CHARACTER", "selectionValue": 1333, "entrant": {"id": 20853040}, "character": {"id": 1333, "name": "Toon Link"}}]}, {"id": 31644007, "orderNum": 2, "winnerId": 20853040, "entrant1Score": null, "entrant2Score": 0, "stage": null, "selections": [{"id": 46584951, "selectionType": "CHARACTER", "selectionValue": 1897, "entrant": {"id": 20852390}, "character": {"id": 1897, "name": "Sora"}}, {"id": 46584952, "selectionType": "CHARACTER", "selectionValue": 1275, "entrant": {"id": 20853040}, "character": {"id": 1275, "name": "Cloud"}}]}]}, {"id": 92091544, "state": 3, "round": 1, "fullRoundText": "Winners Round 1", "completedAt": 1754008823, "winnerId": 20796667, "slots": [{"id": "92091544-0", "entrant": {"id": 20796667, "name": "iNGenius", "participants": [{"id": 19139613, "gamerTag": "iNGenius", "prefix": "", "user": {"location": {"city": null, "state": null, "country": null}}, "player": {"id": 3194293, "gamerTag": "iNGenius", "prefix": "", "user": {"location": {"city": null, "state": null, "country": null}}}}]}, "standing": {"placement": 1, "stats": {"score": {"value": 2}}}}, {"id": "92091544-1", "entrant": {"id": 20852392, "name": "Chrysalis", "participants": [{"id": 19188501, "gamerTag": "Chrysalis", "prefix": "", "user": {"location": {"city": "Cartersville", "state": "GA", "country": "United States"}}, "player": {"id": 1512632, "gamerTag": "Chrysalis", "prefix": "", "user": {"location": {"city": "Cartersville", "state": "GA", "country": "United States"}}}}]}, "standing": {"placement": 2, "stats": {"score": {"value": 0}}}}], "games": null}, {"id": 92091546, "state": 3, "round": 1, "fullRoundText": "Winners Round 1", "completedAt": 1754008971, "winnerId": 20853063, "slots": [{"id": "92091546-0", "entrant": {"id": 20854106, "name": "WFF | Happy", "participants": [{"id": 19190030, "gamerTag": "Happy", "prefix": "WFF", "user": {"location": {"city": "Peachtree CIty", "state": "GA", "country": "United States"}}, "player": {"id": 1383907, "gamerTag": "Happy", "prefix": "WFF", "user": {"location": {"city": "Peachtree CIty", "state": "GA", "country": "United States"}}}}]}, "standing": {"placement": 2, "stats": {"score": {"value": 0}}}}, {"id": "92091546-1", "entrant": {"id": 20853063, "name": "Kasane | Teto", "participants": [{"id": 19189103, "gamerTag": "Teto", "prefix": "Kasane", "user": {"location": {"city": "Hanover", "state": "IN", "country": "United States"}}, "player": {"id": 2683548, "gamerTag": "Teto", "prefix": "Kasane", "user": {"location": {"city": "Hanover", "state": "IN", "country": "United States"}}}}]}, "standing": {"placement": 1, "stats": {"score": {"value": 2}}}}], "games": null}, {"id": 92091547, "state": 3, "round": 1, "fullRoundText": "Winners Round 1", "completedAt": 1754008870, "winnerId": 20851783, "slots": [{"id": "92091547-0", "entrant": {"id": 20851783, "name": "Cobalt", "participants": [{"id": 19187901, "gamerTag": "Cobalt", "prefix": null, "user": {"location": {"city": "Gainesville", "state": "GA", "country": "United States"}}, "player": {"id": 181792, "gamerTag": "Cobalt", "prefix": null, "user": {"location": {"city": "Gainesville", "state": "GA", "country": "United States"}}}}]}, "standing": {"placement": 1, "stats": {"score": {"value": 2}}}}, {"id": "92091547-1", "entrant": {"id": 20853435, "name": "Par-i-dot Alpha", "participants": [{"id": 19189451, "gamerTag": "Par-i-dot Alpha", "prefix": "", "user": {"location": {"city": "Lithoina", "state": "GA", "country": "United States"}}, "player": {"id": 36418, "gamerTag": "Avalon", "prefix": "", "user": {"location": {"city": "Lithoina", "state": "GA", "country": "United States"}}}}]}, "standing": {"placement": 2, "stats": {"score": {"value": 0}}}}], "games": null}, {"id": 92091548, "state": 3, "round": 1, "fullRoundText": "Winners Round 1", "completedAt": 1754008836, "winnerId": 20845560, "slots": [{"id": "92091548-0", "entrant": {"id": 20845560, "name": "GUMP2 | JankTrees!", "participants": [{"id": 19182198, "gamerTag": "JankTrees!", "prefix": "GUMP2", "user": {"location": {"city": "Cartersville", "state": "GA", "country": "United States"}}, "player": {"id": 35695, "gamerTag": "JankTrees!", "prefix": "GUMP2", "user": {"location": {"city": "Cartersville", "state": "GA", "country": "United States"}}}}]}, "standing": {"placement": 1, "stats": {"score": {"value": 2}}}}, {"id": "92091548-1", "entrant": {"id": 20854027, "name": "4o4 | Sh33rZ", "participants": [{"id": 19189967, "gamerTag": "Sh33rZ", "prefix": "4o4", "user": {"location": {"city": "alpharetta", "state": "GA", "country": "United States"}}, "player": {"id": 3640465, "gamerTag": "Sh33rZ", "prefix": "4o4", "user": {"location": {"city": "alpharetta", "state": "GA", "country": "United States"}}}}]}, "standing": {"placement": 2, "stats": {"score": {"value": 0}}}}], "games": null}, {"id": 92091549, "state": 3, "round": 1, "fullRoundText": "Winners Round 1", "completedAt": 1754009054, "winnerId": 20854024, "slots": [{"id": "92091549-0", "entrant": {"id": 20854024, "name": "KumaDusk", "participants": [{"id": 19189966, "gamerTag": "KumaDusk", "prefix": "", "user": {"location": {"city": "Lawrenceville", "state": "GA", "country": "United States"}}, "player": {"id": 253909, "gamerTag": "KumaDusk", "prefix": "", "user": {"location": {"city": "Lawrenceville", "state": "GA", "country": "United States"}}}}]}, "standing": {"placement": 1, "stats": {"score": {"value": 2}}}}, {"id": "92091549-1", "entrant": {"id": 20852443, "name": "V$ | EdiblePine", "participants": [{"id": 19188552, "gamerTag": "EdiblePine", "prefix": "V$", "user": {"location": {"city": "Atlanta", "state": "GA", "country": "United States"}}, "player": {"id": 1648278, "gamerTag": "EdiblePine", "prefix": "AP", "user": {"location": {"city": "Atlanta", "state": "GA", "country": "United States"}}}}]}, "standing": {"placement": 2, "stats": {"score": {"value": 0}}}}], "games": null}, {"id": 92091550, "state": 3, "round": 1, "fullRoundText": "Winners Round 1", "completedAt": 1754009597, "winnerId": 20847298, "slots": [{"id": "92091550-0", "entrant": {"id": 20847298, "name": "cO | Netherlord64", "participants": [{"id": 19183708, "gamerTag": "Netherlord64", "prefix": "cO", "user": {"location": {"city": "Roswell", "state": "GA", "country": "United States"}}, "player": {"id": 4586226, "gamerTag": "Netherlord64", "prefix": "", "user": {"location": {"city": "Roswell", "state": "GA", "country": "United States"}}}}]}, "standing": {"placement": 1, "stats": {"score": {"value": 2}}}}, {"id": "92091550-1", "entrant": {"id": 20853362, "name": "KSU | Subzero", "participants": [{"id": 19189383, "gamerTag": "Subzero", "prefix": "KSU", "user": {"location": {"city": "Acworth", "state": "GA", "country": "United States"}}, "player": {"id": 1808159, "gamerTag": "Subzero", "prefix": "KSU", "user": {"location": {"city": "Acworth", "state": "GA", "country": "United States"}}}}]}, "standing": {"placement": 2, "stats": {"score": {"value": 1}}}}], "games": null}, {"id": 92091551, "state": 3, "round": 1, "fullRoundText": "Winners Round 1", "completedAt": 1754009434, "winnerId": 20854329, "slots": [{"id": "92091551-0", "entrant": {"id": 20854329, "name": "MBS | Vivid", "participants": [{"id": 19190198, "gamerTag": "Vivid", "prefix": "MBS", "user": {"location": {"city": "Atl", "state": "GA", "country": "United States"}}, "player": {"id": 499333, "gamerTag": "Vivid", "prefix": "MBS", "user": {"location": {"city": "Atl", "state": "GA", "country": "United States"}}}}]}, "standing": {"placement": 1, "stats": {"score": {"value": 2}}}}, {"id": "92091551-1", "entrant": {"id": 20853367, "name": "MTM | Mishmash", "participants": [{"id": 19189388, "gamerTag": "Mishmash", "prefix": "MTM", "user": {"location": {"city": "Cartersville", "state": "GA", "country": "United States"}}, "player": {"id": 4104907, "gamerTag": "Mishmash", "prefix": "MTM", "user": {"location": {"city": "Cartersville", "state": "GA", "country": "United States"}}}}]}, "standing": {"placement": 2, "stats": {"score": {"value": 0}}}}], "games": null}, {"id": 92091552, "state": 3, "round": 1, "fullRoundText": "Winners Round 1", "completedAt": 1754009389, "winnerId": 20849587, "slots": [{"id": "92091552-0", "entrant": {"id": 20849587, "name": "LBE | Savant", "participants": [{"id": 19185809, "gamerTag": "Savant", "prefix": "LBE", "user": {"location": {"city": "Athens", "state": "GA", "country": "United States"}}, "player": {"id": 1944044, "gamerTag": "Savant", "prefix": "LBE | CC", "user": {"location": {"city": "Athens", "state": "GA", "country": "United States"}}}}]}, "standing": {"placement": 1, "stats": {"score": {"value": 2}}}}, {"id": "92091552-1", "entrant": {"id": 20853419, "name": "RM | WFF | Sakruoi", "participants": [{"id": 19189435, "gamerTag": "Sakruoi", "prefix": "RM | WFF", "user": {"location": {"city": "atlanta", "state": "GA", "country": "United States"}}, "player": {"id": 1230555, "gamerTag": "Sakruoi", "prefix": "RM | WFF", "user": {"location": {"city": "atlanta", "state": "GA", "country": "United States"}}}}]}, "standing": {"placement": 2, "stats": {"score": {"value": 0}}}}], "games": null}, {"id": 92091553, "state": 3, "round": 1, "fullRoundText": "Winners Round 1", "completedAt": 1754009046, "winnerId": 20854266, "slots": [{"id": "92091553-0", "entrant": {"id": 20854266, "name": "ROK | Sneaky Pocket Golem", "participants": [{"id": 19190157, "gamerTag": "Sneaky Pocket Golem", "prefix": "ROK", "user": {"location": {"city": "Miami", "state": "FL", "country": "United States"}}, "player": {"id": 1042374, "gamerTag": "Riku", "prefix": "ROK", "user": {"location": {"city": "Miami", "state": "FL", "country": "United States"}}}}]}, "standing": {"placement": 1, "stats": {"score": {"value": 2}}}}, {"id": "92091553-1", "entrant": {"id": 20853159, "name": "Trap", "participants": [{"id": 19189192, "gamerTag": "Trap", "prefix": "", "user": {"location": {"city": null, "state": null, "country": "United States"}}, "player": {"id": 4903493, "gamerTag": "Trap", "prefix": "", "user": {"location": {"city": null, "state": null, "country": "United States"}}}}]}, "standing": {"placement": 2, "stats": {"score": {"value": 0}}}}], "games": null}]}}}