{"phase": {"seeds": {"pageInfo": {"totalPages": 1, "total": 23}, "nodes": [{"id": 36589470, "seedNum": 1, "entrant": {"id": 21248384, "name": "The Simpsons | Ryu from Streets", "participants": [{"id": 19539816, "gamerTag": "Ryu from Streets", "prefix": "The Simpsons", "user": {"location": {"city": null, "state": null, "country": null}}, "player": {"id": 2348605, "gamerTag": "Ryu from Streets", "prefix": "GUMP2", "user": {"location": {"city": null, "state": null, "country": null}}}}]}}, {"id": 36547442, "seedNum": 2, "entrant": {"id": 21218014, "name": "GUMP2 | JankTrees!", "participants": [{"id": 19512996, "gamerTag": "JankTrees!", "prefix": "GUMP2", "user": {"location": {"city": "Cartersville", "state": "GA", "country": "United States"}}, "player": {"id": 35695, "gamerTag": "JankTrees!", "prefix": "GUMP2", "user": {"location": {"city": "Cartersville", "state": "GA", "country": "United States"}}}}]}}, {"id": 36555606, "seedNum": 6, "entrant": {"id": 21223905, "name": "Kingwifi", "participants": [{"id": 19518151, "gamerTag": "Kingwifi", "prefix": null, "user": {"location": {"city": "Stone Mountain", "state": "GA", "country": "United States"}}, "player": {"id": 2016149, "gamerTag": "Whaley", "prefix": "KSU|UTO|BLZE", "user": {"location": {"city": "Stone Mountain", "state": "GA", "country": "United States"}}}}]}}, {"id": 36569468, "seedNum": 5, "entrant": {"id": 21233765, "name": "RM | Twist!?", "participants": [{"id": 19526664, "gamerTag": "Twist!?", "prefix": "RM", "user": {"location": {"city": "Marietta", "state": "GA", "country": "United States"}}, "player": {"id": 1764076, "gamerTag": "Twist!?", "prefix": "RM", "user": {"location": {"city": "Marietta", "state": "GA", "country": "United States"}}}}]}}, {"id": 36527778, "seedNum": 7, "entrant": {"id": 21206212, "name": "KSU | colorful\u029a\u025e", "participants": [{"id": 19502702, "gamerTag": "colorful\u029a\u025e", "prefix": "KSU", "user": {"location": {"city": "Kennesaw", "state": "GA", "country": "United States"}}, "player": {"id": 1783074, "gamerTag": "colorful\u029a\u025e", "prefix": "KSU | RM", "user": {"location": {"city": "Kennesaw", "state": "GA", "country": "United States"}}}}]}}, {"id": 36534900, "seedNum": 13, "entrant": {"id": 21209672, "name": "CHEESE", "participants": [{"id": 19505696, "gamerTag": "CHEESE", "prefix": null, "user": {"location": {"city": "Buford", "state": "GA", "country": "United States"}}, "player": {"id": 3429754, "gamerTag": "CHEESE", "prefix": null, "user": {"location": {"city": "Buford", "state": "GA", "country": "United States"}}}}]}}, {"id": 36527988, "seedNum": 3, "entrant": {"id": 21206394, "name": "carlop", "participants": [{"id": 19502880, "gamerTag": "carlop", "prefix": null, "user": {"location": {"city": "Johns Creek", "state": "GA", "country": "United States"}}, "player": {"id": 3431919, "gamerTag": "carlop", "prefix": null, "user": {"location": {"city": "Johns Creek", "state": "GA", "country": "United States"}}}}]}}, {"id": 36583712, "seedNum": 9, "entrant": {"id": 21244344, "name": "promamamia", "participants": [{"id": 19536212, "gamerTag": "promamamia", "prefix": "", "user": {"location": {"city": "Alpharetta", "state": "GA", "country": "United States"}}, "player": {"id": 3548468, "gamerTag": "promamamia", "prefix": "", "user": {"location": {"city": "Alpharetta", "state": "GA", "country": "United States"}}}}]}}, {"id": 36529831, "seedNum": 4, "entrant": {"id": 21207967, "name": "red dot", "participants": [{"id": 19504263, "gamerTag": "red dot", "prefix": "", "user": {"location": {"city": "Milton", "state": "GA", "country": "United States"}}, "player": {"id": 1812177, "gamerTag": "red dot", "prefix": "", "user": {"location": {"city": "Milton", "state": "GA", "country": "United States"}}}}]}}, {"id": 36528405, "seedNum": 8, "entrant": {"id": 21206808, "name": "BlaZR", "participants": [{"id": 19503210, "gamerTag": "BlaZR", "prefix": "", "user": {"location": {"city": "ur mum", "state": null, "country": "United States"}}, "player": {"id": 1804122, "gamerTag": "BlaZR", "prefix": "", "user": {"location": {"city": "ur mum", "state": null, "country": "United States"}}}}]}}, {"id": 36546485, "seedNum": 10, "entrant": {"id": 21217185, "name": "KSU | Subzero", "participants": [{"id": 19512277, "gamerTag": "Subzero", "prefix": "KSU", "user": {"location": {"city": "Acworth", "state": "GA", "country": "United States"}}, "player": {"id": 1808159, "gamerTag": "Subzero", "prefix": "KSU", "user": {"location": {"city": "Acworth", "state": "GA", "country": "United States"}}}}]}}, {"id": 36589556, "seedNum": 11, "entrant": {"id": 21248440, "name": "SaggyMilkJug", "participants": [{"id": 19539869, "gamerTag": "SaggyMilkJug", "prefix": "", "user": {"location": {"city": "Atlanta", "state": "GA", "country": "United States"}}, "player": {"id": 4651404, "gamerTag": "SaggyMilkJug", "prefix": "", "user": {"location": {"city": "Atlanta", "state": "GA", "country": "United States"}}}}]}}, {"id": 36568019, "seedNum": 14, "entrant": {"id": 21232601, "name": "Mavis", "participants": [{"id": 19525639, "gamerTag": "Mavis", "prefix": "", "user": {"location": {"city": null, "state": "GA", "country": "United States"}}, "player": {"id": 1666352, "gamerTag": "Mavis", "prefix": "", "user": {"location": {"city": null, "state": "GA", "country": "United States"}}}}]}}, {"id": 36546958, "seedNum": 15, "entrant": {"id": 21217544, "name": "Balls54", "participants": [{"id": 19512581, "gamerTag": "Balls54", "prefix": null, "user": {"location": {"city": "Dalton", "state": "GA", "country": "United States"}}, "player": {"id": 2759443, "gamerTag": "Balls54", "prefix": null, "user": {"location": {"city": "Dalton", "state": "GA", "country": "United States"}}}}]}}, {"id": 36587956, "seedNum": 17, "entrant": {"id": 21247298, "name": "JAVA | Dark JAVA", "participants": [{"id": 19538814, "gamerTag": "Dark JAVA", "prefix": "JAVA", "user": {"location": {"city": "Alpharetta", "state": "GA", "country": "United States"}}, "player": {"id": 3961096, "gamerTag": "Dark JAVA", "prefix": "JAVA", "user": {"location": {"city": "Alpharetta", "state": "GA", "country": "United States"}}}}]}}, {"id": 36563296, "seedNum": 18, "entrant": {"id": 21229392, "name": "Stock Stealers | T.K.O", "participants": [{"id": 19522829, "gamerTag": "T.K.O", "prefix": "Stock Stealers", "user": {"location": {"city": "Smyrna", "state": "GA", "country": "United States"}}, "player": {"id": 4933114, "gamerTag": "T.K.O", "prefix": "Stock Stealer", "user": {"location": {"city": "Smyrna", "state": "GA", "country": "United States"}}}}]}}, {"id": 36580044, "seedNum": 12, "entrant": {"id": 21241750, "name": "RM | PrincePeach", "participants": [{"id": 19533906, "gamerTag": "PrincePeach", "prefix": "RM", "user": {"location": {"city": "Stone Mountain", "state": "GA", "country": "United States"}}, "player": {"id": 3003562, "gamerTag": "Prince Peach", "prefix": "RM", "user": {"location": {"city": "Stone Mountain", "state": "GA", "country": "United States"}}}}]}}, {"id": 36528048, "seedNum": 16, "entrant": {"id": 21206453, "name": "KSU | MikePTM", "participants": [{"id": 19502934, "gamerTag": "MikePTM", "prefix": "KSU", "user": {"location": {"city": null, "state": null, "country": "United States"}}, "player": {"id": 3586658, "gamerTag": "MikePTM", "prefix": "KSU", "user": {"location": {"city": null, "state": null, "country": "United States"}}}}]}}, {"id": 36565767, "seedNum": 19, "entrant": {"id": 21231045, "name": "Dusk_", "participants": [{"id": 19524273, "gamerTag": "Dusk_", "prefix": null, "user": {"location": {"city": "Atlanta", "state": "GA", "country": "United States"}}, "player": {"id": 2095313, "gamerTag": "Dusk_", "prefix": null, "user": {"location": {"city": "Atlanta", "state": "GA", "country": "United States"}}}}]}}, {"id": 36554713, "seedNum": 20, "entrant": {"id": 21223323, "name": "Kori", "participants": [{"id": 19517639, "gamerTag": "Kori", "prefix": "", "user": {"location": {"city": "", "state": "GA", "country": "United States"}}, "player": {"id": 2030915, "gamerTag": "Kori", "prefix": "", "user": {"location": {"city": "", "state": "GA", "country": "United States"}}}}]}}, {"id": 36589369, "seedNum": 21, "entrant": {"id": 21248306, "name": "MelloSlushy", "participants": [{"id": 19539744, "gamerTag": "MelloSlushy", "prefix": "", "user": {"location": {"city": null, "state": null, "country": "United States"}}, "player": {"id": 4265583, "gamerTag": "MelloSlushy", "prefix": "", "user": {"location": {"city": null, "state": null, "country": "United States"}}}}]}}, {"id": 36546929, "seedNum": 22, "entrant": {"id": 21217523, "name": "Washed_Zarious", "participants": [{"id": 19512565, "gamerTag": "Washed_Zarious", "prefix": null, "user": {"location": {"city": "Dalton", "state": "GA", "country": "United States"}}, "player": {"id": 4965798, "gamerTag": "Washed_Zarious", "prefix": null, "user": {"location": {"city": "Dalton", "state": "GA", "country": "United States"}}}}]}}, {"id": 36546999, "seedNum": 23, "entrant": {"id": 21217579, "name": "Firatt", "participants": [{"id": 19512609, "gamerTag": "Firatt", "prefix": null, "user": {"location": {"city": "Marietta", "state": "GA", "country": "United States"}}, "player": {"id": 4965993, "gamerTag": "Firatt", "prefix": null, "user": {"location": {"city": "Marietta", "state": "GA", "country": "United States"}}}}]}}]}}}